     2.11           OBSERVATION DATA    G (GPS)             RINEX VERSION / TYPE
teqc  2013Mar15                         20180107 21:00:04UTCPGM / RUN BY / DATE
Linux 2.4.21-27.ELsmp|Opteron|gcc -static|Linux x86_64|=+   COMMENT
teqc  2013Mar15                         20180107 21:00:03UTCCOMMENT
     2.11           OBSERVATION DATA    M (MIXED)           COMMENT
teqc  2017Jul3      GNSS Operator       20180106 00:19:18UTCCOMMENT
Solaris x86 5.10|AMD64|cc SC5.8 -xarch=amd64|=+|=+          COMMENT
teqc  2017Jul3      GNSS Operator       20180106 00:19:17UTCCOMMENT
BIT 2 OF LLI FLAGS DATA COLLECTED UNDER A/S CONDITION       COMMENT
SCIGN short dome on antenna;                                COMMENT
CONTACT gps@pgc.nrcan.gc.ca FOR ADDITIONAL INFORMATION      COMMENT
This data is subject to the Open Government Licence - CanadaCOMMENT
http://open.canada.ca/en/open-government-licence-canada     COMMENT
 SNR is mapped to RINEX snr flag value [0-9]                COMMENT
  L1 & L2: min(max(int(snr_dBHz/6), 0), 9)                  COMMENT
bamf  WCDA-ACP  M027005   Bamfield BC Canada                MARKER NAME
40190M001                                                   MARKER NUMBER
PGC-WCDA            GEOL. SURV. CANADA                      OBSERVER / AGENCY
4635120789          TRIMBLE NETRS       1.3-2               REC # / TYPE / VERS
0220366143          TRM29659.00     SCIS                    ANT # / TYPE
 -2420720.5200 -3439857.2600  4778532.6700                  APPROX POSITION XYZ
        0.0000        0.0000        0.0000                  ANTENNA: DELTA H/E/N
     1     1                                                WAVELENGTH FACT L1/2
     8    C1    C2    P1    P2    L1    L2    S1    S2      # / TYPES OF OBSERV
teqc windowed: start @ 2018 Jan  6 00:00:00.000             COMMENT
teqc windowed:  end  @ 2018 Jan  6 00:14:59.000             COMMENT
    18                                                      LEAP SECONDS
teqc edited: all GLONASS satellites excluded                COMMENT
  2018     1     6     0     0    0.0000000     GPS         TIME OF FIRST OBS
                                                            END OF HEADER
 18  1  6  0  0  0.0000000  0  6G07G09G30G23G16G05
  21311796.242    21311783.426                    21311783.422   -16238786.363 8
 -14782497.998 8        52.200          48.800
  20025167.242    20025156.711                    20025157.293   -25728907.627 8
 -20041883.150 8        51.500          53.800
  23088672.125    23088664.816                    23088664.520    -8116357.115 7
  -7348465.895 7        42.500          44.500
  21073187.867                                    21073174.051   -22779593.135 7
 -16324428.70446        47.500          37.800
  21780297.164                                    21780286.277    -5672290.375 5
  -4219537.46642        33.000          14.800
  24560184.531    24560174.586                    24560173.527    -2354094.380 6
  -1825006.590 6        36.300          39.000
 18  1  6  0  0  1.0000000  0  6G07G09G30G23G16G05
  21311441.898    21311429.492                    21311429.488   -16240647.424 8
 -14783948.173 8        52.100          48.800
  20025136.477    20025124.832                    20025125.238   -25729071.470 8
 -20042010.812 8        51.100          53.700
  23088107.891    23088099.762                    23088099.582    -8119325.392 7
  -7350778.839 7        42.700          44.500
  21073522.797                                    21073509.039   -22777832.216 7
 -16323056.56146        47.900          38.200
  21780695.641                                    21780685.105    -5670194.726 5
  -4217904.48842        32.000          15.600
  24559619.078    24559609.953                    24559608.895    -2357063.388 6
  -1827320.100 6        36.700          39.000
 18  1  6  0  0  2.0000000  0  6G07G09G30G23G16G05
  21311087.781    21311075.375                    21311075.430   -16242508.437 8
 -14785398.310 8        52.200          48.800
  20025104.008    20025093.887                    20025094.410   -25729235.088 8
 -20042138.309 8        51.300          53.700
  23087542.570    23087534.852                    23087534.672    -8122293.733 7
  -7353091.831 7        42.300          44.600
  21073857.914                                    21073844.449   -22776071.126 8
 -16321684.28446        48.000          38.100
  21781094.117                                    21781084.109    -5668098.749 5
  -4216271.26242        33.100          16.300
  24559055.320    24559044.027                    24559043.438    -2360032.306 5
  -1829633.542 6        34.900          38.800
 18  1  6  0  0  3.0000000  0  6G07G09G30G23G16G05
  21310733.563    21310720.863                    21310721.270   -16244368.667 8
 -14786847.836 8        52.000          48.600
  20025073.078    20025063.602                    20025063.891   -25729397.708 8
 -20042265.026 8        51.700          53.700
  23086977.242    23086970.168                    23086970.105    -8125261.416 7
  -7355404.311 7        42.200          44.600
  21074193.672                                    21074179.621   -22774309.141 8
 -16320311.30246        48.300          38.100
  21781493.789                                    21781483.078    -5666001.679 5
  -4214637.19042        32.200          16.300
  24558489.094    24558479.500                    24558479.086    -2363000.420 5
  -1831946.354 6        34.200          39.100
 18  1  6  0  0  4.0000000  0  6G07G09G30G23G16G05
  21310379.758    21310367.234                    21310367.465   -16246228.827 8
 -14788297.311 8        52.500          48.800
  20025042.898    20025033.246                    20025033.535   -25729560.075 8
 -20042391.544 8        52.100          53.700
  23086412.508    23086405.668                    23086405.254    -8128229.126 6
  -7357716.805 7        41.800          44.700
  21074528.867                                    21074514.816   -22772546.945 8
 -16318938.16446        48.600          38.200
  21781892.945                                    21781882.352    -5663904.295 5
  -4213002.85242        33.300          16.900
  24557924.570    24557914.391                    24557913.859    -2365968.302 5
  -1834258.985 6        33.600          38.700
 18  1  6  0  0  5.0000000  0  6G07G09G30G23G16G05
  21310025.883    21310013.594                    21310013.590   -16248088.655 8
 -14789746.529 8        52.300          48.500
  20025011.758    20025000.582                    20025000.813   -25729721.895 8
 -20042517.641 8        51.100          53.800
  23085848.266    23085840.898                    23085840.602    -8131196.611 6
  -7360029.125 7        41.700          44.500
  21074864.570                                    21074850.520   -22770784.293 7
 -16317564.66746        47.300          38.300
  21782292.125                                    21782281.707    -5661806.287 5
  -4211368.07042        33.700          16.900
  24557359.836    24557350.301                    24557349.242    -2368935.943 5
  -1836571.430 6        34.700          38.700
 18  1  6  0  0  6.0000000  0  6G07G09G30G23G16G05
  21309672.023    21309659.969                    21309659.965   -16249948.229 8
 -14791195.549 8        52.100          48.800
  20024980.711    20024970.180                    20024970.527   -25729883.266 8
 -20042643.380 8        51.100          53.900
  23085283.633    23085275.855                    23085275.910    -8134163.943 6
  -7362341.329 7        41.100          44.300
  21075200.078                                    21075185.910   -22769021.245 7
 -16316190.86646        47.600          38.000
  21782691.500                                    21782680.906    -5659707.712 5
  -4209732.80542        33.200          16.900
  24556795.555    24556785.434                    24556784.434    -2371903.154 5
  -1838883.532 6        35.200          38.900
 18  1  6  0  0  7.0000000  0  6G07G09G30G23G16G05
  21309318.359    21309306.070                    21309305.949   -16251807.561 8
 -14792644.374 8        51.800          48.900
  20024950.258    20024940.430                    20024940.719   -25730044.219 8
 -20042768.798 8        51.500          53.900
  23084718.961    23084710.715                    23084710.945    -8137131.201 6
  -7364653.486 7        41.100          43.800
  21075535.648                                    21075521.656   -22767257.851 8
 -16314816.79246        48.000          38.200
  21783091.047                                    21783080.336    -5657608.665 5
  -4208097.18842        33.500          17.400
  24556230.578    24556221.219                    24556220.160    -2374870.162 5
  -1841195.482 6        35.900          39.200
 18  1  6  0  0  8.0000000  0  6G07G09G30G23G16G05
  21308964.227    21308952.465                    21308952.344   -16253666.446 8
 -14794092.862 8        51.600          49.000
  20024919.750    20024909.277                    20024909.566   -25730204.514 8
 -20042893.707 8        51.700          53.900
  23084154.188    23084145.883                    23084146.465    -8140098.078 6
  -7366965.340 7        41.100          43.400
  21075871.133                                    21075857.023   -22765493.868 7
 -16313442.25646        47.800          38.000
  21783490.289                                    21783480.281    -5655508.808 5
  -4206460.91742        33.300          17.400
  24555666.281    24555656.688                    24555655.453    -2377836.637 5
  -1843507.020 6        35.500          39.100
 18  1  6  0  0  9.0000000  0  6G07G09G30G23G16G05
  21308610.875    21308598.996                    21308598.582   -16255525.068 8
 -14795541.134 8        51.700          48.800
  20024889.477    20024879.355                    20024879.645   -25730364.354 8
 -20043018.253 9        51.400          54.000
  23083589.688    23083581.090                    23083581.906    -8143064.833 6
  -7369277.105 7        41.400          43.200
  21076207.016                                    21076192.730   -22763729.509 8
 -16312067.42746        48.200          37.800
  21783890.125                                    21783879.648    -5653408.472 5
  -4204824.28342        33.000          16.900
  24555102.563    24555092.617                    24555091.324    -2380802.794 6
  -1845818.301 6        36.300          39.200
 18  1  6  0  0 10.0000000  0  6G07G09G30G23G16G05
  21308256.961    21308244.906                    21308244.785   -16257383.500 8
 -14796989.267 8        51.500          48.700
  20024858.680    20024848.441                    20024848.555   -25730523.806 8
 -20043142.500 9        51.500          54.100
  23083025.711    23083016.820                    23083017.461    -8146031.496 6
  -7371588.793 7        41.700          43.500
  21076542.977                                    21076528.809   -22761964.820 8
 -16310692.34946        48.300          38.000
  21784290.617                                    21784279.438    -5651307.619 5
  -4203187.26842        33.600          16.900
  24554538.461    24554528.223                    24554526.813    -2383768.711 6
  -1848129.407 6        37.000          39.400
 18  1  6  0  0 11.0000000  0  6G07G09G30G23G16G05
  21307903.234    21307891.238                    21307891.234   -16259241.339 8
 -14798436.940 8        51.400          48.600
  20024828.383    20024819.082                    20024819.254   -25730682.481 8
 -20043266.142 9        50.900          54.000
  23082460.477    23082452.289                    23082452.754    -8148997.679 6
  -7373900.111 7        41.800          43.300
  21076879.117                                    21076864.539   -22760199.421 8
 -16309316.70946        48.100          37.800
  21784690.930                                    21784679.457    -5649205.946 5
  -4201549.60542        32.500          17.400
  24553973.969    24553963.613                    24553962.438    -2386734.015 6
  -1850440.029 6        36.900          39.400
 18  1  6  0  0 12.0000000  0  6G07G09G30G23G16G05
  21307550.055    21307538.176                    21307538.055   -16261099.133 8
 -14799884.567 8        51.800          48.700
  20024798.773    20024787.949                    20024787.945   -25730840.881 8
 -20043389.569 9        51.000          54.000
  23081896.352    23081888.047                    23081888.629    -8151963.961 7
  -7376211.492 7        42.000          43.500
  21077214.375                                    21077200.500   -22758433.839 8
 -16307940.93746        48.200          37.400
  21785090.469                                    21785079.289    -5647103.861 5
  -4199911.65342        32.400          16.900
  24553409.828    24553399.531                    24553398.473    -2389699.231 6
  -1852750.578 6        36.600          39.600
 18  1  6  0  0 13.0000000  0  6G07G09G30G23G16G05
  21307196.531    21307184.242                    21307184.355   -16262956.556 8
 -14801331.907 8        51.900          48.600
  20024768.688    20024758.625                    20024758.680   -25730998.745 8
 -20043512.581 8        51.400          53.900
  23081331.305    23081323.352                    23081323.582    -8154929.966 6
  -7378522.660 7        41.800          43.400
  21077550.891                                    21077536.840   -22756667.761 8
 -16306564.77346        48.700          37.500
  21785490.656                                    21785479.242    -5645001.147 5
  -4198273.16942        32.000          16.300
  24552846.211    24552835.270                    24552834.152    -2392663.966 6
  -1855060.750 6        36.500          39.800
 18  1  6  0  0 14.0000000  0  6G07G09G30G23G16G05
  21306843.109    21306830.645                    21306830.699   -16264813.756 8
 -14802779.080 8        52.500          48.500
  20024738.539    20024728.828                    20024728.883   -25731156.167 8
 -20043635.249 9        51.700          54.100
  23080767.016    23080759.473                    23080759.645    -8157895.858 6
  -7380833.739 7        41.300          43.200
  21077887.133                                    21077872.672   -22754901.336 8
 -16305188.33246        48.100          37.500
  21785890.719                                    21785879.598    -5642897.944 5
  -4196634.30242        31.900          15.600
  24552281.766    24552271.645                    24552270.117    -2395628.460 6
  -1857370.751 6        37.100          39.700
 18  1  6  0  0 15.0000000  0  6G07G09G30G23G16G05
  21306489.664    21306477.551                    21306477.781   -16266670.416 8
 -14804225.832 8        52.300          48.400
  20024709.398    20024698.750                    20024698.805   -25731312.890 8
 -20043757.365 9        51.900          54.100
  23080202.664    23080194.594                    23080195.000    -8160861.345 6
  -7383144.499 7        40.800          42.900
  21078223.367                                    21078208.672   -22753134.250 8
 -16303811.38146        48.200          37.700
  21786290.313                                    21786279.777    -5640793.936 5
  -4194994.78542        33.200          15.600
  24551717.328    24551707.441                    24551705.914    -2398592.354 6
  -1859680.288 6        36.900          40.000
 18  1  6  0  0 16.0000000  0  6G07G09G30G23G16G05
  21306136.570    21306124.105                    21306124.395   -16268526.851 8
 -14805672.399 8        52.300          48.400
  20024679.820    20024669.113                    20024669.168   -25731469.152 8
 -20043879.131 9        51.500          54.100
  23079638.828    23079630.230                    23079630.695    -8163826.671 6
  -7385455.133 7        41.600          42.700
  21078559.422                                    21078545.664   -22751366.805 8
 -16302434.14746        48.300          37.800
  21786690.836                                    21786680.242    -5638689.362 5
  -4193354.83642        32.800          15.600
  24551153.367    24551143.305                    24551142.188    -2401555.961 6
  -1861989.590 6        37.100          39.900
 18  1  6  0  0 17.0000000  0  6G07G09G30G23G16G05
  21305783.336    21305770.754                    21305771.043   -16270383.074 8
 -14807118.807 8        52.100          48.300
  20024649.398    20024640.684                    20024640.504   -25731625.001 8
 -20044000.570 9        51.200          54.100
  23079074.727    23079065.777                    23079066.301    -8166791.918 6
  -7387765.716 7        41.700          42.600
  21078896.086                                    21078881.918   -22749599.005 8
 -16301056.64446        48.500          37.600
  21787091.461                                    21787080.926    -5636584.328 5
  -4191714.54042        33.200          15.600
  24550589.969    24550579.496                    24550578.320    -2404519.305 6
  -1864298.701 6        37.300          39.800
 18  1  6  0  0 18.0000000  0  6G07G09G30G23G16G05
  21305430.031    21305417.625                    21305418.031   -16272238.909 8
 -14808564.913 8        51.700          48.200
  20024620.250    20024610.188                    20024610.066   -25731780.289 8
 -20044121.574 9        51.300          54.300
  23078510.836    23078501.477                    23078502.059    -8169756.917 6
  -7390076.107 7        41.800          42.600
  21079232.367                                    21079218.492   -22747830.695 8
 -16299678.73946        48.300          37.500
  21787492.398                                    21787481.395    -5634478.627 5
  -4190073.72442        32.400          15.600
  24550025.992    24550015.930                    24550014.813    -2407482.230 6
  -1866607.479 6        37.600          39.800
 18  1  6  0  0 19.0000000  0  6G07G09G30G23G16G05
  21305077.211    21305064.629                    21305065.035   -16274094.408 8
 -14810010.758 8        52.000          48.400
  20024590.563    20024581.027                    20024581.199   -25731935.022 8
 -20044242.146 9        51.300          54.100
  23077946.867    23077937.332                    23077938.148    -8172721.666 7
  -7392386.308 7        42.000          42.500
  21079568.844                                    21079555.145   -22746061.920 8
 -16298300.47846        48.500          37.700
  21787893.180                                    21787882.176    -5632372.270 5
  -4188432.40542        33.000          15.600
  24549462.242    24549451.652                    24549450.594    -2410444.737 6
  -1868915.930 6        36.800          39.800
 18  1  6  0  0 20.0000000  0  6G07G09G30G23G16G05
  21304724.258    21304711.910                    21304712.258   -16275949.210 8
 -14811456.051 8        52.100          48.400
  20024562.203    20024551.496                    20024551.668   -25732088.882 8
 -20044362.037 9        51.100          54.200
  23077382.461    23077372.926                    23077373.859    -8175685.815 7
  -7394696.035 7        42.400          42.400
  21079906.000                                    21079891.832   -22744292.327 7
 -16296921.57246        47.900          37.700
  21788293.703                                    21788282.875    -5630264.970 5
  -4186790.38542        33.000          15.600
  24548898.492    24548888.137                    24548887.371    -2413406.558 6
  -1871223.852 6        37.200          39.600
 18  1  6  0  0 21.0000000  0  6G07G09G30G23G16G05
  21304371.586    21304358.652                    21304358.941   -16277804.165 8
 -14812901.470 8        52.100          48.200
  20024531.875    20024521.168                    20024521.457   -25732242.681 8
 -20044481.877 9        51.200          54.200
  23076819.086    23076808.965                    23076809.898    -8178650.255 6
  -7397005.993 7        41.800          42.400
  21080242.672                                    21080228.387   -22742522.759 8
 -16295542.68946        48.100          37.700
  21788695.352                                    21788684.113    -5628157.500 5
  -4185148.22642        33.800          15.600
  24548334.852    24548324.496                    24548323.730    -2416368.393 6
  -1873531.778 6        36.000          39.700
 18  1  6  0  0 22.0000000  0  6G07G09G30G23G16G05
  21304018.313    21304005.848                    21304006.195   -16279658.915 8
 -14814346.733 8        51.800          48.400
  20024502.320    20024492.141                    20024492.254   -25732396.091 8
 -20044601.418 9        51.600          54.300
  23076254.594    23076244.531                    23076245.582    -8181614.595 6
  -7399315.877 7        41.800          42.600
  21080578.836                                    21080565.313   -22740752.864 8
 -16294163.55046        48.200          37.700
  21789096.164                                    21789085.453    -5626049.585 5
  -4183505.70742        33.700          15.600
  24547770.547    24547760.777                    24547760.305    -2419330.037 6
  -1875839.557 6        36.600          39.600
 18  1  6  0  0 23.0000000  0  6G07G09G30G23G16G05
  21303665.703    21303652.945                    21303653.293   -16281513.257 8
 -14815791.676 8        51.500          48.400
  20024474.016    20024462.664                    20024462.660   -25732548.885 8
 -20044720.478 9        51.700          54.300
  23075690.203    23075680.668                    23075681.602    -8184578.663 7
  -7401625.542 7        42.100          42.700
  21080915.820                                    21080902.180   -22738982.416 8
 -16292783.97746        48.100          38.100
  21789497.586                                    21789486.406    -5623941.008 5
  -4181862.67042        33.400          16.300
  24547206.625    24547197.383                    24547196.852    -2422291.234 6
  -1878146.985 6        36.000          39.800
 18  1  6  0  0 24.0000000  0  6G07G09G30G23G16G05
  21303312.961    21303299.852                    21303300.316   -16283367.135 8
 -14817236.255 8        51.700          48.500
  20024445.188    20024434.598                    20024435.004   -25732701.030 8
 -20044839.029 9        51.700          54.300
  23075125.961    23075117.070                    23075117.711    -8187542.386 6
  -7403934.934 7        40.900          42.900
  21081252.938                                    21081239.297   -22737211.400 8
 -16291403.96946        48.200          38.100
  21789898.844                                    21789887.898    -5621831.598 5
  -4180218.93942        33.400          16.300
  24546643.297    24546633.586                    24546633.406    -2425251.910 6
  -1880454.001 6        36.000          39.900
 18  1  6  0  0 25.0000000  0  6G07G09G30G23G16G05
  21302960.305    21302947.430                    21302947.836   -16285220.470 8
 -14818680.412 8        52.000          48.500
  20024415.508    20024406.559                    20024406.672   -25732852.462 8
 -20044957.038 9        51.700          54.500
  23074562.008    23074553.293                    23074553.758    -8190505.678 6
  -7406243.994 7        40.000          43.000
  21081590.063                                    21081576.305   -22735439.742 8
 -16290023.45946        48.200          37.900
  21790300.945                                    21790289.590    -5619721.420 5
  -4178574.62442        33.800          16.900
  24546080.273    24546070.738                    24546070.324    -2428212.015 5
  -1882760.573 6        35.500          40.000
 18  1  6  0  0 26.0000000  0  6G07G09G30G23G16G05
  21302607.664    21302594.965                    21302595.254   -16287073.736 8
 -14820124.513 8        52.100          48.700
  20024387.109    20024376.344                    20024376.633   -25733003.618 8
 -20045074.818 9        51.700          54.300
  23073998.258    23073989.719                    23073990.301    -8193469.026 6
  -7408553.091 7        40.300          42.800
  21081927.445                                    21081912.984   -22733667.883 8
 -16288642.79046        48.300          38.100
  21790702.359                                    21790691.473    -5617610.959 5
  -4176930.13942        34.900          16.300
  24545516.922    24545507.797                    24545507.383    -2431171.937 5
  -1885066.998 6        34.900          40.000
 18  1  6  0  0 27.0000000  0  6G07G09G30G23G16G05
  21302255.023    21302242.207                    21302242.496   -16288926.693 8
 -14821568.382 8        52.700          48.700
  20024358.969    20024348.438                    20024348.844   -25733154.244 8
 -20045192.191 9        51.800          54.300
  23073433.820    23073425.457                    23073425.980    -8196432.147 6
  -7410862.006 7        40.200          43.000
  21082264.648                                    21082250.773   -22731895.551 8
 -16287261.75646        48.600          38.300
  21791104.031                                    21791092.910    -5615499.780 5
  -4175285.05042        33.800          16.300
  24544953.594    24544944.586                    24544944.230    -2434131.558 5
  -1887373.195 6        35.400          39.800
 18  1  6  0  0 28.0000000  0  6G07G09G30G23G16G05
  21301902.648    21301890.066                    21301890.180   -16290779.321 8
 -14823011.976 8        52.500          48.800
  20024330.063    20024320.000                    20024320.230   -25733304.379 8
 -20045309.180 9        51.700          54.400
  23072870.156    23072861.676                    23072862.141    -8199395.083 6
  -7413170.784 7        40.300          43.000
  21082601.781                                    21082587.906   -22730122.791 8
 -16285880.37846        48.600          37.900
  21791506.031                                    21791494.559    -5613388.040 5
  -4173639.55142        33.700          16.300
  24544389.836    24544381.004                    24544380.883    -2437090.795 5
  -1889679.082 6        35.700          39.800
 18  1  6  0  0 29.0000000  0  6G07G09G30G23G16G05
  21301550.242    21301537.250                    21301537.480   -16292631.625 8
 -14824455.328 8        52.400          48.700
  20024300.500    20024290.379                    20024290.492   -25733453.964 8
 -20045425.738 9        52.300          54.500
  23072306.320    23072298.074                    23072298.129    -8202357.770 6
  -7415479.367 7        40.800          43.000
  21082939.250                                    21082925.199   -22728349.548 8
 -16284498.62746        48.500          38.200
  21791908.688                                    21791896.629    -5611275.656 5
  -4171993.53142        33.700          16.300
  24543827.195    24543817.777                    24543817.832    -2440049.611 5
  -1891984.645 6        35.100          39.400
 18  1  6  0  0 30.0000000  0  6G07G09G30G23G16G05
  21301197.773    21301184.957                    21301185.246   -16294483.700 8
 -14825898.501 8        52.600          48.900
  20024272.703    20024263.109                    20024263.340   -25733603.110 8
 -20045541.950 9        51.700          54.400
  23071742.844    23071734.422                    23071734.477    -8205320.353 6
  -7417787.871 7        41.100          43.100
  21083277.125                                    21083262.781   -22726575.959 8
 -16283116.61246        48.400          38.200
  21792310.547                                    21792298.957    -5609162.797 5
  -4170347.19242        33.600          16.300
  24543263.992    24543254.867                    24543254.863    -2443008.148 5
  -1894290.001 6        34.700          39.500
 18  1  6  0  0 31.0000000  0  6G07G09G30G23G16G05
  21300845.328    21300832.043                    21300832.566   -16296335.607 8
 -14827341.545 8        52.700          48.800
  20024244.859    20024234.563                    20024234.793   -25733751.922 8
 -20045657.908 9        51.900          54.400
  23071178.992    23071170.570                    23071170.801    -8208282.905 6
  -7420096.357 7        40.800          43.100
  21083614.242                                    21083600.426   -22724802.084 8
 -16281734.37546        48.300          38.200
  21792713.344                                    21792701.227    -5607049.508 5
  -4168700.50142        34.400          16.300
  24542701.711    24542691.766                    24542691.762    -2445966.515 5
  -1896595.221 6        35.400          39.700
 18  1  6  0  0 32.0000000  0  6G07G09G30G23G16G05
  21300493.141    21300479.855                    21300480.438   -16298186.803 8
 -14828784.034 8        52.700          48.900
  20024216.773    20024206.418                    20024206.648   -25733899.802 8
 -20045773.140 9        51.300          54.300
  23070615.469    23070607.105                    23070607.277    -8211244.850 6
  -7422404.362 7        40.500          43.200
  21083951.969                                    21083937.918   -22723027.365 8
 -16280351.47046        48.300          38.300
  21793115.383                                    21793103.441    -5604935.134 5
  -4167052.89742        34.300          16.900
  24542139.023    24542129.254                    24542129.133    -2448924.055 5
  -1898899.805 6        34.500          39.700
 18  1  6  0  0 33.0000000  0  6G07G09G30G23G16G05
  21300140.531    21300127.773                    21300128.238   -16300038.075 8
 -14830226.586 8        52.400          48.800
  20024188.094    20024178.266                    20024178.438   -25734047.566 8
 -20045888.289 9        51.900          54.500
  23070051.570    23070043.559                    23070043.496    -8214206.970 6
  -7424712.511 7        40.800          43.200
  21084289.414                                    21084275.773   -22721252.590 8
 -16278968.53346        48.300          38.500
  21793517.570                                    21793505.688    -5602820.675 5
  -4165405.27242        34.300          16.300
  24541576.000    24541566.699                    24541566.402    -2451881.667 5
  -1901204.442 6        34.800          40.200
 18  1  6  0  0 34.0000000  0  6G07G09G30G23G16G05
  21299788.250    21299775.551                    21299776.074   -16301888.641 8
 -14831668.590 8        52.400          48.800
  20024160.367    20024150.188                    20024150.301   -25734194.429 8
 -20046002.723 9        51.200          54.500
  23069488.367    23069479.945                    23069479.824    -8217168.501 6
  -7427020.195 7        41.400          43.400
  21084627.250                                    21084613.844   -22719476.972 8
 -16277584.93146        48.300          38.700
  21793920.672                                    21793908.145    -5600705.127 5
  -4163756.77242        33.700          16.300
  24541013.508    24541004.090                    24541003.559    -2454838.475 5
  -1903508.450 6        35.000          40.200
 18  1  6  0  0 35.0000000  0  6G07G09G30G23G16G05
  21299436.375    21299423.559                    21299423.965   -16303739.206 8
 -14833110.583 8        52.400          48.600
  20024133.453    20024122.688                    20024123.035   -25734341.095 8
 -20046117.013 9        51.500          54.600
  23068924.398    23068916.094                    23068915.973    -8220130.141 6
  -7429327.962 7        41.700          43.700
  21084965.703                                    21084951.652   -22717701.221 8
 -16276201.22946        48.100          38.500
  21794322.000                                    21794310.410    -5598589.344 5
  -4162108.09342        34.200          16.300
  24540451.055    24540441.402                    24540440.695    -2457795.294 5
  -1905812.467 6        35.800          40.400
 18  1  6  0  0 36.0000000  0  6G07G09G30G23G16G05
  21299084.281    21299071.641                    21299072.105   -16305589.286 8
 -14834552.206 8        52.100          48.800
  20024105.078    20024094.547                    20024094.953   -25734487.069 8
 -20046230.757 9        51.200          54.700
  23068360.688    23068353.262                    23068353.023    -8223091.400 6
  -7431635.433 7        41.400          43.700
  21085303.742                                    21085289.633   -22715924.870 8
 -16274817.05946        48.000          38.800
  21794724.906                                    21794713.492    -5596472.826 5
  -4160458.87642        34.600          16.300
  24539887.977    24539879.086                    24539878.145    -2460751.546 5
  -1908116.032 6        35.700          40.200
 18  1  6  0  0 37.0000000  0  6G07G09G30G23G16G05
  21298732.047    21298719.816                    21298719.930   -16307439.101 8
 -14835993.620 8        51.900          48.700
  20024077.359    20024067.063                    20024067.410   -25734632.577 8
 -20046344.135 9        51.500          54.400
  23067797.477    23067789.582                    23067789.227    -8226052.521 6
  -7433942.804 7        40.800          43.400
  21085641.227                                    21085627.820   -22714148.112 8
 -16273432.57046        48.100          38.900
  21795127.555                                    21795116.434    -5594355.696 5
  -4158809.20042        34.900          16.900
  24539325.563    24539316.379                    24539315.730    -2463707.476 6
  -1910419.344 6        36.100          40.300
 18  1  6  0  0 38.0000000  0  6G07G09G30G23G16G05
  21298380.469    21298368.004                    21298368.059   -16309288.619 8
 -14837434.799 8        52.200          48.700
  20024049.250    20024039.480                    20024039.887   -25734777.594 8
 -20046457.131 9        51.200          54.500
  23067233.594    23067225.523                    23067225.754    -8229013.429 6
  -7436250.006 7        40.000          43.400
  21085979.367                                    21085965.551   -22712370.949 7
 -16272047.77246        47.700          38.800
  21795531.172                                    21795519.113    -5592238.030 5
  -4157159.07442        34.300          16.300
  24538762.961    24538753.660                    24538753.363    -2466663.052 5
  -1912722.383 6        35.800          40.400
 18  1  6  0  0 39.0000000  0  6G07G09G30G23G16G05
  21298028.320    21298015.797                    21298015.969   -16311137.822 8
 -14838875.737 8        51.900          48.700
  20024021.867    20024011.160                    20024011.332   -25734922.110 8
 -20046569.741 9        51.700          54.400
  23066670.266    23066662.313                    23066662.543    -8231974.144 6
  -7438557.054 7        40.600          43.200
  21086317.961                                    21086304.203   -22710593.336 7
 -16270662.62446        47.800          38.500
  21795934.711                                    21795922.477    -5590119.702 5
  -4155508.41542        35.000          15.600
  24538200.680    24538191.027                    24538190.613    -2469618.259 6
  -1915025.137 6        36.300          40.500
 18  1  6  0  0 40.0000000  0  6G07G09G30G23G16G05
  21297676.438    21297664.148                    21297664.027   -16312986.748 8
 -14840316.457 8        51.700          48.600
  20023993.641    20023984.398                    20023984.922   -25735066.141 8
 -20046681.972 9        51.600          54.400
  23066107.289    23066098.691                    23066098.863    -8234934.727 6
  -7440864.000 7        40.700          43.500
  21086656.539                                    21086642.605   -22708815.336 7
 -16269277.16446        47.900          38.600
  21796338.070                                    21796325.367    -5588000.885 5
  -4153857.38042        34.900          15.600
  24537639.211    24537629.090                    24537628.793    -2472573.178 6
  -1917327.669 6        36.500          40.600
 18  1  6  0  0 41.0000000  0  6G07G09G30G23G16G05
  21297324.766    21297312.359                    21297312.590   -16314835.233 8
 -14841756.834 8        51.700          48.700
  20023968.016    20023957.016                    20023957.246   -25735209.536 8
 -20046793.713 9        51.900          54.500
  23065544.000    23065535.461                    23065535.984    -8237894.958 6
  -7443170.671 7        40.500          43.500
  21086994.852                                    21086981.152   -22707036.738 8
 -16267891.24046        48.300          38.600
  21796741.438                                    21796728.793    -5585881.284 5
  -4152205.76142        34.700          15.600
  24537077.391    24537066.449                    24537066.328    -2475527.499 6
  -1919629.746 6        36.500          40.800
 18  1  6  0  0 42.0000000  0  6G07G09G30G23G16G05
  21296973.219    21296960.930                    21296960.809   -16316683.517 8
 -14843197.053 8        51.800          49.000
  20023940.063    20023929.707                    20023929.879   -25735352.526 8
 -20046905.130 9        51.600          54.600
  23064980.945    23064971.996                    23064972.285    -8240855.093 6
  -7445477.260 7        39.500          43.400
  21087333.625                                    21087319.574   -22705257.846 8
 -16266505.09546        48.300          38.500
  21797144.852                                    21797132.031    -5583761.243 5
  -4150553.80842        35.400          16.300
  24536515.922    24536504.453                    24536504.332    -2478481.677 6
  -1921931.707 6        36.600          40.800
 18  1  6  0  0 43.0000000  0  6G07G09G30G23G16G05
  21296621.297    21296609.008                    21296608.887   -16318531.509 8
 -14844637.051 8        52.100          49.100
  20023913.258    20023903.137                    20023903.133   -25735495.015 8
 -20047016.164 9        51.500          54.800
  23064418.008    23064408.355                    23064409.055    -8243815.065 6
  -7447783.735 7        39.900          43.000
  21087672.180                                    21087657.953   -22703478.502 8
 -16265118.59746        48.200          38.400
  21797548.563                                    21797535.449    -5581640.606 5
  -4148901.34942        35.700          16.300
  24535953.406    24535943.227                    24535942.988    -2481435.466 6
  -1924233.366 6        37.100          40.700
 18  1  6  0  0 44.0000000  0  6G07G09G30G23G16G05
  21296269.828    21296257.539                    21296257.535   -16320379.058 8
 -14846076.695 8        52.200          49.100
  20023886.328    20023876.266                    20023876.203   -25735636.891 8
 -20047126.714 9        51.800          54.700
  23063854.602    23063845.242                    23063846.000    -8246774.704 6
  -7450089.946 7        39.400          42.900
  21088010.875                                    21087997.000   -22701698.616 8
 -16263731.66746        48.200          38.500
  21797953.055                                    21797939.414    -5579519.244 5
  -4147248.32142        35.300          16.300
  24535391.195    24535381.250                    24535380.719    -2484388.765 6
  -1926534.639 6        37.100          40.700
 18  1  6  0  0 45.0000000  0  6G07G09G30G23G16G05
  21295918.273    21295906.160                    21295906.039   -16322226.562 8
 -14847516.310 8        52.100          49.000
  20023859.555    20023848.789                    20023848.727   -25735778.501 8
 -20047237.055 9        52.000          54.800
  23063291.586    23063282.109                    23063282.867    -8249734.400 6
  -7452396.205 7        40.500          42.800
  21088349.875                                    21088335.648   -22699918.527 8
 -16262344.58646        48.600          38.500
  21798357.359                                    21798343.426    -5577397.561 5
  -4145595.04042        35.900          16.300
  24534829.992    24534819.109                    24534818.578    -2487341.933 6
  -1928835.816 6        36.800          40.800
 18  1  6  0  0 46.0000000  0  6G07G09G30G23G16G05
  21295566.547    21295554.668                    21295554.547   -16324073.761 8
 -14848955.685 8        52.400          49.200
  20023832.133    20023822.539                    20023822.652   -25735919.641 8
 -20047347.040 9        51.200          54.600
  23062727.859    23062718.734                    23062719.551    -8252693.919 6
  -7454702.323 7        40.200          43.000
  21088688.000                                    21088674.594   -22698138.022 7
 -16260957.17646        47.600          38.700
  21798760.430                                    21798747.082    -5575275.271 5
  -4143941.31442        35.700          16.300
  24534268.156    24534257.449                    24534256.977    -2490294.792 5
  -1931136.746 6        35.000          40.900
 18  1  6  0  0 47.0000000  0  6G07G09G30G23G16G05
  21295215.313    21295203.023                    21295203.195   -16325920.509 8
 -14850394.710 8        52.700          48.900
  20023805.367    20023795.363                    20023795.359   -25736060.093 8
 -20047456.482 9        50.500          54.600
  23062164.914    23062155.555                    23062156.430    -8255653.070 6
  -7457008.152 7        39.500          43.100
  21089027.141                                    21089013.383   -22696356.938 7
 -16259569.31346        47.600          38.600
  21799165.320                                    21799151.211    -5573152.300 6
  -4142287.06942        36.000          16.300
  24533706.047    24533695.691                    24533695.277    -2493247.127 5
  -1933437.259 6        35.200          40.800
 18  1  6  0  0 48.0000000  0  6G07G09G30G23G16G05
  21294863.914    21294851.215                    21294851.621   -16327766.906 8
 -14851833.456 8        52.600          48.800
  20023779.391    20023768.449                    20023768.387   -25736200.005 8
 -20047565.501 9        50.300          54.700
  23061601.625    23061592.324                    23061593.258    -8258611.994 6
  -7459313.804 7        39.900          42.600
  21089366.516                                    21089352.230   -22694575.373 8
 -16258181.07846        48.000          38.900
  21799568.883                                    21799555.418    -5571028.638 6
  -4140632.29142        36.000          16.300
  24533144.055    24533133.523                    24533133.461    -2496199.023 5
  -1935737.439 6        35.400          40.800
 18  1  6  0  0 49.0000000  0  6G07G09G30G23G16G05
  21294512.586    21294500.297                    21294500.586   -16329613.193 8
 -14853272.127 8        52.800          48.500
  20023752.359    20023742.473                    20023742.410   -25736339.632 8
 -20047674.301 9        50.800          54.400
  23061038.578    23061029.102                    23061030.211    -8261570.945 6
  -7461619.479 7        40.200          42.500
  21089705.383                                    21089691.273   -22692793.578 8
 -16256792.67146        48.600          38.800
  21799973.984                                    21799959.582    -5568904.616 6
  -4138977.19642        36.200          16.300
  24532582.609    24532571.492                    24532571.547    -2499150.803 5
  -1938037.520 6        35.100          40.900
 18  1  6  0  0 50.0000000  0  6G07G09G30G23G16G05
  21294161.344    21294148.645                    21294149.168   -16331459.013 8
 -14854710.429 8        52.800          48.500
  20023725.898    20023715.133                    20023715.305   -25736478.569 8
 -20047782.568 9        50.500          54.400
  23060475.227    23060466.219                    23060467.211    -8264529.519 6
  -7463924.863 7        40.600          42.500
  21090044.602                                    21090030.375   -22691011.183 8
 -16255403.79746        48.400          38.800
  21800378.539                                    21800363.609    -5566779.835 6
  -4137321.50642        36.300          16.300
  24532020.719    24532010.012                    24532009.949    -2502102.034 5
  -1940337.186 6        35.700          40.600
 18  1  6  0  0 51.0000000  0  6G07G09G30G23G16G05
  21293810.078    21293797.613                    21293797.961   -16333304.336 8
 -14856148.340 8        52.000          48.600
  20023700.461    20023689.637                    20023689.867   -25736616.813 8
 -20047890.288 9        50.500          54.200
  23059913.297    23059903.293                    23059904.168    -8267487.701 6
  -7466229.943 7        40.900          42.500
  21090383.906                                    21090369.738   -22689228.177 7
 -16254014.43546        47.900          38.700
  21800782.805                                    21800768.227    -5564654.262 6
  -4135665.23042        36.500          16.300
  24531459.305    24531448.832                    24531448.652    -2505052.759 6
  -1942636.453 6        36.100          40.500
 18  1  6  0  0 52.0000000  0  6G07G09G30G23G16G05
  21293458.875    21293446.879                    21293447.051   -16335149.590 8
 -14857586.198 8        52.300          48.500
  20023673.258    20023662.961                    20023663.250   -25736754.786 8
 -20047997.802 9        50.300          54.300
  23059349.164    23059339.922                    23059340.855    -8270445.937 6
  -7468535.067 7        41.300          42.500
  21090723.078                                    21090708.910   -22687444.959 8
 -16252624.91846        48.100          38.700
  21801188.188                                    21801172.789    -5562528.376 6
  -4134008.68942        37.200          16.300
  24530898.008    24530887.242                    24530887.121    -2508003.287 6
  -1944935.569 6        36.300          40.400
 18  1  6  0  0 53.0000000  0  6G07G09G30G23G16G05
  21293108.016    21293095.668                    21293095.898   -16336994.633 8
 -14859023.900 8        52.600          48.500
  20023647.258    20023637.371                    20023637.484   -25736892.376 8
 -20048105.019 9        50.500          54.000
  23058787.086    23058777.199                    23058778.191    -8273404.097 6
  -7470840.127 7        41.300          42.600
  21091062.367                                    21091048.609   -22685661.412 8
 -16251235.14646        48.400          38.400
  21801592.383                                    21801577.453    -5560401.965 6
  -4132351.75342        36.300          16.900
  24530336.078    24530326.074                    24530325.953    -2510953.642 6
  -1947234.551 6        36.600          40.500
 18  1  6  0  0 54.0000000  0  6G07G09G30G23G16G05
  21292756.898    21292744.609                    21292744.781   -16338839.126 8
 -14860461.166 8        52.800          48.700
  20023621.680    20023611.031                    20023611.262   -25737029.232 8
 -20048211.656 8        50.800          53.800
  23058224.094    23058213.797                    23058215.023    -8276361.793 6
  -7473144.823 7        40.600          42.600
  21091402.258                                    21091388.266   -22683877.228 8
 -16249844.87346        48.700          38.500
  21801996.781                                    21801982.027    -5558274.762 6
  -4130694.18342        36.900          16.300
  24529773.539    24529764.883                    24529764.703    -2513903.330 6
  -1949533.009 6        36.400          40.400
 18  1  6  0  0 55.0000000  0  7G07G09G30G23G16G27G05
  21292406.148    21292393.684                    21292393.973   -16340683.369 8
 -14861898.239 8        52.900          48.500
  20023596.156    20023585.098                    20023585.152   -25737165.596 8
 -20048317.913 8        51.200          53.700
  23057660.898    23057651.598                    23057652.238    -8279319.345 6
  -7475449.408 7        41.100          42.700
  21091741.594                                    21091727.836   -22682092.620 8
 -16248454.26246        49.000          38.800
  21802402.125                                    21802387.078    -5556146.998 6
  -4129036.14742        36.900          15.600
  23729438.125                                                      508318.38315
                        32.400
  24529211.898    24529203.594                    24529203.180    -2516852.730 5
  -1951831.250 6        35.000          40.500
 18  1  6  0  0 56.0000000  0  7G07G09G30G23G16G27G05
  21292055.172    21292042.766                    21292043.172   -16342527.164 8
 -14863334.963 8        52.500          48.400
  20023569.008    20023558.652                    20023558.883   -25737301.344 8
 -20048423.692 8        51.700          53.400
  23057098.391    23057089.148                    23057089.730    -8282276.593 6
  -7477753.754 7        41.100          42.600
  21092081.672                                    21092067.797   -22680307.453 8
 -16247063.22946        48.500          38.700
  21802807.547                                    21802792.207    -5554018.484 6
  -4127377.56642        36.600          16.300
  23728993.797                                                      505978.525 5
                        32.200
  24528650.297    24528641.934                    24528641.695    -2519801.623 5
  -1954129.084 6        33.800          40.400
 18  1  6  0  0 57.0000000  0  7G07G09G30G23G16G27G05
  21291704.508    21291691.926                    21291692.156   -16344371.129 8
 -14864771.820 8        52.900          48.600
  20023544.000    20023532.707                    20023533.113   -25737437.039 8
 -20048529.424 8        52.000          53.500
  23056535.281    23056525.980                    23056526.738    -8285234.092 6
  -7480058.294 7        41.400          42.700
  21092421.125                                    21092407.191   -22678522.320 8
 -16245672.21446        48.600          38.900
  21803212.438                                    21803196.980    -5551889.881 6
  -4125718.95842        36.600          15.600
  23728548.234                                                      503638.588 5
                        32.800
  24528088.430    24528081.004                    24528080.766    -2522750.607 5
  -1956426.991 6        34.100          40.600
 18  1  6  0  0 58.0000000  0  7G07G09G30G23G16G27G05
  21291353.898    21291340.965                    21291341.254   -16346214.217 8
 -14866207.993 8        52.800          48.700
  20023518.414    20023507.707                    20023507.938   -25737571.674 8
 -20048634.331 8        51.600          53.500
  23055972.859    23055963.266                    23055964.082    -8288190.853 6
  -7482362.260 7        41.300          42.600
  21092760.805                                    21092746.988   -22676736.182 8
 -16244280.41546        48.300          39.000
  21803617.633                                    21803602.117    -5549760.095 6
  -4124059.40842        36.700          15.600
  23728103.492                                                      501299.656 5
                        33.600
  24527527.773    24527520.055                    24527519.875    -2525698.703 5
  -1958724.216 6        33.900          40.700
 18  1  6  0  0 59.0000000  0  7G07G09G30G23G16G27G05
  21291002.320    21290989.797                    21290990.027   -16348059.551 8
 -14867645.912 8        52.900          48.600
  20023492.148    20023481.617                    20023481.965   -25737708.355 8
 -20048740.840 8        51.900          53.500
  23055410.039    23055399.742                    23055400.734    -8291149.964 6
  -7484668.066 7        40.500          43.000
  21093100.250                                    21093086.785   -22674952.179 8
 -16242890.28646        48.400          38.900
  21804021.602                                    21804006.906    -5547632.330 5
  -4122401.40142        35.900          15.600
  23727658.734                                                      498958.588 5
                        34.000
  24526966.242    24526958.641                    24526958.227    -2528648.982 5
  -1961023.127 6        33.600          40.700
 18  1  6  0  1  0.0000000  0  7G07G09G30G23G16G27G05
  21290652.047    21290639.348                    21290639.520   -16349902.529 8
 -14869081.997 8        52.800          48.800
  20023466.594    20023456.004                    20023456.293   -25737842.494 8
 -20048845.366 8        51.200          53.500
  23054847.711    23054837.648                    23054838.523    -8294106.845 6
  -7486972.139 7        40.500          43.000
  21093440.844                                    21093426.969   -22673165.704 8
 -16241498.22646        48.300          39.100
  21804425.570                                    21804412.398    -5545501.922 5
  -4120741.36442        35.800          16.300
  23727213.938    23727203.230                                      496619.941 5
    264774.80916        34.000          37.400
  24526404.539    24526397.641                    24526397.285    -2531596.813 5
  -1963320.125 6        34.200          40.800
 18  1  6  0  1  1.0000000  0  7G07G09G30G23G16G27G05
  21290301.289    21290288.238                    21290288.527   -16351745.768 8
 -14870518.282 8        52.900          48.700
  20023440.828    20023431.234                    20023431.523   -25737976.671 8
 -20048949.913 8        51.600          53.700
  23054284.883    23054274.293                    23054275.344    -8297064.045 6
  -7489276.444 7        41.000          43.000
  21093780.156                                    21093766.691   -22671379.329 8
 -16240106.25046        48.800          39.300
  21804831.305                                    21804817.547    -5543371.461 5
  -4119081.25942        35.600          16.300
  23726768.734    23726758.379                                      494281.198 5
    262952.410 6        34.000          37.600
  24525843.891    24525836.465                    24525836.109    -2534544.911 5
  -1965617.341 6        34.300          40.800
 18  1  6  0  1  2.0000000  0  7G07G09G30G23G16G27G05
  21289950.586    21289938.063                    21289938.352   -16353587.849 8
 -14871953.681 8        53.100          48.800
  20023416.023    20023404.730                    20023404.844   -25738109.509 8
 -20049053.424 8        51.400          53.900
  23053721.914    23053712.320                    23053712.961    -8300020.231 6
  -7491579.967 7        40.600          43.200
  21094120.648                                    21094106.598   -22669591.656 8
 -16238713.25746        48.600          39.000
  21805236.680                                    21805223.273    -5541239.565 5
  -4117420.00542        34.900          15.600
  23726322.672    23726313.371                                      491943.676 5
    261130.969 6        34.000          37.400
  24525284.297    24525275.641                    24525275.461    -2537491.766 5
  -1967913.579 6        33.600          40.800
 18  1  6  0  1  3.0000000  0  7G07G09G30G23G16G27G05
  21289600.336    21289587.520                    21289587.750   -16355429.657 8
 -14873388.851 8        53.100          48.900
  20023390.711    20023380.063                    20023380.234   -25738241.844 8
 -20049156.544 8        50.700          53.800
  23053159.711    23053150.059                    23053150.582    -8302976.250 6
  -7493883.357 7        41.100          43.100
  21094460.742                                    21094446.926   -22667803.612 8
 -16237319.97846        48.600          38.900
  21805642.172                                    21805628.707    -5539107.088 5
  -4115758.33542        34.200          15.600
  23725878.805    23725869.152                                      489606.606 5
    259309.868 6        34.900          37.600
  24524722.859    24524715.082                    24524715.078    -2540438.249 5
  -1970209.543 6        34.300          40.900
 18  1  6  0  1  4.0000000  0  7G07G09G30G23G16G27G05
  21289250.016    21289237.375                    21289237.547   -16357271.225 8
 -14874823.839 8        53.300          49.100
  20023365.883    20023355.410                    20023355.465   -25738373.783 8
 -20049259.352 8        51.100          53.800
  23052597.375    23052587.488                    23052588.129    -8305932.170 6
  -7496186.672 7        41.800          43.100
  21094801.227                                    21094787.234   -22666015.184 8
 -16235926.39146        48.600          39.000
  21806048.102                                    21806034.520    -5536974.136 5
  -4114096.30742        34.100          15.600
  23725434.656    23725424.594                                      487269.831 5
    257489.010 6        34.900          37.700
  24524162.766    24524153.816                    24524154.223    -2543384.505 5
  -1972505.327 6        34.200          40.800
 18  1  6  0  1  5.0000000  0  7G07G09G30G23G16G27G05
  21288899.586    21288887.238                    21288887.176   -16359112.531 8
 -14876258.627 8        53.200          48.900
  20023340.570    20023329.863                    20023330.270   -25738505.218 8
 -20049361.773 8        51.300          53.800
  23052034.852    23052025.844                    23052026.074    -8308887.898 6
  -7498489.836 7        41.900          43.100
  21095141.773                                    21095127.430   -22664226.356 8
 -16234532.50346        49.200          38.600
  21806454.367                                    21806440.492    -5534840.652 5
  -4112433.88842        33.500          15.600
  23724990.555    23724979.965                                      484933.427 5
    255668.440 6        34.400          37.800
  24523602.492    24523593.309                    24523593.949    -2546330.366 5
  -1974800.811 6        32.900          40.200
 18  1  6  0  1  6.0000000  0  7G07G09G30G23G16G27G05
  21288549.094    21288536.512                    21288536.566   -16360953.421 8
 -14877693.088 8        52.600          48.800
  20023315.547    20023305.016                    20023305.012   -25738636.073 8
 -20049463.733 9        51.700          54.100
  23051472.445    23051462.793                    23051463.023    -8311843.351 6
  -7500792.781 7        40.600          43.200
  21095481.992                                    21095467.824   -22662437.020 8
 -16233138.21746        49.100          39.100
  21806859.734                                    21806846.738    -5532706.457 5
  -4110770.83642        33.900          16.300
  23724545.570    23724535.508                                      482597.553 5
    253848.277 6        33.800          37.900
  24523042.609    24523032.898                    24523033.246    -2549275.811 5
  -1977095.963 6        32.900          40.200
 18  1  6  0  1  7.0000000  0  7G07G09G30G23G16G27G05
  21288198.633    21288186.344                    21288186.457   -16362794.194 8
 -14879127.456 8        52.900          48.900
  20023290.594    20023280.590                    20023280.762   -25738766.619 8
 -20049565.450 9        51.800          54.200
  23050909.797    23050900.496                    23050900.492    -8314798.807 6
  -7503095.728 7        41.400          43.600
  21095822.773                                    21095808.723   -22660647.436 8
 -16231743.73546        49.100          38.800
  21807266.172                                    21807252.824    -5530571.854 5
  -4109107.53342        33.700          15.600
  23724101.375    23724091.723                                      480261.921 5
    252028.306 6        34.300          37.700
  24522481.781    24522472.188                    24522472.594    -2552221.111 5
  -1979391.004 6        33.300          40.200
 18  1  6  0  1  8.0000000  0  7G07G09G30G23G16G27G05
  21287848.508    21287835.809                    21287836.098   -16364634.577 8
 -14880561.520 8        52.300          48.800
  20023266.109    20023255.578                    20023255.633   -25738896.561 8
 -20049666.705 9        51.700          54.200
  23050348.320    23050338.492                    23050338.371    -8317753.956 6
  -7505398.444 7        41.600          43.500
  21096163.016                                    21096149.199   -22658857.347 8
 -16230348.86146        49.300          38.800
  21807672.602                                    21807659.313    -5528436.588 5
  -4107443.69942        33.900          15.600
  23723657.211    23723646.621                                      477926.744 5
    250208.695 6        33.700          37.700
  24521920.664    24521912.301                    24521912.590    -2555165.940 5
  -1981685.677 6        33.600          40.200
 18  1  6  0  1  9.0000000  0  7G07G09G30G23G16G27G05
  21287498.258    21287485.617                    21287485.965   -16366474.642 8
 -14881995.336 8        52.300          49.100
  20023241.711    20023230.887                    20023230.824   -25739025.989 8
 -20049767.555 9        51.400          54.300
  23049785.813    23049775.984                    23049775.863    -8320708.923 6
  -7507701.010 7        40.900          43.500
  21096504.023                                    21096490.324   -22657066.779 8
 -16228953.60646        48.900          39.000
  21808079.148                                    21808065.215    -5526300.739 5
  -4105779.38542        33.700          15.600
  23723212.523    23723202.871                                      475592.066 5
    248389.466 6        33.400          37.700
  24521360.039    24521351.734                    24521352.023    -2558110.376 5
  -1983980.036 6        34.300          39.900
 18  1  6  0  1 10.0000000  0  7G07G09G30G23G16G27G05
  21287148.109    21287135.762                    21287136.168   -16368314.417 8
 -14883428.928 8        52.400          49.300
  20023216.438    20023206.434                    20023206.430   -25739154.924 8
 -20049868.030 9        51.300          54.300
  23049223.859    23049213.797                    23049213.676    -8323663.698 6
  -7510003.434 7        39.700          43.400
  21096844.578                                    21096831.230   -22655275.803 8
 -16227558.04146        48.300          39.000
  21808486.156                                    21808472.281    -5524164.260 5
  -4104114.60542        34.700          15.600
  23722766.625    23722758.438                                      473257.729 5
    246570.495 6        33.200          37.600
  24520799.875    24520791.395                    24520791.742    -2561054.491 5
  -1986274.139 6        33.700          39.800
 18  1  6  0  1 11.0000000  0  7G07G09G30G23G16G27G05
  21286797.844    21286785.848                    21286786.137   -16370152.920 8
 -14884861.524 8        52.400          49.300
  20023192.727    20023182.488                    20023182.367   -25739282.391 8
 -20049967.357 8        51.400          53.900
  23048661.828    23048652.176                    23048651.645    -8326617.334 6
  -7512304.960 7        39.900          43.600
  21097185.383                                    21097171.684   -22653483.458 8
 -16226161.41146        48.700          38.800
  21808894.000                                    21808878.953    -5522026.332 5
  -4102448.70642        34.300          15.600
  23722322.438    23722314.309                                      470924.769 5
    244752.605 6        32.500          37.500
  24520240.484    24520231.711                    24520231.941    -2563997.259 5
  -1988567.205 6        34.600          39.700
 18  1  6  0  1 12.0000000  0  7G07G09G30G23G16G27G05
  21286448.250    21286436.020                    21286436.133   -16371991.950 8
 -14886294.537 8        52.900          49.300
  20023167.742    20023158.148                    20023157.910   -25739410.214 8
 -20050066.951 9        50.800          54.000
  23048099.367    23048089.598                    23048089.535    -8329571.586 6
  -7514606.972 7        40.000          43.400
  21097526.594                                    21097512.777   -22651691.480 7
 -16224765.06046        47.600          38.900
  21809300.742                                    21809285.988    -5519888.534 5
  -4100782.93642        33.700          15.600
  23721878.242    23721870.992                                      468591.407 5
    242934.397 6        32.300          37.300
  24519680.711    24519671.234                    24519671.641    -2566940.524 5
  -1990860.659 6        35.000          39.900
 18  1  6  0  1 13.0000000  0  7G07G09G30G23G16G27G05
  21286098.711    21286086.305                    21286086.594   -16373829.847 8
 -14887726.663 8        52.900          49.100
  20023144.102    20023133.980                    20023133.918   -25739536.658 8
 -20050165.484 9        50.800          54.100
  23047537.313    23047527.133                    23047527.422    -8332524.797 6
  -7516908.184 7        40.500          43.500
  21097867.813                                    21097853.645   -22649898.233 7
 -16223367.72446        47.900          38.500
  21809707.055                                    21809693.063    -5517749.455 5
  -4099116.11742        33.800          15.600
  23721433.867    23721427.027                                      466259.286 5
    241117.166 6        32.600          37.600
  24519120.922    24519111.445                    24519111.969    -2569882.562 5
  -1993153.152 6        35.600          39.700
 18  1  6  0  1 14.0000000  0  7G07G09G30G23G16G27G05
  21285748.750    21285736.578                    21285736.691   -16375668.132 8
 -14889159.091 8        53.000          49.300
  20023119.664    20023109.602                    20023109.539   -25739663.310 8
 -20050264.174 9        51.200          54.400
  23046975.086    23046965.785                    23046965.488    -8335478.554 6
  -7519209.820 7        41.000          43.700
  21098209.219                                    21098195.637   -22648105.279 8
 -16221970.62146        48.400          38.600
  21810114.313                                    21810100.203    -5515610.380 5
  -4097449.30742        33.700          15.600
  23720990.313    23720983.414                                      463926.904 5
    239299.722 6        32.300          37.700
  24518561.008    24518551.355                    24518551.820    -2572824.956 5
  -1995445.924 6        35.400          40.100
 18  1  6  0  1 15.0000000  0  7G07G09G30G23G16G27G05
  21285399.063    21285386.949                    21285387.180   -16377505.529 8
 -14890590.823 8        52.900          49.400
  20023095.727    20023085.840                    20023085.660   -25739788.907 8
 -20050362.043 9        51.600          54.500
  23046412.719    23046403.945                    23046403.531    -8338431.518 6
  -7521510.838 7        40.600          43.600
  21098550.820                                    21098536.594   -22646311.316 8
 -16220572.72846        48.800          38.900
  21810520.836                                    21810507.488    -5513470.210 5
  -4095781.64842        33.600          14.800
  23720546.938    23720540.039                                      461595.491 5
    237483.032 6        32.000          37.900
  24518001.844    24517992.016                    24517992.539    -2575766.397 5
  -1997737.954 6        34.800          40.500
 18  1  6  0  1 16.0000000  0  7G07G09G30G23G16G27G05
  21285049.578    21285037.172                    21285037.520   -16379343.021 8
 -14892022.640 8        52.700          49.200
  20023071.898    20023061.660                    20023061.656   -25739914.367 8
 -20050459.800 9        51.600          54.600
  23045850.547    23045841.949                    23045841.477    -8341384.721 6
  -7523812.033 7        40.200          43.700
  21098892.000                                    21098878.184   -22644517.304 8
 -16219174.80646        49.100          39.000
  21810928.234                                    21810914.770    -5511329.815 5
  -4094113.78942        33.700          14.800
  23720103.766    23720096.398                                      459264.081 5
    235666.345 6        32.500          37.600
  24517442.500    24517432.027                    24517432.199    -2578707.893 5
  -2000030.032 6        35.000          40.400
 18  1  6  0  1 17.0000000  0  7G07G09G30G23G16G27G05
  21284699.883    21284687.711                    21284687.824   -16381180.089 8
 -14893454.120 8        52.600          48.900
  20023048.539    20023038.359                    20023038.355   -25740039.228 8
 -20050557.104 9        51.800          54.400
  23045288.625    23045279.793                    23045279.496    -8344337.555 6
  -7526112.939 7        40.700          43.500
  21099233.523                                    21099219.707   -22642722.723 8
 -16217776.43146        49.300          38.800
  21811335.758                                    21811322.117    -5509188.746 5
  -4092445.42942        34.600          15.600
  23719659.930    23719653.148                                      456933.243 5
    233850.099 6        32.500          37.100
  24516882.781    24516872.895                    24516872.891    -2581648.895 5
  -2002321.723 6        35.700          40.200
 18  1  6  0  1 18.0000000  0  7G07G09G30G23G16G27G05
  21284350.477    21284337.484                    21284338.066   -16383017.294 8
 -14894885.706 8        52.900          48.900
  20023024.344    20023014.457                    20023014.688   -25740164.011 8
 -20050654.335 9        51.800          54.400
  23044727.172    23044717.813                    23044717.574    -8347290.673 6
  -7528414.064 7        41.100          43.300
  21099575.305                                    21099561.254   -22640928.170 8
 -16216378.07546        49.500          38.900
  21811742.258                                    21811729.613    -5507047.575 5
  -4090776.95642        34.600          15.600
  23719215.969    23719209.305                                      454602.343 5
    232033.814 6        32.800          36.900
  24516323.195    24516313.309                    24516313.070    -2584589.990 5
  -2004613.485 6        35.000          39.900
 18  1  6  0  1 19.0000000  0  7G07G09G30G23G16G27G05
  21284000.891    21283988.250                    21283988.715   -16384853.808 8
 -14896316.758 8        52.700          48.900
  20023000.891    20022990.887                    20022991.176   -25740287.907 8
 -20050750.879 9        51.600          54.400
  23044166.328    23044155.035                    23044155.383    -8350243.176 6
  -7530714.710 7        41.200          42.900
  21099916.484                                    21099902.434   -22639132.801 8
 -16214979.08446        49.100          38.500
  21812150.453                                    21812136.930    -5504905.343 5
  -4089107.69242        34.300          15.600
  23718772.984    23718765.148                                      452272.266 5
    230218.167 6        32.400          36.400
  24515763.922    24515753.332                    24515753.387    -2587530.359 5
  -2006904.694 6        35.600          39.900
 18  1  6  0  1 20.0000000  0  7G07G09G30G23G16G27G05
  21283651.469    21283638.711                    21283639.176   -16386690.013 8
 -14897747.572 8        52.900          49.100
  20022977.625    20022967.094                    20022967.441   -25740411.273 8
 -20050847.009 9        51.100          54.500
  23043604.047    23043593.574                    23043593.688    -8353195.514 7
  -7533015.234 7        42.200          43.000
  21100258.734                                    21100244.566   -22637336.982 8
 -16213579.74946        49.200          38.500
  21812558.211                                    21812545.098    -5502762.595 5
  -4087438.01342        34.800          16.300
  23718328.797    23718321.840                                      449942.624 5
    228402.858 6        31.800          36.200
  24515205.203    24515194.145                    24515194.316    -2590470.299 6
  -2009195.558 6        36.400          40.000
 18  1  6  0  1 21.0000000  0  7G07G09G30G23G16G27G05
  21283302.109    21283289.879                    21283289.934   -16388525.239 8
 -14899177.599 8        52.800          49.300
  20022954.297    20022944.176                    20022944.230   -25740533.483 8
 -20050942.236 9        51.000          54.600
  23043042.336    23043032.508                    23043032.328    -8356146.955 7
  -7535315.059 7        42.600          43.100
  21100600.586                                    21100586.184   -22635540.056 8
 -16212179.54546        49.500          38.600
  21812966.586                                    21812953.004    -5500618.524 5
  -4085767.32542        35.200          15.600
  23717886.641    23717878.512                                      447614.046 5
    226588.381 5        32.000          35.500
  24514645.625    24514634.977                    24514634.914    -2593409.233 6
  -2011485.636 6        37.600          40.100
 18  1  6  0  1 22.0000000  0  7G07G09G30G23G16G27G05
  21282952.578    21282940.289                    21282940.461   -16390360.926 8
 -14900607.996 8        52.900          49.500
  20022931.242    20022920.184                    20022920.473   -25740655.943 8
 -20051037.656 9        51.100          54.500
  23042480.688    23042470.742                    23042470.445    -8359098.993 7
  -7537615.354 7        42.500          43.200
  21100942.391                                    21100928.398   -22633743.488 8
 -16210779.62246        49.200          38.500
  21813375.102                                    21813360.934    -5498474.702 5
  -4084096.81542        35.000          15.600
  23717442.563    23717435.254                                      445285.144 5
    224773.652 5        31.800          35.400
  24514086.836    24514075.777                    24514075.598    -2596348.576 5
  -2013776.030 6        35.400          40.200
 18  1  6  0  1 23.0000000  0  7G07G09G30G23G16G27G05
  21282603.563    21282591.332                    21282591.621   -16392196.340 8
 -14902038.187 8        53.100          49.500
  20022907.742    20022897.152                    20022897.734   -25740777.974 8
 -20051132.742 9        50.800          54.500
  23041918.719    23041909.184                    23041908.887    -8362050.880 7
  -7539915.522 7        42.600          43.000
  21101284.336                                    21101270.637   -22631946.523 8
 -16209379.39146        48.600          38.600
  21813783.008                                    21813768.957    -5496330.335 5
  -4082425.88942        34.500          16.300
  23716999.320    23716992.188                                      442956.629 5
    222959.223 5        31.900          34.900
  24513526.469    24513516.816                    24513516.754    -2599287.603 5
  -2016066.178 6        35.200          40.200
 18  1  6  0  1 24.0000000  0  7G07G09G30G23G16G27G05
  21282254.523    21282242.117                    21282242.406   -16394031.141 8
 -14903467.906 8        53.200          49.600
  20022884.680    20022874.734                    20022874.789   -25740899.154 8
 -20051227.167 9        50.200          54.600
  23041356.992    23041347.105                    23041347.102    -8365002.252 7
  -7542215.288 7        42.100          42.900
  21101626.523                                    21101612.473   -22630148.812 7
 -16207978.59046        47.600          39.000
  21814190.688                                    21814177.223    -5494185.019 5
  -4080754.21742        35.000          16.300
  23716555.797    23716548.898                                      440628.784 5
    221145.320 5        32.500          34.400
  24512966.484    24512957.066                    24512956.887    -2602225.936 5
  -2018355.787 6        35.400          39.900
 18  1  6  0  1 25.0000000  0  7G07G09G30G23G16G27G05
  21281905.078    21281893.258                    21281893.371   -16395866.037 8
 -14904897.698 8        53.000          49.700
  20022861.602    20022851.422                    20022851.711   -25741020.249 8
 -20051321.530 9        50.400          54.600
  23040796.023    23040785.492                    23040785.371    -8367953.847 7
  -7544515.232 7        42.900          42.900
  21101968.594                                    21101954.602   -22628351.051 8
 -16206577.73346        48.000          39.400
  21814598.555                                    21814585.500    -5492039.555 5
  -4079082.41142        34.800          16.300
  23716113.281    23716105.855                                      438300.974 5
    219331.446 5        31.500          33.700
  24512408.781    24512398.133                    24512398.129    -2605164.347 5
  -2020645.462 6        35.400          40.200
 18  1  6  0  1 26.0000000  0  7G07G09G30G23G16G27G05
  21281555.828    21281544.125                    21281543.945   -16397700.271 8
 -14906326.971 8        52.600          49.700
  20022838.438    20022828.551                    20022828.664   -25741140.483 8
 -20051415.217 9        51.100          54.700
  23040234.047    23040223.867                    23040223.863    -8370904.866 7
  -7546814.724 7        42.900          42.800
  21102310.953                                    21102296.492   -22626552.535 7
 -16205176.29246        47.900          39.300
  21815007.086                                    21814993.855    -5489893.175 5
  -4077409.91842        35.100          16.900
  23715669.922    23715662.555                                      435973.916 5
    217518.153 5        31.800          33.400
  24511848.492    24511839.367                    24511839.188    -2608102.019 5
  -2022934.548 6        35.900          40.200
 18  1  6  0  1 27.0000000  0  7G07G09G30G23G16G27G05
  21281206.859    21281194.922                    21281194.977   -16399534.395 8
 -14907756.161 8        52.900          49.600
  20022816.133    20022805.484                    20022805.656   -25741260.404 8
 -20051508.657 9        51.600          54.700
  23039672.875    23039661.992                    23039662.340    -8373855.916 7
  -7549114.250 7        42.600          42.800
  21102653.180                                    21102639.188   -22624753.780 8
 -16203774.65746        48.200          39.000
  21815415.867                                    21815402.402    -5487746.381 5
  -4075737.08942        35.200          17.400
  23715228.633    23715219.566                                      433647.132 5
    215705.084 5        31.600          32.600
  24511289.797    24511279.852                    24511279.730    -2611039.522 5
  -2025223.512 6        35.700          40.400
 18  1  6  0  1 28.0000000  0  7G07G09G30G23G16G27G05
  21280857.969    21280846.090                    21280846.145   -16401368.185 8
 -14909185.086 8        52.800          49.600
  20022793.477    20022783.121                    20022783.293   -25741379.799 8
 -20051601.698 9        51.300          54.700
  23039111.461    23039100.461                    23039100.457    -8376806.749 7
  -7551413.596 7        43.000          42.800
  21102995.281                                    21102981.523   -22622954.558 8
 -16202372.66746        48.600          39.000
  21815824.297                                    21815810.949    -5485598.975 5
  -4074063.75942        35.600          17.400
  23714785.898    23714776.891                                      431320.689 5
    213892.273 5        32.500          32.800
  24510730.063    24510721.465                    24510721.168    -2613976.644 5
  -2027512.182 6        34.600          40.400
 18  1  6  0  1 29.0000000  0  7G07G09G30G23G16G27G05
  21280509.047    21280496.875                    21280496.930   -16403201.609 8
 -14910613.734 8        53.000          49.500
  20022770.602    20022760.656                    20022760.887   -25741498.609 8
 -20051694.276 9        50.700          54.500
  23038549.641    23038539.109                    23038539.398    -8379757.290 7
  -7553712.714 7        42.900          42.900
  21103338.242                                    21103323.898   -22621154.844 8
 -16200970.29646        49.100          39.100
  21816233.422                                    21816219.957    -5483450.930 5
  -4072389.93442        35.400          16.900
  23714342.969    23714334.488                                      428994.871 5
    212079.945 5        32.400          33.100
  24510170.898    24510162.477                    24510162.121    -2616913.329 5
  -2029800.502 6        35.800          40.400
 18  1  6  0  1 30.0000000  0  7G07G09G30G23G16G27G05
  21280160.359    21280148.363                    21280148.301   -16405034.899 8
 -14912042.270 8        52.700          49.500
  20022748.258    20022738.137                    20022738.250   -25741617.103 8
 -20051786.609 9        50.600          54.500
  23037987.578    23037977.691                    23037977.922    -8382707.834 7
  -7556011.840 7        42.800          43.000
  21103680.539                                    21103666.195   -22619354.872 8
 -16199567.71446        49.200          38.900
  21816641.398                                    21816628.695    -5481302.485 5
  -4070715.79842        35.600          17.400
  23713900.625    23713891.910                                      426669.214 5
    210267.749 5        32.800          32.700
  24509612.477    24509603.293                    24509603.172    -2619849.815 5
  -2032088.664 6        34.800          40.700
 18  1  6  0  1 31.0000000  0  7G07G09G30G23G16G27G05
  21279811.164    21279799.227                    21279799.516   -16406867.574 8
 -14913470.325 8        52.500          49.400
  20022725.531    20022715.117                    20022715.289   -25741734.797 8
 -20051878.313 9        51.000          54.700
  23037426.680    23037416.559                    23037416.672    -8385657.868 7
  -7558310.563 7        42.200          43.000
  21104023.383                                    21104008.805   -22617554.164 8
 -16198164.56646        49.100          38.600
  21817050.953                                    21817037.371    -5479153.136 5
  -4069040.98642        35.800          17.400
  23713458.523    23713449.633                                      424344.261 5
    208456.096 5        33.100          32.400
  24509053.250    24509044.594                    24509044.707    -2622785.666 5
  -2034376.332 6        34.600          40.500
 18  1  6  0  1 32.0000000  0  7G07G09G30G23G16G27G05
  21279462.664    21279450.434                    21279450.723   -16408700.246 8
 -14914898.381 8        52.500          49.400
  20022703.508    20022693.270                    20022693.266   -25741852.290 8
 -20051969.868 9        51.400          54.600
  23036865.164    23036855.043                    23036854.980    -8388608.041 7
  -7560609.388 7        42.300          43.100
  21104365.953                                    21104351.727   -22615753.313 8
 -16196761.30946        48.800          38.900
  21817461.078                                    21817446.793    -5477003.515 6
  -4067365.96742        36.100          17.400
  23713016.250    23713007.594                                      422019.515 5
    206644.610 5        33.800          31.600
  24508494.703    24508485.930                    24508486.336    -2625721.463 5
  -2036663.962 6        33.600          40.200
 18  1  6  0  1 33.0000000  0  7G07G09G30G23G16G27G05
  21279113.977    21279102.039                    21279102.387   -16410532.370 8
 -14916326.013 8        52.700          49.300
  20022681.414    20022671.176                    20022671.230   -25741969.000 8
 -20052060.813 9        51.500          54.800
  23036304.195    23036294.074                    23036293.836    -8391557.728 7
  -7562907.845 7        42.000          43.200
  21104708.945                                    21104695.363   -22613951.796 8
 -16195357.53546        49.300          38.800
  21817869.656                                    21817855.898    -5474853.046 6
  -4065690.29942        36.000          17.400
  23712573.898    23712564.773                                      419695.347 5
    204833.587 5        32.600          31.600
  24507935.523    24507926.633                    24507927.215    -2628656.646 5
  -2038951.114 6        34.100          40.100
 18  1  6  0  1 34.0000000  0  7G07G09G30G23G16G27G05
  21278765.688    21278753.164                    21278753.512   -16412364.506 8
 -14917753.652 8        52.600          49.400
  20022659.109    20022648.930                    20022649.043   -25742085.561 8
 -20052151.639 9        51.300          54.500
  23035742.859    23035732.738                    23035732.559    -8394507.562 7
  -7565206.406 7        42.200          43.100
  21105051.516                                    21105037.348   -22612150.177 8
 -16193953.66946        49.500          38.800
  21818279.289                                    21818265.180    -5472702.349 6
  -4064014.44542        36.100          17.800
  23712132.234    23712122.172                                      417371.310 5
    203022.659 5        32.600          31.000
  24507377.180    24507368.641                    24507368.988    -2631591.758 5
  -2041238.210 6        34.300          40.200
 18  1  6  0  1 35.0000000  0  7G07G09G30G23G16G27G05
  21278416.977    21278404.863                    21278405.094   -16414196.145 8
 -14919180.906 8        52.200          49.500
  20022636.977    20022626.680                    20022626.734   -25742201.383 8
 -20052241.889 9        50.800          54.500
  23035182.086    23035171.438                    23035171.316    -8397456.987 6
  -7567504.660 7        41.400          43.200
  21105394.711                                    21105380.895   -22610347.925 8
 -16192549.32246        48.800          39.000
  21818688.078                                    21818674.965    -5470550.831 6
  -4062337.92642        36.100          17.400
  23711689.297    23711680.289                                      415047.858 5
    201212.190 5        33.400          30.800
  24506819.617    24506809.906                    24506810.371    -2634526.331 5
  -2043524.882 6        33.700          40.200
 18  1  6  0  1 36.0000000  0  7G07G09G30G23G16G27G05
  21278068.367    21278056.137                    21278056.426   -16416027.525 8
 -14920607.954 8        52.300          49.500
  20022614.969    20022605.082                    20022605.137   -25742316.778 8
 -20052331.808 9        50.500          54.400
  23034620.891    23034610.477                    23034610.238    -8400406.284 7
  -7569802.817 7        42.000          43.200
  21105737.664                                    21105723.672   -22608545.281 8
 -16191144.66246        49.300          39.000
  21819097.492                                    21819084.145    -5468398.773 6
  -4060660.98942        36.300          17.800
  23711247.891    23711237.945                                      412724.798 5
    199402.021 5        33.900          31.000
  24506261.164    24506251.629                    24506252.094    -2637460.543 5
  -2045811.282 6        34.300          39.900
 18  1  6  0  1 37.0000000  0  7G07G09G30G23G16G27G05
  21277719.852    21277707.680                    21277707.969   -16417858.536 8
 -14922034.715 8        51.900          49.500
  20022593.250    20022582.836                    20022583.008   -25742431.590 8
 -20052421.273 9        50.400          54.500
  23034059.516    23034048.867                    23034048.805    -8403355.327 7
  -7572100.770 7        42.300          43.100
  21106080.813                                    21106066.645   -22606742.159 8
 -16189739.63046        49.400          39.100
  21819508.383                                    21819493.980    -5466246.085 6
  -4058983.58242        36.300          17.400
  23710805.813    23710796.102                                      410402.178 5
    197592.205 5        34.200          30.400
  24505703.031    24505693.320                    24505693.668    -2640394.390 5
  -2048097.399 6        34.900          39.700
 18  1  6  0  1 38.0000000  0  7G07G09G30G23G16G27G05
  21277371.656    21277359.309                    21277359.715   -16419689.362 8
 -14923461.336 8        51.800          49.500
  20022571.398    20022561.277                    20022561.332   -25742546.041 8
 -20052510.455 9        50.300          54.600
  23033498.188    23033487.891                    23033487.945    -8406304.305 7
  -7574398.675 7        42.400          43.100
  21106423.547                                    21106409.965   -22604938.704 8
 -16188334.34446        49.500          39.000
  21819916.836                                    21819903.781    -5464092.906 6
  -4057305.79542        36.300          17.800
  23710364.500    23710353.969                                      408079.918 5
    195782.675 5        33.600          30.400
  24505145.094    24505135.090                    24505135.613    -2643327.955 5
  -2050383.292 6        35.500          39.600
 18  1  6  0  1 39.0000000  0  7G07G09G30G23G16G27G05
  21277023.219    21277010.930                    21277011.102   -16421519.783 8
 -14924887.630 8        51.900          49.500
  20022549.742    20022539.563                    20022539.617   -25742659.864 8
 -20052599.152 9        50.300          54.500
  23032936.742    23032926.563                    23032926.734    -8409252.957 7
  -7576696.322 7        42.400          43.200
  21106767.180                                    21106753.246   -22603134.714 8
 -16186928.64746        49.300          38.500
  21820326.891                                    21820313.426    -5461939.050 6
  -4055627.47742        36.700          17.400
  23709922.984    23709911.926                                      405758.142 5
    193973.521 5        33.700          30.600
  24504587.477    24504576.828                    24504577.527    -2646261.048 6
  -2052668.818 6        36.000          39.600
 18  1  6  0  1 40.0000000  0  7G07G09G30G23G16G27G05
  21276674.883    21276662.887                    21276663.059   -16423350.064 8
 -14926313.824 8        51.900          49.600
  20022528.016    20022517.836                    20022518.008   -25742773.392 8
 -20052687.615 9        49.900          54.400
  23032375.547    23032365.250                    23032365.246    -8412201.637 7
  -7578993.992 7        42.700          43.100
  21107110.328                                    21107096.395   -22601330.499 8
 -16185522.76246        49.500          38.700
  21820736.742                                    21820723.629    -5459784.780 6
  -4053948.80342        36.500          17.800
  23709481.742    23709470.156                                      403436.653 5
    192164.573 4        34.000          29.300
  24504029.227    24504018.578                    24504019.395    -2649193.990 5
  -2054954.234 6        35.700          39.700
 18  1  6  0  1 41.0000000  0  7G07G09G30G23G16G27G05
  21276326.992    21276314.820                    21276314.816   -16425179.736 8
 -14927739.534 8        52.400          49.600
  20022506.727    20022496.547                    20022496.602   -25742886.067 8
 -20052775.407 9        50.300          54.300
  23031814.563    23031804.617                    23031804.555    -8415149.781 7
  -7581291.241 7        42.500          43.000
  21107454.023                                    21107439.797   -22599525.522 8
 -16184116.28746        48.800          38.500
  21821146.570                                    21821133.809    -5457629.655 6
  -4052269.46142        36.600          17.400
  23709039.695    23709028.871                                      401115.829 5
    190356.145 4        33.700          29.700
  24503470.695    24503460.516                    24503461.625    -2652126.232 6
  -2057239.096 6        36.500          39.800
 18  1  6  0  1 42.0000000  0  7G07G09G30G23G16G27G05
  21275978.625    21275966.629                    21275966.684   -16427009.327 8
 -14929165.188 8        52.200          49.700
  20022485.266    20022475.262                    20022475.316   -25742998.498 8
 -20052863.018 9        50.500          54.400
  23031252.953    23031243.418                    23031243.355    -8418097.958 7
  -7583588.516 7        42.300          43.400
  21107797.805                                    21107783.520   -22597720.363 8
 -16182709.67246        49.200          38.800
  21821557.188                                    21821543.898    -5455474.230 6
  -4050589.90942        37.200          17.400
  23708597.406    23708587.227                                      398795.187 5
    188547.861 4        33.100          28.800
  24502912.789    24502902.668                    24502903.484    -2655058.342 5
  -2059523.856 6        35.900          39.400
 18  1  6  0  1 43.0000000  0  7G07G09G30G23G16G27G05
  21275630.320    21275618.324                    21275618.672   -16428838.390 8
 -14930590.440 8        52.300          49.800
  20022464.406    20022454.227                    20022454.281   -25743110.170 8
 -20052950.036 9        50.900          54.400
  23030692.273    23030682.973                    23030682.676    -8421045.728 7
  -7585885.475 7        42.400          43.100
  21108140.391                                    21108126.867   -22595914.519 8
 -16181302.52646        49.200          38.900
  21821967.063                                    21821954.066    -5453317.921 6
  -4048909.67242        37.000          17.400
  23708155.992    23708145.461                                      396475.226 5
    186740.105 4        33.100          28.000
  24502355.227    24502344.988                    24502345.629    -2657989.851 5
  -2061808.151 6        35.700          39.600
 18  1  6  0  1 44.0000000  0  7G07G09G30G23G16G27G05
  21275282.281    21275270.695                    21275270.750   -16430667.444 8
 -14932015.676 8        52.500          49.800
  20022442.844    20022432.664                    20022432.719   -25743221.650 8
 -20053036.905 9        51.200          54.600
  23030131.172    23030121.109                    23030121.457    -8423993.579 7
  -7588182.489 7        42.600          43.000
  21108484.891                                    21108471.074   -22594108.569 8
 -16179895.28946        49.500          38.600
  21822377.781                                    21822364.551    -5451161.381 6
  -4047229.24042        37.300          17.800
  23707715.125    23707703.129                                      394155.390 5
    184932.451 4        33.600          29.400
  24501796.914    24501787.086                    24501787.902    -2660921.323 6
  -2064092.419 6        36.600          39.600
 18  1  6  0  1 45.0000000  0  7G07G09G30G23G16G27G05
  21274934.266    21274922.563                    21274922.559   -16432495.933 8
 -14933440.475 8        52.700          49.500
  20022421.844    20022411.488                    20022411.602   -25743332.354 8
 -20053123.165 9        51.400          54.700
  23029570.148    23029560.438                    23029560.727    -8426940.998 7
  -7590479.175 7        42.600          42.800
  21108828.555                                    21108814.504   -22592301.905 8
 -16178487.49446        49.500          38.900
  21822788.289                                    21822774.941    -5449003.940 6
  -4045548.11342        37.500          17.400
  23707272.156    23707262.270                                      391836.241 5
    183125.316 4        33.400          29.300
  24501239.047    24501228.867                    24501230.152    -2663852.109 6
  -2066376.152 6        36.400          39.400
 18  1  6  0  1 46.0000000  0  7G07G09G30G23G16G27G05
  21274586.305    21274574.953                    21274574.773   -16434324.083 8
 -14934865.004 8        52.300          49.500
  20022400.938    20022390.348                    20022390.578   -25743442.547 8
 -20053209.025 9        51.100          54.500
  23029009.664    23028999.895                    23029000.125    -8429888.195 7
  -7592775.688 7        42.500          42.600
  21109172.086                                    21109158.621   -22590494.797 8
 -16177079.35846        49.700          38.600
  21823198.945                                    21823185.773    -5446845.953 6
  -4043866.54443        37.200          18.300
  23706830.516    23706820.922                                      389517.493 5
    181318.506 4        31.600          29.400
  24500681.828    24500671.238                    24500672.348    -2666782.579 6
  -2068659.649 6        36.500          38.900
 18  1  6  0  1 47.0000000  0  7G07G09G30G23G16G27G05
  21274239.039    21274226.984                    21274226.805   -16436151.937 8
 -14936289.304 8        52.500          49.500
  20022380.125    20022369.828                    20022370.000   -25743552.229 8
 -20053294.490 9        51.300          54.600
  23028448.813    23028438.809                    23028438.863    -8432835.182 7
  -7595072.039 7        42.800          42.500
  21109516.734                                    21109502.098   -22588687.253 8
 -16175670.88546        50.000          38.500
  21823610.016                                    21823596.199    -5444687.335 6
  -4042184.51242        37.100          17.800
  23706389.414    23706379.352                                      387199.154 5
    179512.022 4        31.900          29.500
  24500123.891    24500114.004                    24500114.996    -2669712.672 6
  -2070942.840 6        36.600          39.000
 18  1  6  0  1 48.0000000  0  7G07G09G30G23G16G27G05
  21273890.906    21273879.203                    21273879.199   -16437979.369 8
 -14937713.285 8        52.200          49.500
  20022359.250    20022348.777                    20022348.949   -25743661.286 8
 -20053379.474 9        51.500          54.500
  23027887.961    23027878.074                    23027878.422    -8435781.903 7
  -7597368.188 7        42.600          42.200
  21109860.453                                    21109846.227   -22586879.165 8
 -16174261.98646        50.000          38.500
  21824020.688                                    21824007.516    -5442528.036 6
  -4040501.93843        37.300          18.300
  23705948.469    23705938.113                                      384881.445 5
    177706.033 4        32.400          29.300
  24499566.750    24499556.219                    24499557.445    -2672642.288 6
  -2073225.661 6        36.100          39.400
 18  1  6  0  1 49.0000000  0  7G07G09G30G23G16G27G05
  21273543.172    21273531.176                    21273531.406   -16439806.561 8
 -14939137.067 8        52.300          49.500
  20022338.648    20022328.293                    20022328.523   -25743769.895 8
 -20053464.103 9        50.300          54.400
  23027327.641    23027317.168                    23027317.398    -8438728.431 7
  -7599664.184 7        42.600          42.200
  21110205.070                                    21110191.137   -22585070.696 8
 -16172852.78746        48.600          38.300
  21824432.039                                    21824418.223    -5440368.219 6
  -4038818.94243        37.900          19.000
  23705507.891    23705497.184                                      382563.980 5
    175900.232 4        32.500          29.000
  24499008.359    24498998.941                    24499000.168    -2675571.542 5
  -2075508.189 6        35.200          39.300
 18  1  6  0  1 50.0000000  0  7G07G09G30G23G16G27G05
  21273195.398    21273183.578                    21273183.691   -16441633.327 8
 -14940560.524 8        51.900          49.300
  20022318.148    20022307.734                    20022307.965   -25743877.919 8
 -20053548.279 9        49.800          54.400
  23026766.430    23026756.367                    23026756.598    -8441674.666 7
  -7601959.962 7        42.400          42.300
  21110549.352                                    21110534.949   -22583261.696 7
 -16171443.17846        47.800          38.200
  21824843.461                                    21824829.469    -5438207.728 6
  -4037135.43843        37.600          18.600
  23705066.039    23705056.387                                      380247.092 5
    174094.896 5        32.200          30.200
  24498450.938    24498441.695                    24498443.039    -2678500.410 5
  -2077790.424 6        34.300          39.200
 18  1  6  0  1 51.0000000  0  7G07G09G30G23G16G27G05
  21272847.688    21272835.398                    21272835.570   -16443460.015 8
 -14941983.913 8        51.700          49.200
  20022297.305    20022287.242                    20022287.355   -25743985.631 8
 -20053632.208 9        50.100          54.100
  23026206.492    23026196.254                    23026196.367    -8444620.968 7
  -7604255.781 7        42.300          42.600
  21110893.625                                    21110879.164   -22581452.509 8
 -16170033.42346        48.100          38.200
  21825254.828                                    21825240.660    -5436046.868 6
  -4035451.65543        37.500          18.600
  23704625.578    23704615.457                                      377930.392 5
    172289.678 5        31.800          31.200
  24497893.391    24497884.148                    24497885.258    -2681429.071 5
  -2080072.497 6        33.400          39.200
 18  1  6  0  1 52.0000000  0  7G07G09G30G23G16G27G05
  21272500.242    21272488.656                    21272488.711   -16445286.207 8
 -14943406.919 8        51.900          49.400
  20022277.273    20022266.859                    20022266.973   -25744092.651 8
 -20053715.600 9        50.400          54.100
  23025645.313    23025635.602                    23025635.539    -8447566.832 6
  -7606551.256 7        41.800          42.700
  21111237.938                                    21111223.477   -22579642.681 8
 -16168623.17446        48.500          38.100
  21825666.195                                    21825651.734    -5433885.228 6
  -4033767.25543        38.300          18.600
  23704185.297    23704175.117                                      375614.325 5
    170484.938 5        32.200          30.900
  24497336.008    24497327.234                    24497328.402    -2684357.185 5
  -2082354.139 6        32.900          39.500
 18  1  6  0  1 53.0000000  0  7G07G09G30G23G16G27G05
  21272152.969    21272140.914                    21272141.086   -16447112.324 8
 -14944829.872 8        51.600          49.500
  20022257.016    20022246.250                    20022246.363   -25744199.389 8
 -20053798.772 9        50.700          54.200
  23025084.898    23025075.422                    23025075.242    -8450512.773 7
  -7608846.791 7        42.100          42.700
  21111581.453                                    21111567.402   -22577832.626 8
 -16167212.73646        48.800          37.900
  21826077.625                                    21826063.105    -5431723.275 6
  -4032082.62543        37.700          18.600
  23703743.406    23703734.047                                      373298.450 5
    168680.348 5        31.600          30.600
  24496778.242    24496770.875                    24496771.340    -2687285.169 5
  -2084635.686 6        33.100          40.000
 18  1  6  0  1 54.0000000  0  7G07G09G30G23G16G27G05
  21271805.633    21271793.344                    21271793.457   -16448937.955 8
 -14946252.440 8        51.600          49.400
  20022236.813    20022226.398                    20022226.453   -25744305.461 8
 -20053881.425 9        50.800          54.100
  23024524.188    23024514.535                    23024514.297    -8453458.326 7
  -7611142.023 7        42.000          42.500
  21111926.953                                    21111912.668   -22576021.999 8
 -16165801.86646        48.900          37.900
  21826489.813                                    21826474.883    -5429560.522 6
  -4030397.35743        38.300          19.000
  23703303.391    23703293.035                                      370983.143 5
    166876.210 5        31.000          31.600
  24496221.531    24496213.344                    24496213.926    -2690212.625 5
  -2086916.824 6        33.200          39.900
 18  1  6  0  1 55.0000000  0  7G07G09G30G23G16G27G05
  21271458.281    21271446.637                    21271446.691   -16450763.235 8
 -14947674.733 8        51.500          49.100
  20022216.828    20022206.648                    20022206.879   -25744410.959 8
 -20053963.628 9        50.900          54.100
  23023963.641    23023954.809                    23023954.160    -8456403.637 7
  -7613437.058 7        42.200          42.600
  21112272.227                                    21112256.477   -22574210.868 8
 -16164390.58946        49.300          37.900
  21826901.305                                    21826886.785    -5427397.123 6
  -4028711.58443        38.400          19.000
  23702863.891    23702852.656                                      368668.321 5
    165072.452 5        31.000          32.400
  24495663.828    24495656.461                    24495657.043    -2693139.686 5
  -2089197.652 6        33.000          40.000
 18  1  6  0  1 56.0000000  0  7G07G09G30G23G16G27G05
  21271111.094    21271098.922                    21271099.152   -16452588.111 8
 -14949096.721 8        51.700          49.200
  20022196.727    20022186.254                    20022186.426   -25744515.874 8
 -20054045.378 9        51.000          54.100
  23023403.453    23023393.977                    23023393.504    -8459348.653 7
  -7615731.870 7        42.000          42.800
  21112615.891                                    21112601.488   -22572399.213 8
 -16162978.91246        49.800          38.000
  21827312.938                                    21827298.711    -5425233.095 6
  -4027025.32843        38.400          19.000
  23702422.891    23702413.004                                      366354.027 5
    163269.109 5        31.200          32.400
  24495107.289    24495099.746                    24495100.328    -2696066.234 5
  -2091478.085 6        32.800          39.900
 18  1  6  0  1 57.0000000  0  7G07G09G30G23G16G27G05
  21270763.461    21270751.934                    21270751.871   -16454412.811 8
 -14950518.559 8        51.600          49.100
  20022177.039    20022166.273                    20022166.445   -25744620.434 8
 -20054126.856 9        50.900          54.300
  23022842.531    23022833.465                    23022833.168    -8462293.616 7
  -7618026.642 7        42.200          42.500
  21112961.063                                    21112946.016   -22570587.284 8
 -16161567.01946        49.800          38.300
  21827724.977                                    21827710.691    -5423068.620 6
  -4025338.72543        37.900          19.300
  23701982.203    23701972.258                                      364039.998 5
    161465.966 5        31.300          32.300
  24494550.266    24494543.074                    24494543.480    -2698992.579 5
  -2093758.349 6        33.000          40.000
 18  1  6  0  1 58.0000000  0  7G07G09G30G23G16G27G05
  21270416.492    21270404.730                    21270404.668   -16456237.243 8
 -14951940.192 8        51.300          49.000
  20022157.156    20022146.508                    20022146.680   -25744724.491 8
 -20054207.943 9        50.600          54.400
  23022282.852    23022272.730                    23022272.727    -8465238.419 7
  -7620321.287 7        42.500          42.200
  21113306.242                                    21113291.840   -22568774.946 8
 -16160154.81346        49.700          38.000
  21828137.039                                    21828122.578    -5420903.606 6
  -4023651.71843        38.100          19.600
  23701542.367    23701532.129                                      361726.328 5
    159663.106 5        31.300          32.400
  24493993.375    24493986.008                    24493986.473    -2701918.605 5
  -2096038.362 6        33.300          40.400
 18  1  6  0  1 59.0000000  0  7G07G09G30G23G16G27G05
  21270069.570    21270057.340                    21270057.688   -16458061.319 8
 -14953361.551 8        51.600          49.100
  20022137.445    20022127.090                    20022127.262   -25744828.027 8
 -20054288.618 9        50.500          54.200
  23021722.961    23021712.488                    23021712.484    -8468182.994 7
  -7622615.759 7        42.800          42.200
  21113651.531                                    21113636.309   -22566962.123 8
 -16158742.22646        49.700          37.800
  21828548.453                                    21828534.813    -5418737.931 6
  -4021964.15843        38.300          20.100
  23701101.656    23701092.063                                      359413.151 5
    157860.630 5        30.500          32.700
  24493436.883    24493429.457                    24493429.980    -2704844.188 5
  -2098318.029 6        33.400          40.200
 18  1  6  0  2  0.0000000  0  7G07G09G30G23G16G27G05
  21269722.227    21269709.996                    21269710.402   -16459884.890 8
 -14954782.513 8        51.900          49.100
  20022117.898    20022107.074                    20022107.363   -25744930.836 8
 -20054368.725 9        50.300          54.200
  23021161.750    23021152.156                    23021152.328    -8471127.159 7
  -7624909.917 7        43.000          42.100
  21113996.219                                    21113981.289   -22565148.678 8
 -16157329.14546        50.200          37.900
  21828960.461                                    21828946.879    -5416571.521 6
  -4020276.04643        38.100          20.100
  23700661.258    23700652.016                                      357100.576 5
    156058.621 5        30.100          32.800
  24492879.242    24492873.047                    24492873.395    -2707769.267 5
  -2100597.300 6        33.000          40.000
 18  1  6  0  2  1.0000000  0  7G07G09G30G23G16G27G05
  21269375.531    21269362.715                    21269363.414   -16461708.585 8
 -14956203.572 8        52.100          48.800
  20022098.266    20022087.559                    20022087.730   -25745033.586 8
 -20054448.791 9        50.500          54.200
  23020601.602    23020591.715                    23020591.945    -8474071.581 7
  -7627204.272 7        43.100          42.200
  21114340.820                                    21114326.711   -22563335.248 8
 -16155916.07946        50.200          37.800
  21829372.555                                    21829359.266    -5414404.935 6
  -4018587.79243        38.200          19.900
  23700222.195    23700211.898                                      354788.013 5
    154256.640 5        31.000          32.900
  24492322.211    24492316.309                    24492316.715    -2710694.369 5
  -2102876.605 6        33.000          40.300
 18  1  6  0  2  2.0000000  0  7G07G09G30G23G16G27G05
  21269028.313    21269016.258                    21269016.723   -16463531.510 8
 -14957624.033 8        52.300          48.900
  20022078.758    20022068.520                    20022068.398   -25745135.350 8
 -20054528.092 9        49.600          54.300
  23020041.539    23020031.770                    23020031.648    -8477015.287 7
  -7629498.073 7        42.600          42.200
  21114686.148                                    21114671.922   -22561520.879 8
 -16154502.28546        49.500          37.600
  21829785.258                                    21829771.793    -5412237.273 6
  -4016898.70543        38.600          19.900
  23699782.250    23699771.836                                      352476.335 5
    152455.339 5        31.200          32.800
  24491765.477    24491759.398                    24491760.098    -2713618.629 5
  -2105155.242 6        33.400          40.400
 18  1  6  0  2  3.0000000  0  7G07G09G30G23G16G27G05
  21268681.664    21268669.492                    21268669.957   -16465354.381 8
 -14959044.446 8        52.500          48.600
  20022059.398    20022049.043                    20022049.215   -25745236.882 8
 -20054607.204 9        50.100          54.300
  23019481.359    23019471.473                    23019471.527    -8479959.112 7
  -7631791.955 7        42.500          42.200
  21115030.852                                    21115017.563   -22559706.387 8
 -16153088.39446        49.800          38.000
  21830198.570                                    21830184.754    -5410069.332 6
  -4015209.42743        38.100          19.300
  23699342.781    23699331.898                                      350164.764 5
    150654.105 5        30.500          33.000
  24491208.961    24491203.117                    24491203.641    -2716542.825 5
  -2107433.831 6        33.200          40.300
 18  1  6  0  2  4.0000000  0  7G07G09G30G23G16G27G05
  21268334.867    21268322.695                    21268323.043   -16467176.642 8
 -14960464.397 8        52.300          48.600
  20022040.078    20022029.898                    20022030.129   -25745337.596 8
 -20054685.683 9        50.200          54.100
  23018921.570    23018911.801                    23018911.504    -8482902.404 7
  -7634085.426 7        42.100          42.600
  21115376.516                                    21115362.406   -22557891.108 8
 -16151673.88846        49.800          38.100
  21830610.680                                    21830597.449    -5407900.510 6
  -4013519.43743        37.900          19.600
  23698903.297    23698892.707                                      347854.038 5
    148853.537 5        30.300          33.500
  24490653.453    24490647.258                    24490647.430    -2719466.297 5
  -2109711.849 6        33.600          40.500
 18  1  6  0  2  5.0000000  0  7G07G09G30G23G16G27G05
  21267987.984    21267975.461                    21267975.984   -16468998.964 8
 -14961884.387 8        52.100          48.600
  20022020.898    20022010.543                    20022010.773   -25745438.195 8
 -20054764.075 9        49.900          54.000
  23018361.406    23018351.578                    23018351.340    -8485845.878 6
  -7636379.033 7        41.900          42.600
  21115723.547                                    21115708.617   -22556075.816 8
 -16150259.37746        49.300          37.900
  21831023.195                                    21831010.199    -5405731.465 6
  -4011829.26643        37.900          19.300
  23698463.203    23698452.320                                      345543.236 5
    147052.914 5        30.500          34.200
  24490096.992    24490090.914                    24490091.145    -2722389.826 5
  -2111989.925 6        33.700          40.500
 18  1  6  0  2  6.0000000  0  7G07G09G30G23G16G27G05
  21267641.320    21267629.148                    21267629.555   -16470821.083 8
 -14963304.225 8        51.900          48.300
  20022001.633    20021991.453                    20021991.742   -25745538.338 8
 -20054842.108 8        49.900          53.900
  23017801.281    23017791.160                    23017791.273    -8488789.271 6
  -7638672.586 7        41.900          42.700
  21116067.711                                    21116053.133   -22554260.147 8
 -16148844.57046        48.400          38.000
  21831436.211                                    21831423.098    -5403561.936 6
  -4010138.70943        37.500          19.300
  23698022.719    23698013.066                                      343232.850 5
    145252.616 5        30.700          34.600
  24489541.828    24489535.105                    24489535.160    -2725313.059 5
  -2114267.766 6        34.300          40.500
 18  1  6  0  2  7.0000000  0  7G07G09G30G23G16G27G05
  21267294.594    21267282.305                    21267282.770   -16472642.324 8
 -14964723.369 8        51.900          48.200
  20021983.102    20021972.922                    20021972.977   -25745637.442 8
 -20054919.329 9        50.000          54.000
  23017240.836    23017231.242                    23017231.004    -8491731.887 6
  -7640965.530 7        41.800          42.500
  21116413.781                                    21116398.207   -22552443.508 8
 -16147429.00346        48.700          38.300
  21831848.906                                    21831836.145    -5401391.247 6
  -4008447.27143        38.000          19.600
  23697584.547    23697574.074                                      340923.375 5
    143453.027 5        30.100          35.000
  24488986.008    24488978.934                    24488978.871    -2728235.355 5
  -2116544.887 6        34.600          40.800
 18  1  6  0  2  8.0000000  0  7G07G09G30G23G16G27G05
  21266947.711    21266935.891                    21266936.297   -16474463.614 8
 -14966142.548 8        52.100          48.200
  20021964.102    20021954.156                    20021954.152   -25745736.383 8
 -20054996.431 8        50.200          53.700
  23016681.383    23016671.262                    23016671.258    -8494674.661 7
  -7643258.593 7        42.200          42.500
  21116759.898                                    21116744.559   -22550626.786 8
 -16146013.38146        49.300          38.300
  21832262.773                                    21832249.719    -5399220.332 6
  -4006755.65743        37.800          19.600
  23697144.391    23697135.090                                      338614.008 5
    141653.526 5        30.700          35.300
  24488430.000    24488422.984                    24488422.746    -2731157.605 5
  -2118821.954 6        35.200          40.900
 18  1  6  0  2  9.0000000  0  7G07G09G30G23G16G27G05
  21266601.750    21266588.934                    21266589.164   -16476284.628 8
 -14967561.519 8        51.700          48.200
  20021945.336    20021935.215                    20021935.387   -25745834.874 8
 -20055073.175 8        50.400          53.700
  23016121.508    23016111.680                    23016111.559    -8497617.285 6
  -7645551.548 7        41.700          42.600
  21117104.195                                    21117090.613   -22548809.667 8
 -16144597.44546        49.700          38.500
  21832676.297                                    21832663.008    -5397048.893 6
  -4005063.62043        38.300          19.000
  23696705.781    23696695.484                                      336304.934 5
    139854.267 5        30.500          35.700
  24487874.094    24487866.902                    24487866.547    -2734079.580 5
  -2121098.815 6        34.300          41.100
 18  1  6  0  2 10.0000000  0  7G07G09G30G23G16G27G05
  21266254.992    21266242.879                    21266243.109   -16478105.466 8
 -14968980.354 8        51.900          48.300
  20021926.727    20021916.605                    20021916.777   -25745932.970 8
 -20055149.608 8        50.300          53.700
  23015561.656    23015551.066                    23015551.004    -8500559.834 6
  -7647844.450 7        41.400          42.700
  21117450.305                                    21117436.254   -22546992.247 8
 -16143181.26946        49.900          38.200
  21833089.766                                    21833075.891    -5394877.012 6
  -4003371.25943        38.100          18.600
  23696265.094    23696256.379                                      333996.268 5
    138055.334 6        30.700          36.300
  24487319.016    24487311.414                    24487310.824    -2737001.317 5
  -2123375.494 6        34.100          41.000
 18  1  6  0  2 11.0000000  0  7G07G09G30G23G16G27G05
  21265908.852    21265896.387                    21265896.910   -16479925.682 8
 -14970398.708 8        51.900          48.500
  20021908.391    20021897.859                    20021898.148   -25746030.245 8
 -20055225.407 8        48.900          53.700
  23015002.109    23014991.051                    23014991.105    -8503501.870 6
  -7650136.944 7        41.300          42.600
  21117796.969                                    21117781.922   -22545174.072 8
 -16141764.50946        48.400          38.500
  21833503.211                                    21833489.570    -5392704.221 6
  -4001678.19543        37.900          18.600
  23695827.164    23695817.512                                      331688.282 5
    136256.913 6        30.800          36.200
  24486762.523    24486755.449                    24486755.035    -2739922.334 5
  -2125651.610 6        34.400          40.600
 18  1  6  0  2 12.0000000  0  7G07G09G30G23G16G27G05
  21265562.383    21265550.094                    21265550.266   -16481745.798 8
 -14971816.978 8        51.900          48.400
  20021889.492    20021879.488                    20021879.895   -25746127.216 8
 -20055300.966 8        49.100          53.700
  23014442.297    23014431.473                    23014431.469    -8506443.924 6
  -7652429.452 7        41.100          42.700
  21118144.078                                    21118128.035   -22543355.680 8
 -16140347.57946        48.300          38.200
  21833917.258                                    21833902.855    -5390531.098 6
  -3999984.85543        37.700          19.300
  23695387.867    23695378.156                                      329380.627 5
    134458.741 6        30.500          36.200
  24486206.805    24486199.027                    24486198.555    -2742843.169 5
  -2127927.587 6        34.600          40.500
 18  1  6  0  2 13.0000000  0  7G07G09G30G23G16G27G05
  21265216.211    21265204.098                    21265204.445   -16483565.655 8
 -14973235.043 8        51.700          48.500
  20021871.508    20021861.094                    20021861.500   -25746223.740 8
 -20055376.183 8        49.100          53.700
  23013882.164    23013871.750                    23013871.746    -8509385.816 6
  -7654721.830 7        41.600          42.600
  21118488.633                                    21118473.938   -22541536.888 7
 -16138930.33646        47.900          38.300
  21834330.719                                    21834316.844    -5388357.372 6
  -3998291.02543        37.700          19.300
  23694948.313    23694938.719                                      327073.247 5
    132660.789 6        30.700          36.300
  24485651.000    24485643.750                    24485643.160    -2745763.760 5
  -2130203.370 6        35.000          40.600
 18  1  6  0  2 14.0000000  0  7G07G09G30G23G16G27G05
  21264869.773    21264857.543                    21264858.008   -16485385.297 8
 -14974652.953 8        51.800          48.700
  20021853.219    20021842.863                    20021842.859   -25746319.867 8
 -20055451.085 8        49.500          53.800
  23013322.266    23013312.145                    23013312.023    -8512327.645 6
  -7657014.158 7        41.700          42.600
  21118835.016                                    21118820.555   -22539717.799 8
 -16137512.86646        48.300          38.200
  21834743.617                                    21834730.270    -5386183.213 6
  -3996596.87343        37.300          19.000
  23694509.977    23694499.621                                      324766.148 5
    130863.055 6        31.000          36.400
  24485095.453    24485088.203                    24485087.496    -2748684.047 5
  -2132478.921 6        35.400          40.500
 18  1  6  0  2 15.0000000  0  7G07G09G30G23G16G27G05
  21264523.750    21264511.344                    21264511.809   -16487204.149 8
 -14976070.240 8        51.800          48.800
  20021835.086    20021825.141                    20021825.195   -25746414.993 8
 -20055525.204 8        49.900          53.900
  23012762.414    23012751.824                    23012752.289    -8515268.779 6
  -7659305.949 7        41.800          42.600
  21119181.078                                    21119167.438   -22537897.768 8
 -16136094.66146        48.700          38.200
  21835157.352                                    21835144.531    -5384007.979 6
  -3994901.89843        38.100          18.600
  23694071.719    23694060.426                                      322460.057 5
    129066.096 6        31.300          36.600
  24484540.109    24484532.625                    24484532.211    -2751603.466 5
  -2134753.783 6        35.200          40.400
 18  1  6  0  2 16.0000000  0  7G07G09G30G23G16G27G05
  21264177.492    21264165.203                    21264165.492   -16489022.995 8
 -14977487.521 8        51.800          48.800
  20021816.844    20021807.016                    20021807.070   -25746509.905 8
 -20055599.165 8        50.200          53.800
  23012202.961    23012192.371                    23012192.602    -8518209.996 6
  -7661597.805 7        41.900          42.600
  21119528.063                                    21119512.605   -22536077.606 8
 -16134676.35646        48.400          38.200
  21835571.719                                    21835558.020    -5381832.501 6
  -3993206.70243        37.300          18.600
  23693632.188    23693621.480                                      320154.031 5
    127269.190 6        30.800          36.400
  24483984.336    24483976.734                    24483976.496    -2754522.832 5
  -2137028.623 6        35.100          40.500
 18  1  6  0  2 17.0000000  0  7G07G09G30G23G16G27G05
  21263831.570    21263819.047                    21263819.629   -16490841.324 8
 -14978904.408 8        51.900          48.800
  20021799.633    20021789.219                    20021789.215   -25746604.113 8
 -20055672.575 8        50.300          53.700
  23011643.219    23011633.039                    23011632.977    -8521150.821 6
  -7663889.351 7        41.700          42.700
  21119874.227                                    21119859.883   -22534256.817 8
 -16133257.56346        48.800          38.100
  21835985.156                                    21835972.219    -5379656.165 6
  -3991510.86643        36.500          19.000
  23693194.313    23693183.488                                      317848.601 5
    125472.741 6        31.200          36.900
  24483428.914    24483421.137                    24483421.250    -2757441.625 5
  -2139303.017 6        35.200          40.600
 18  1  6  0  2 18.0000000  0  7G07G09G30G23G16G27G05
  21263485.547    21263473.258                    21263473.430   -16492659.695 8
 -14980321.313 8        52.400          48.800
  20021781.117    20021771.523                    20021771.344   -25746698.155 8
 -20055745.859 8        50.500          53.800
  23011083.094    23011073.500                    23011073.262    -8524091.798 7
  -7666181.019 7        42.000          42.900
  21120220.969                                    21120205.805   -22532435.930 8
 -16131838.69046        49.100          38.500
  21836398.563                                    21836386.445    -5377479.641 6
  -3989814.90843        36.800          19.300
  23692754.758    23692744.813                                      315543.320 5
    123676.417 6        31.200          36.500
  24482873.734    24482866.016                    24482865.777    -2760360.399 5
  -2141577.395 6        35.300          40.600
 18  1  6  0  2 19.0000000  0  7G07G09G30G23G16G27G05
  21263139.586    21263127.063                    21263127.586   -16494477.338 8
 -14981737.656 8        51.900          48.900
  20021763.602    20021753.188                    20021753.301   -25746791.266 8
 -20055818.409 8        50.300          53.900
  23010523.789    23010513.844                    23010513.723    -8527032.147 7
  -7668472.193 7        42.300          43.000
  21120566.977                                    21120552.281   -22530614.201 8
 -16130419.15846        49.900          38.200
  21836814.023                                    21836800.793    -5375302.162 6
  -3988118.16043        36.700          19.600
  23692316.391    23692306.035                                      313238.904 5
    121880.766 6        30.700          36.300
  24482318.313    24482310.301                    24482310.473    -2763278.397 5
  -2143851.167 6        35.600          40.600
 18  1  6  0  2 20.0000000  0  7G07G09G30G23G16G27G05
  21262793.742    21262781.570                    21262782.035   -16496294.466 8
 -14983153.607 8        51.800          48.600
  20021745.930    20021735.691                    20021735.863   -25746883.664 8
 -20055890.406 8        50.100          53.800
  23009964.141    23009954.488                    23009954.309    -8529972.124 7
  -7670763.078 7        42.100          43.000
  21120913.680                                    21120900.332   -22528791.841 8
 -16128999.14046        49.600          38.200
  21837228.148                                    21837215.445    -5373123.810 6
  -3986420.73643        36.200          19.300
  23691877.211    23691868.027                                      310934.990 4
    120085.510 6        29.900          36.600
  24481763.219    24481755.090                    24481755.320    -2766195.768 5
  -2146124.439 6        34.800          40.500
 18  1  6  0  2 21.0000000  0  7G07G09G30G23G16G27G05
  21262447.773    21262435.895                    21262436.066   -16498111.908 8
 -14984569.796 8        52.100          48.600
  20021728.336    20021718.215                    20021718.328   -25746976.185 8
 -20055962.497 8        50.400          53.900
  23009404.313    23009395.188                    23009394.832    -8532912.511 7
  -7673054.279 7        42.600          42.800
  21121261.438                                    21121246.859   -22526969.642 8
 -16127579.25046        49.000          38.300
  21837641.734                                    21837629.559    -5370945.62316
  -3984723.44453        36.000          19.000
  23691437.953    23691429.473                                      308631.048 4
    118290.235 6        29.100          37.000
  24481207.977    24481200.141                    24481200.137    -2769113.413 5
  -2148397.929 6        33.500          40.700
 18  1  6  0  2 22.0000000  0  7G07G09G30G23G16G27G05
  21262103.109    21262090.879                    21262091.344   -16499924.842 8
 -14985982.472 8        51.800          48.700
  20021711.445    20021701.266                    20021701.086   -25747063.993 8
 -20056030.916 8        50.400          53.900
  23008846.250    23008835.836                    23008835.715    -8535848.453 7
  -7675342.021 7        42.300          42.800
  21121607.102                                    21121593.578   -22525142.864 8
 -16126155.77846        48.600          38.400
  21838057.250                                    21838045.016    -5368762.525 5
  -3983022.32343        35.500          19.000
  23690999.859    23690991.906                                      306331.567 4
    116498.442 6        28.600          37.200
  24480653.813    24480645.859                    24480645.738    -2772026.491 5
  -2150667.863 6        33.400          40.800
 18  1  6  0  2 23.0000000  0  7G07G09G30G23G16G27G05
  21261757.313    21261745.199                    21261745.547   -16501741.421 8
 -14987397.987 8        51.700          48.800
  20021694.273    20021684.094                    20021683.973   -25747155.251 8
 -20056102.033 8        50.300          53.900
  23008286.625    23008277.090                    23008276.852    -8538788.207 7
  -7677632.744 7        42.600          42.900
  21121955.266                                    21121941.332   -22523319.549 8
 -16124735.01946        49.000          38.500
  21838472.492                                    21838460.316    -5366582.842 5
  -3981323.88943        35.800          18.600
  23690562.297    23690553.465                                      304028.609 4
    114703.946 6        29.400          37.000
  24480098.422    24480091.055                    24480090.992    -2774943.203 5
  -2152940.620 6        34.300          40.800
 18  1  6  0  2 24.0000000  0  7G07G09G30G23G16G27G05
  21261411.453    21261399.809                    21261399.922   -16503557.692 8
 -14988813.264 8        51.700          48.900
  20021677.125    20021666.945                    20021666.941   -25747246.011 8
 -20056172.751 9        50.000          54.100
  23007727.320    23007717.668                    23007717.195    -8541727.752 7
  -7679923.294 7        42.700          42.900
  21122302.742                                    21122287.695   -22521495.839 8
 -16123313.94446        49.400          38.300
  21838887.820                                    21838875.234    -5364402.535 5
  -3979624.94743        35.800          19.000
  23690124.086    23690115.605                                      301726.147 4
    112909.829 6        29.100          37.600
  24479544.102    24479536.383                    24479536.086    -2777859.490 5
  -2155213.050 6        34.400          41.000
 18  1  6  0  2 25.0000000  0  7G07G09G30G23G16G27G05
  21261065.977    21261054.215                    21261054.328   -16505373.546 8
 -14990228.212 8        51.200          48.800
  20021659.961    20021649.313                    20021649.484   -25747336.142 8
 -20056242.984 9        49.500          54.200
  23007167.742    23007158.383                    23007158.262    -8544666.981 7
  -7682213.609 7        43.100          43.100
  21122649.891                                    21122636.953   -22519671.580 8
 -16121892.44346        48.900          38.600
  21839301.852                                    21839290.145    -5362221.557 6
  -3977925.46143        36.000          18.600
  23689686.438    23689678.016                                      299424.089 4
    111116.033 6        28.000          37.800
  24478988.172    24478981.625                    24478981.094    -2780775.286 5
  -2157485.096 6        34.600          40.900
 18  1  6  0  2 26.0000000  0  7G07G09G30G23G16G27G05
  21260720.281    21260708.637                    21260708.926   -16507189.069 8
 -14991642.907 8        51.400          49.100
  20021642.977    20021632.504                    20021632.559   -25747425.716 8
 -20056312.777 9        49.300          54.100
  23006608.539    23006599.180                    23006599.059    -8547605.993 7
  -7684503.750 7        42.500          43.000
  21122997.922                                    21122983.344   -22517846.844 8
 -16120470.57546        48.800          38.500
  21839716.523                                    21839705.227    -5360040.087 5
  -3976225.62143        35.000          18.600
  23689248.047    23689239.566                                      297122.601 4
    109322.690 6        27.600          37.500
  24478434.172    24478426.570                    24478426.508    -2783690.656 5
  -2159756.810 6        34.800          41.200
 18  1  6  0  2 27.0000000  0  7G07G09G30G23G16G27G05
  21260374.461    21260362.758                    21260362.871   -16509008.103 8
 -14993060.335 8        51.900          49.000
  20021625.172    20021614.641                    20021614.695   -25747518.659 8
 -20056385.204 9        49.700          54.100
  23006048.234    23006039.227                    23006038.930    -8550548.636 6
  -7686796.717 7        41.600          42.800
  21123343.055                                    21123329.824   -22516025.530 8
 -16119051.37046        49.100          38.500
  21840130.969                                    21840119.203    -5357861.98715
  -3974528.40053        33.800          18.300
  23688808.477    23688801.930                                      294817.657 4
    107526.625 6        27.600          37.700
  24477878.133    24477871.352                    24477870.879    -2786609.573 5
  -2162031.305 6        33.800          40.900
 18  1  6  0  2 28.0000000  0  7G07G09G30G23G16G27G05
  21260029.914    21260017.742                    21260018.148   -16510819.516 8
 -14994471.827 8        52.100          49.100
  20021608.945    20021598.824                    20021598.820   -25747603.749 8
 -20056451.509 8        50.000          53.900
  23005489.648    23005480.289                    23005480.344    -8553483.768 6
  -7689083.826 7        41.600          43.000
  21123691.727                                    21123678.262   -22514196.459 8
 -16117626.11646        49.500          38.200
  21840546.961                                    21840536.016    -5355675.651 5
  -3972824.73642        34.400          17.800
  23688371.773    23688364.230                                      292520.443 4
    105736.582 6        28.000          37.900
  24477324.000    24477317.395                    24477316.980    -2789520.791 5
  -2164299.793 6        32.600          40.600
 18  1  6  0  2 29.0000000  0  7G07G09G30G23G16G27G05
  21259684.375    21259672.203                    21259672.609   -16512633.740 8
 -14995885.509 8        51.700          48.900
  20021592.016    20021581.777                    20021581.832   -25747691.457 8
 -20056519.851 8        49.800          53.800
  23004930.336    23004921.211                    23004921.148    -8556421.782 6
  -7691373.180 7        41.700          42.600
  21124039.273                                    21124025.223   -22512370.066 8
 -16116202.95046        48.800          38.300
  21840961.992                                    21840951.223    -5353491.980 5
  -3971123.16742        34.800          17.800
  23687933.445    23687926.430                                      290220.594 4
    103944.490 6        27.300          37.200
  24476769.305    24476762.758                    24476762.520    -2792434.715 5
  -2166570.381 6        32.900          40.600
 18  1  6  0  2 30.0000000  0  7G07G09G30G23G16G27G05
  21259339.398    21259327.285                    21259327.574   -16514448.237 8
 -14997299.403 8        51.900          48.800
  20021575.492    20021565.430                    20021565.426   -25747779.251 8
 -20056588.260 8        50.000          53.400
  23004371.531    23004362.055                    23004362.109    -8559360.255 6
  -7693662.902 7        41.600          42.500
  21124386.656                                    21124373.484   -22510543.844 8
 -16114779.92646        49.600          38.800
  21841377.797                                    21841366.852    -5351308.488 5
  -3969421.71742        33.600          17.400
  23687495.477    23687488.520                                      287920.499 4
    102152.221 6        28.900          37.100
  24476214.617    24476208.129                    24476208.008    -2795348.884 5
  -2168841.162 6        33.300          40.100
 18  1  6  0  2 31.0000000  0  7G07G09G30G23G16G27G05
  21258994.406    21258982.000                    21258982.406   -16516261.928 8
 -14998712.671 8        52.200          48.900
  20021559.141    20021549.195                    20021549.191   -25747866.020 8
 -20056655.875 8        50.200          53.400
  23003812.516    23003802.863                    23003802.859    -8562297.985 6
  -7695952.049 7        41.800          42.700
  21124733.734                                    21124719.566   -22508716.690 8
 -16113356.16646        49.400          38.500
  21841792.094                                    21841782.496    -5349123.613 5
  -3967719.20342        35.900          16.900
  23687058.766    23687051.398                                      285621.484 4
    100360.797 6        28.900          37.500
  24475660.180    24475653.457                    24475653.336    -2798262.157 5
  -2171111.246 6        33.400          40.100
 18  1  6  0  2 32.0000000  0  7G07G09G30G23G16G27G05
  21258649.367    21258636.844                    21258637.426   -16518075.663 8
 -15000125.968 8        52.100          48.800
  20021542.609    20021532.430                    20021532.602   -25747952.618 8
 -20056723.353 8        49.800          53.400
  23003253.648    23003243.762                    23003243.875    -8565235.876 6
  -7698241.311 7        41.800          42.300
  21125081.477                                    21125068.539   -22506889.444 8
 -16111932.33446        49.300          38.400
  21842209.883                                    21842198.352    -5346938.624 5
  -3966016.63842        34.400          17.400
  23686621.594    23686613.348                                      283322.370 4
     98569.281 6        29.600          37.400
  24475106.125    24475099.402                    24475099.281    -2801175.447 5
  -2173381.345 6        34.000          40.400
 18  1  6  0  2 33.0000000  0  7G07G09G30G23G16G27G05
  21258303.508    21258291.043                    21258291.684   -16519892.257 8
 -15001541.491 8        52.100          49.000
  20021525.680    20021515.441                    20021515.438   -25748041.907 8
 -20056792.926 8        49.400          53.500
  23002693.547    23002684.656                    23002684.477    -8568176.740 7
  -7700532.889 7        42.200          42.600
  21125429.461                                    21125415.117   -22505064.944 8
 -16110510.64646        49.500          38.600
  21842623.625                                    21842613.559    -5344756.277 6
  -3964316.11342        36.200          17.400
  23686183.422    23686175.234                                      281020.592 5
     96775.692 6        30.100          37.500
  24474550.906    24474544.594                    24474544.355    -2804091.459 5
  -2175653.567 6        33.400          40.200
 18  1  6  0  2 34.0000000  0  7G07G09G30G23G16G27G05
  21257958.531    21257946.066                    21257946.590   -16521705.637 8
 -15002954.513 8        52.000          48.900
  20021509.109    20021498.930                    20021499.102   -25748127.776 8
 -20056859.834 8        49.900          53.700
  23002133.969    23002125.488                    23002125.426    -8571114.484 7
  -7702822.043 7        42.200          42.700
  21125777.297                                    21125763.773   -22503237.094 8
 -16109086.34746        49.700          38.300
  21843040.531                                    21843029.586    -5342570.422 5
  -3962612.89242        35.300          17.800
  23685746.469    23685737.578                                      278722.091 4
     94984.650 6        29.900          37.600
  24473997.211    24473990.547                    24473990.016    -2807004.257 5
  -2177923.284 6        33.400          40.100
 18  1  6  0  2 35.0000000  0  7G07G09G30G23G16G27G05
  21257613.516    21257601.578                    21257601.691   -16523518.501 8
 -15004367.135 8        52.100          48.700
  20021493.078    20021482.723                    20021482.777   -25748212.924 8
 -20056926.191 8        50.100          53.900
  23001575.859    23001566.441                    23001566.496    -8574051.867 6
  -7705110.904 7        41.700          42.400
  21126125.547                                    21126112.023   -22501408.613 8
 -16107661.55946        50.100          38.200
  21843457.242                                    21843445.535    -5340383.801 6
  -3960909.06242        36.500          17.800
  23685309.508    23685300.148                                      276424.274 5
     93194.141 6        30.700          37.500
  24473442.555    24473436.125                    24473436.004    -2809916.558 5
  -2180192.613 6        33.600          40.000
 18  1  6  0  2 36.0000000  0  7G07G09G30G23G16G27G05
  21257269.039    21257256.164                    21257256.453   -16525330.374 8
 -15005778.983 8        52.100          48.800
  20021477.219    20021466.688                    20021466.449   -25748296.894 8
 -20056991.617 9        50.000          54.000
  23001017.227    23001007.398                    23001007.570    -8576988.353 6
  -7707399.068 7        41.800          42.300
  21126473.078                                    21126459.086   -22499578.993 8
 -16106235.88746        49.900          38.200
  21843872.773                                    21843862.063    -5338195.919 5
  -3959204.24942        34.600          17.800
  23684872.992    23684862.754                                      274127.593 5
     91404.520 6        30.700          37.500
  24472888.484    24472881.996                    24472881.934    -2812827.662 5
  -2182461.000 6        33.700          40.200
 18  1  6  0  2 37.0000000  0  7G07G09G30G23G16G27G05
  21256924.141    21256911.441                    21256911.906   -16527142.342 8
 -15007190.904 8        52.200          48.900
  20021461.180    20021451.059                    20021451.055   -25748380.749 8
 -20057056.956 9        49.500          54.100
  23000458.102    23000448.684                    23000448.738    -8579925.005 7
  -7709687.364 7        42.300          42.500
  21126821.602                                    21126807.727   -22497749.368 8
 -16104810.20246        49.200          38.200
  21844288.898                                    21844277.895    -5336007.868 5
  -3957499.26342        30.700          17.800
  23684436.453    23684425.746                                      271830.878 5
     89614.872 6        30.700          37.600
  24472334.531    24472327.926                    24472327.805    -2815738.876 5
  -2184729.468 6        34.000          40.400
 18  1  6  0  2 38.0000000  0  7G07G09G30G23G16G27G05
  21256579.883    21256567.418                    21256567.766   -16528950.947 8
 -15008600.205 8        52.700          48.900
  20021446.180    20021435.824                    20021435.762   -25748461.042 8
 -20057119.519 9        49.100          54.100
  22999900.109    22999890.926                    22999891.098    -8582858.427 7
  -7711973.154 7        42.600          42.600
  21127170.742                                    21127156.574   -22495916.258 8
 -16103381.80846        48.500          38.500
  21844706.977                                    21844695.621    -5333816.110 5
  -3955791.35743        34.100          18.300
  23683999.469    23683989.523                                      269537.628 5
     87827.915 6        31.000          37.700
  24471781.000    24471774.922                    24471774.625    -2818646.677 5
  -2186995.289 6        34.300          40.800
 18  1  6  0  2 39.0000000  0  7G07G09G30G23G16G27G05
  21256234.602    21256222.371                    21256222.543   -16530765.453 8
 -15010014.107 8        52.500          49.100
  20021429.508    20021419.797                    20021419.676   -25748547.044 8
 -20057186.534 9        49.400          54.100
  22999340.695    22999331.395                    22999331.332    -8585797.882 7
  -7714263.638 7        42.600          42.700
  21127519.172                                    21127504.008   -22494088.912 8
 -16101957.90146        48.700          38.100
  21845122.875                                    21845111.461    -5331629.987 5
  -3954087.87743        34.600          18.300
  23683562.266    23683551.910                                      267238.650 5
     86036.500 6        31.500          37.600
  24471226.867    24471220.438                    24471220.258    -2821560.261 5
  -2189265.606 6        34.300          40.700
 18  1  6  0  2 40.0000000  0  7G07G09G30G23G16G27G05
  21255890.828    21255878.246                    21255878.594   -16532573.321 8
 -15011422.836 8        52.600          48.800
  20021414.375    20021404.664                    20021404.426   -25748626.201 8
 -20057248.212 9        49.000          54.100
  22998782.492    22998773.484                    22998773.363    -8588730.770 7
  -7716549.004 7        42.700          42.600
  21127866.227                                    21127853.113   -22492254.788 8
 -16100528.71246        48.000          38.300
  21845540.281                                    21845528.633    -5329437.04615
  -3952379.08653        33.600          18.300
  23683125.313    23683115.484                                      264946.457 5
     84250.377 6        32.400          37.600
  24470674.203    24470667.305                    24470667.008    -2824467.153 5
  -2191530.710 6        34.500          40.400
 18  1  6  0  2 41.0000000  0  7G07G09G30G23G16G27G05
  21255546.125    21255533.660                    21255533.773   -16534384.470 8
 -15012834.123 8        52.600          49.000
  20021398.789    20021388.785                    20021388.547   -25748708.447 8
 -20057312.300 9        49.500          54.100
  22998224.250    22998214.656                    22998214.770    -8591667.094 6
  -7718837.049 7        41.400          42.700
  21128215.539                                    21128200.551   -22490423.862 8
 -16099102.02246        48.600          38.300
  21845957.070                                    21845945.832    -5327247.050 5
  -3950672.57943        35.400          18.300
  23682689.414    23682678.824                                      262651.011 5
     82461.723 6        32.000          38.100
  24470120.125    24470113.344                    24470113.340    -2827377.302 5
  -2193798.364 6        34.000          40.500
 18  1  6  0  2 42.0000000  0  7G07G09G30G23G16G27G05
  21255201.500    21255189.211                    21255189.441   -16536194.628 8
 -15014244.636 8        52.500          49.100
  20021383.570    20021373.273                    20021372.977   -25748789.519 8
 -20057375.468 9        49.400          54.200
  22997665.297    22997656.230                    22997655.992    -8594602.545 6
  -7721124.405 7        41.700          43.000
  21128563.883                                    21128550.828   -22488591.824 7
 -16097674.45646        47.900          38.100
  21846374.594                                    21846362.477    -5325055.891 6
  -3948965.20143        36.600          18.300
  23682253.141    23682242.199                                      260356.693 5
     80673.941 6        31.900          38.100
  24469566.078    24469559.355                    24469559.645    -2830286.405 5
  -2196065.200 6        33.100          40.200
 18  1  6  0  2 43.0000000  0  7G07G09G30G23G16G27G05
  21254857.383    21254844.508                    21254844.680   -16538004.565 8
 -15015654.981 8        52.900          49.300
  20021368.133    20021358.188                    20021357.832   -25748870.132 8
 -20057438.287 9        49.500          54.300
  22997106.906    22997097.898                    22997097.660    -8597537.838 6
  -7723411.641 7        41.800          42.900
  21128911.852                                    21128898.680   -22486759.429 7
 -16096246.61846        47.900          38.000
  21846792.898                                    21846779.961    -5322864.121 5
  -3947257.32043        35.000          18.300
  23681816.875    23681805.699                                      258062.729 5
     78886.439 6        32.600          38.300
  24469012.898    24469005.766                    24469006.055    -2833195.182 5
  -2198331.777 6        33.100          40.000
 18  1  6  0  2 44.0000000  0  7G07G09G30G23G16G27G05
  21254511.953    21254499.723                    21254499.777   -16539818.101 8
 -15017068.123 8        52.700          49.100
  20021352.023    20021341.961                    20021341.898   -25748954.175 8
 -20057503.772 9        49.700          54.300
  22996547.531    22996538.641                    22996538.695    -8600476.850 6
  -7725701.772 7        41.400          42.700
  21129261.531                                    21129246.426   -22484930.499 8
 -16094821.48246        48.200          38.000
  21847209.391                                    21847196.395    -5320675.750 5
  -3945552.10643        35.900          18.300
  23681380.195    23681368.785                                      255765.287 5
     77096.222 6        32.800          37.900
  24468459.125    24468451.348                    24468451.813    -2836107.550 5
  -2200601.146 6        33.700          40.100
 18  1  6  0  2 45.0000000  0  7G07G09G30G23G16G27G05
  21254167.750    21254155.695                    21254155.750   -16541627.828 8
 -15018478.295 8        53.000          49.100
  20021336.883    20021326.586                    20021326.465   -25749034.204 8
 -20057566.131 9        49.600          54.500
  22995989.133    22995979.949                    22995979.887    -8603412.195 6
  -7727989.052 7        41.900          42.600
  21129609.930                                    21129595.527   -22483097.656 8
 -16093393.29446        48.400          38.000
  21847626.336                                    21847613.457    -5318483.204 5
  -3943843.65642        35.400          17.800
  23680943.945    23680931.949                                      253471.750 5
     75309.047 6        32.500          38.300
  24467904.281    24467898.203                    24467898.434    -2839015.973 5
  -2202867.438 6        33.900          39.900
 18  1  6  0  2 46.0000000  0  7G07G09G30G23G16G27G05
  21253823.578    21253811.465                    21253811.578   -16543436.020 8
 -15019887.274 8        53.000          49.100
  20021321.992    20021311.930                    20021311.574   -25749112.481 8
 -20057627.130 9        49.900          54.400
  22995430.898    22995421.539                    22995421.594    -8606346.078 7
  -7730275.192 7        42.100          42.600
  21129958.211                                    21129944.219   -22481263.137 8
 -16091963.79246        49.300          38.000
  21848043.359                                    21848030.832    -5316289.044 6
  -3942133.93243        36.400          18.300
  23680508.133    23680496.020                                      251179.910 5
     73523.201 6        33.000          38.300
  24467351.211    24467344.840                    24467345.188    -2841922.899 5
  -2205132.573 6        33.800          39.900
 18  1  6  0  2 47.0000000  0  7G07G09G30G23G16G27G05
  21253479.672    21253466.855                    21253467.262   -16545244.903 8
 -15021296.796 8        52.800          49.100
  20021306.977    20021296.855                    20021296.676   -25749191.278 8
 -20057688.527 9        50.200          54.500
  22994872.422    22994862.711                    22994863.176    -8609280.786 7
  -7732561.979 7        42.000          42.400
  21130306.914                                    21130294.035   -22479429.191 8
 -16090534.75246        48.600          38.100
  21848461.586                                    21848448.473    -5314095.129 5
  -3940424.37243        35.900          18.300
  23680071.039    23680059.629                                      248887.457 5
     71736.874 6        32.500          38.400
  24466799.086    24466791.484                    24466791.715    -2844830.349 5
  -2207398.111 6        34.300          40.000
 18  1  6  0  2 48.0000000  0  7G07G09G30G23G16G27G05
  21253135.094    21253122.922                    21253123.270   -16547053.808 8
 -15022706.331 8        52.800          49.100
  20021291.734    20021282.082                    20021281.727   -25749269.886 8
 -20057749.781 9        50.700          54.500
  22994313.602    22994304.242                    22994304.707    -8612215.647 7
  -7734848.890 7        42.000          42.600
  21130656.828                                    21130642.953   -22477595.154 8
 -16089105.63046        48.500          38.100
  21848879.258                                    21848866.262    -5311901.041 6
  -3938714.69943        36.900          18.300
  23679635.516    23679623.813                                      246595.134 5
     69950.643 6        32.400          38.300
  24466246.070    24466237.883                    24466238.348    -2847737.824 5
  -2209663.670 6        34.600          40.200
 18  1  6  0  2 49.0000000  0  7G07G09G30G23G16G27G05
  21252790.961    21252778.555                    21252779.020   -16548861.957 8
 -15024115.282 8        52.800          48.900
  20021277.070    20021267.125                    20021267.063   -25749347.543 8
 -20057810.294 9        50.700          54.400
  22993754.813    22993746.039                    22993746.094    -8615149.812 7
  -7737135.251 7        42.100          42.400
  21131007.180                                    21130991.430   -22475760.241 8
 -16087675.82746        49.000          38.000
  21849297.445                                    21849283.805    -5309705.933 6
  -3937004.19343        37.400          18.300
  23679197.844    23679187.664                                      244303.688 5
     68165.095 6        32.000          38.400
  24465692.938    24465685.277                    24465685.273    -2850644.403 5
  -2211928.543 6        35.100          40.200
 18  1  6  0  2 50.0000000  0  7G07G09G30G23G16G27G05
  21252446.992    21252435.113                    21252434.992   -16550669.925 8
 -15025524.082 8        52.700          49.100
  20021262.398    20021252.277                    20021252.215   -25749424.804 8
 -20057870.492 9        50.800          54.300
  22993196.398    22993188.152                    22993187.973    -8618083.957 7
  -7739421.598 7        42.100          42.800
  21131356.391                                    21131340.406   -22473925.006 8
 -16086245.77146        49.300          38.200
  21849715.789                                    21849701.445    -5307510.362 6
  -3935293.34542        37.100          17.800
  23678761.445    23678751.676                                      242012.504 5
     66379.748 6        32.000          38.300
  24465139.680    24465131.961                    24465132.133    -2853550.809 5
  -2214193.277 6        34.900          40.100
 18  1  6  0  2 51.0000000  0  7G07G09G30G23G16G27G05
  21252102.938    21252091.117                    21252091.055   -16552477.824 8
 -15026932.836 8        52.500          49.300
  20021248.000    20021237.527                    20021237.582   -25749501.804 8
 -20057930.492 9        51.200          54.100
  22992638.234    22992629.695                    22992629.633    -8621018.117 7
  -7741707.942 7        42.300          42.800
  21131704.242                                    21131689.957   -22472089.595 8
 -16084815.58846        49.600          38.200
  21850134.320                                    21850119.332    -5305314.459 6
  -3933582.25142        38.100          17.800
  23678325.016    23678315.949                                      239721.528 5
     64594.572 6        32.200          38.800
  24464586.820    24464578.398                    24464578.922    -2856457.047 5
  -2216457.890 6        34.800          40.000
 18  1  6  0  2 52.0000000  0  7G07G09G30G23G16G27G05
  21251759.031    21251747.035                    21251747.207   -16554285.033 8
 -15028341.049 8        52.600          49.300
  20021233.234    20021223.113                    20021223.109   -25749577.904 8
 -20057989.795 8        51.300          53.900
  22992080.156    22992071.266                    22992071.438    -8623951.686 6
  -7743993.846 7        41.900          42.900
  21132053.352                                    21132039.652   -22470253.378 8
 -16083384.76946        49.900          38.400
  21850553.227                                    21850537.418    -5303117.543 6
  -3931870.38142        36.900          17.400
  23677889.430    23677880.305                                      237431.404 5
     62810.058 6        32.300          38.600
  24464034.500    24464025.961                    24464026.367    -2859362.519 5
  -2218721.904 6        35.400          39.500
 18  1  6  0  2 53.0000000  0  7G07G09G30G23G16G27G05
  21251414.891    21251403.363                    21251403.184   -16556092.036 8
 -15029749.104 8        52.400          49.100
  20021219.094    20021208.680                    20021208.734   -25749653.613 8
 -20058048.787 8        51.300          53.900
  22991522.031    22991513.434                    22991513.547    -8626885.169 6
  -7746279.675 7        41.700          42.900
  21132402.461                                    21132389.699   -22468416.822 8
 -16081953.68346        50.000          38.100
  21850970.633                                    21850955.762    -5300920.209 6
  -3930158.20242        37.000          16.900
  23677453.523    23677444.398                                      235141.538 5
     61025.737 6        31.900          38.800
  24463481.492    24463473.305                    24463473.477    -2862267.733 5
  -2220985.709 6        34.700          39.200
 18  1  6  0  2 54.0000000  0  7G07G09G30G23G16G27G05
  21251071.008    21251059.422                    21251059.301   -16557898.611 8
 -15031156.829 8        52.000          49.100
  20021204.828    20021194.824                    20021194.820   -25749728.700 8
 -20058107.298 8        51.400          53.900
  22990963.406    22990955.395                    22990955.156    -8629818.357 6
  -7748565.271 7        41.300          43.200
  21132752.297                                    21132738.305   -22466579.713 8
 -16080522.17046        50.000          38.300
  21851389.758                                    21851373.891    -5298722.233 6
  -3928445.50542        37.900          16.900
  23677017.938    23677008.871                                      232852.241 5
     59241.868 6        32.800          39.200
  24462928.953    24462920.297                    24462920.527    -2865172.475 5
  -2223249.141 6        34.800          39.200
 18  1  6  0  2 55.0000000  0  7G07G09G30G23G16G27G05
  21250727.602    21250715.488                    21250715.484   -16559705.094 8
 -15032564.480 8        52.200          49.100
  20021190.422    20021180.184                    20021180.238   -25749803.475 8
 -20058165.561 9        50.900          54.100
  22990404.680    22990397.195                    22990396.664    -8632751.524 6
  -7750850.855 7        41.700          43.200
  21133103.320                                    21133087.922   -22464742.371 8
 -16079090.47246        50.300          38.100
  21851807.961                                    21851792.328    -5296523.852 6
  -3926732.47142        37.800          17.400
  23676582.445    23676573.555                                      230563.156 5
     57458.155 6        32.400          39.500
  24462376.953    24462367.242                    24462367.766    -2868077.009 5
  -2225512.401 6        35.200          39.300
 18  1  6  0  2 56.0000000  0  7G07G09G30G23G16G27G05
  21250383.703    21250371.414                    21250371.586   -16561511.129 8
 -15033971.782 8        52.300          49.100
  20021176.141    20021165.785                    20021166.016   -25749877.612 8
 -20058223.329 9        51.500          54.100
  22989846.578    22989838.918                    22989838.797    -8635684.414 6
  -7753136.220 7        41.400          43.300
  21133453.258                                    21133437.859   -22462904.492 8
 -16077658.35746        50.100          38.000
  21852226.242                                    21852210.844    -5294324.742 6
  -3925018.87142        37.600          17.400
  23676146.961    23676138.129                                      228274.648 5
     55674.899 6        32.500          39.600
  24461824.484    24461815.066                    24461815.297    -2870981.103 5
  -2227775.325 6        35.300          39.100
 18  1  6  0  2 57.0000000  0  7G07G09G30G23G16G27G05
  21250039.914    21250028.035                    21250028.090   -16563316.970 8
 -15035378.927 8        52.600          49.100
  20021162.297    20021152.293                    20021152.289   -25749951.348 8
 -20058280.786 9        51.500          54.100
  22989288.656    22989280.938                    22989280.699    -8638617.131 6
  -7755421.444 7        41.600          43.300
  21133801.914                                    21133787.629   -22461066.263 8
 -16076225.96646        49.900          38.100
  21852644.266                                    21852629.219    -5292125.154 6
  -3923304.87542        37.600          17.800
  23675711.828    23675702.938                                      225986.432 5
     53891.871 6        32.600          40.000
  24461271.211    24461262.027                    24461262.551    -2873884.867 5
  -2230037.986 6        35.500          39.200
 18  1  6  0  2 58.0000000  0  7G07G09G30G23G16G27G05
  21249696.758    21249684.410                    21249684.582   -16565122.510 8
 -15036785.842 8        52.300          49.200
  20021148.102    20021137.629                    20021137.801   -25750024.598 8
 -20058337.861 9        51.600          54.100
  22988730.305    22988723.172                    22988723.051    -8641549.717 6
  -7757706.577 7        41.100          43.500
  21134152.617                                    21134138.156   -22459227.642 8
 -16074793.27246        49.400          37.900
  21853062.016                                    21853047.906    -5289925.080 6
  -3921590.55642        37.600          17.400
  23675276.484    23675267.652                                      223698.701 5
     52109.214 6        32.500          40.300
  24460719.008    24460709.590                    24460709.996    -2876788.289 5
  -2232300.393 6        35.200          39.000
 18  1  6  0  2 59.0000000  0  7G07G09G30G23G16G27G05
  21249353.102    21249341.047                    21249341.043   -16566927.586 8
 -15038192.399 8        52.300          49.300
  20021134.438    20021124.023                    20021124.195   -25750097.175 8
 -20058394.418 9        51.600          54.000
  22988172.125    22988164.816                    22988164.988    -8644481.946 6
  -7759991.427 7        40.900          43.700
  21134502.852                                    21134487.160   -22457388.421 8
 -16073360.11746        49.400          37.900
  21853480.703                                    21853467.063    -5287724.19916
  -3919875.58152        37.900          16.900
  23674841.484    23674832.359                                      221411.484 5
     50326.965 6        32.600          40.000
  24460167.438    24460157.434                    24460157.781    -2879691.201 5
  -2234562.403 6        35.700          39.300
 18  1  6  0  3  0.0000000  0  7G07G09G30G23G16G27G05
  21249009.711    21248997.715                    21248997.770   -16568732.542 8
 -15039598.857 8        52.500          49.400
  20021120.422    20021110.711                    20021110.766   -25750169.442 8
 -20058450.731 9        51.100          54.000
  22987613.852    22987606.602                    22987606.773    -8647414.163 6
  -7762276.264 7        41.200          43.600
  21134850.422                                    21134837.777   -22455548.978 8
 -16071926.78246        48.300          38.200
  21853898.117                                    21853885.883    -5285522.94716
  -3918160.32452        36.900          16.900
  23674406.594    23674397.176                                      219124.516 5
     48544.910 6        32.500          40.100
  24459614.063    24459605.348                    24459605.578    -2882593.954 6
  -2236824.287 6        36.000          39.200
 18  1  6  0  3  1.0000000  0  7G07G09G30G23G16G27G05
  21248666.469    21248654.063                    21248654.176   -16570537.295 8
 -15041005.156 8        52.600          49.600
  20021106.523    20021096.520                    20021096.633   -25750241.301 8
 -20058506.718 9        51.200          54.100
  22987056.242    22987048.523                    22987048.637    -8650346.280 6
  -7764561.028 7        41.800          43.700
  21135201.094                                    21135187.043   -22453709.196 8
 -16070493.19046        48.200          38.400
  21854317.727                                    21854304.730    -5283321.259 6
  -3916444.72042        37.100          16.300
  23673971.297    23673961.410                                      216837.911 5
     46763.134 6        32.600          40.000
  24459061.789    24459052.547                    24459052.777    -2885496.387 6
  -2239085.922 6        36.200          39.500
 18  1  6  0  3  2.0000000  0  7G07G09G30G23G16G27G05
  21248323.242    21248310.543                    21248310.832   -16572341.357 8
 -15042410.923 8        52.700          49.400
  20021093.445    20021083.324                    20021083.320   -25750312.265 8
 -20058562.019 9        51.600          54.200
  22986498.508    22986491.199                    22986490.844    -8653277.822 6
  -7766845.349 7        40.300          43.500
  21135552.133                                    21135537.496   -22451868.558 8
 -16069058.92946        48.900          38.200
  21854737.227                                    21854723.820    -5281118.52716
  -3914728.31952        36.100          16.300
  23673535.750    23673526.742                                      214552.064 5
     44981.953 6        33.000          39.900
  24458509.352    24458500.285                    24458500.457    -2888398.051 6
  -2241346.962 6        36.600          39.200
 18  1  6  0  3  3.0000000  0  7G07G09G30G23G16G27G05
  21247979.734    21247967.328                    21247967.500   -16574145.027 8
 -15043816.375 8        52.300          49.600
  20021079.984    20021070.039                    20021070.094   -25750382.630 8
 -20058616.842 9        51.700          54.300
  22985940.820    22985933.688                    22985933.391    -8656209.059 6
  -7769129.431 7        39.400          43.900
  21135901.883                                    21135888.535   -22450027.442 8
 -16067624.28746        49.300          38.100
  21855155.883                                    21855143.355    -5278915.220 5
  -3913011.47842        35.900          16.300
  23673100.500    23673091.785                                      212266.765 5
     43201.192 6        33.500          40.100
  24457958.500    24457948.672                    24457948.785    -2891299.299 6
  -2243607.672 6        36.200          39.500
 18  1  6  0  3  4.0000000  0  7G07G09G30G23G16G27G05
  21247636.703    21247624.121                    21247624.469   -16575948.744 8
 -15045221.872 8        52.600          49.500
  20021066.703    20021056.641                    20021056.578   -25750452.852 8
 -20058671.562 9        51.400          54.100
  22985382.938    22985376.391                    22985375.742    -8659140.507 6
  -7771413.674 7        40.200          44.100
  21136254.219                                    21136238.000   -22448186.249 8
 -16066189.58946        49.200          37.700
  21855575.086                                    21855562.266    -5276711.66815
  -3911294.43252        35.800          16.300
  23672666.125    23672656.941                                      209981.532 5
     41420.480 6        33.600          40.200
  24457405.789    24457396.781                    24457396.602    -2894200.532 5
  -2245868.377 6        35.600          39.500
 18  1  6  0  3  5.0000000  0  7G07G09G30G23G16G27G05
  21247293.406    21247280.707                    21247281.113   -16577752.068 8
 -15046627.063 8        52.700          49.500
  20021053.500    20021043.086                    20021043.375   -25750522.500 8
 -20058725.839 9        51.300          54.100
  22984825.938    22984818.512                    22984817.805    -8662071.612 6
  -7773697.650 7        40.000          44.100
  21136603.414                                    21136589.480   -22446344.554 8
 -16064754.50246        49.500          38.000
  21855993.867                                    21855982.043    -5274507.410 5
  -3909576.82542        34.300          15.600
  23672231.352    23672222.051                                      207696.778 5
     39640.141 6        33.700          40.100
  24456853.703    24456844.344                    24456844.340    -2897101.325 5
  -2248128.735 6        35.800          39.500
 18  1  6  0  3  6.0000000  0  7G07G09G30G23G16G27G05
  21246950.234    21246937.711                    21246938.059   -16579554.963 8
 -15048031.912 8        52.900          49.200
  20021040.492    20021029.668                    20021029.957   -25750591.484 8
 -20058779.590 8        51.100          53.900
  22984267.297    22984260.809                    22984260.102    -8665002.441 6
  -7775981.413 7        40.600          44.200
  21136953.953                                    21136940.195   -22444502.272 8
 -16063318.96046        49.500          37.800
  21856412.938                                    21856401.406    -5272302.511 5
  -3907858.71742        34.100          16.300
  23671797.492    23671787.313                                      205412.614 5
     37860.268 6        33.800          39.900
  24456301.500    24456292.434                    24456292.371    -2900001.626 6
  -2250388.706 6        36.400          39.300
 18  1  6  0  3  7.0000000  0  7G07G09G30G23G16G27G05
  21246607.500    21246595.035                    21246595.324   -16581357.582 8
 -15049436.559 8        53.000          49.300
  20021027.250    20021017.188                    20021017.242   -25750660.017 8
 -20058832.988 8        51.500          53.900
  22983710.180    22983703.105                    22983702.457    -8667933.060 6
  -7778265.010 7        40.900          43.900
  21137305.359                                    21137290.371   -22442659.614 8
 -16061883.12346        49.800          37.800
  21856832.203                                    21856821.258    -5270097.005 5
  -3906140.13842        33.600          16.300
  23671361.930    23671352.570                    23671352.684      203128.795 5
     36080.668 6        34.000          39.900
  24455749.492    24455740.953                    24455740.715    -2902901.550 5
  -2252648.389 6        35.900          39.200
 18  1  6  0  3  8.0000000  0  7G07G09G30G23G16G27G05
  21246264.516    21246251.992                    21246252.340   -16583159.556 8
 -15050840.688 8        52.800          49.300
  20021014.289    20021004.402                    20021004.398   -25750727.695 8
 -20058885.722 9        51.500          54.100
  22983152.203    22983145.305                    22983144.715    -8670863.194 6
  -7780548.232 7        40.300          44.100
  21137654.695                                    21137641.055   -22440816.185 8
 -16060446.68146        49.700          38.000
  21857252.016                                    21857241.480    -5267890.795 5
  -3904421.02442        35.000          16.900
  23670927.781    23670918.422                    23670918.418      200845.786 5
     34301.695 6        34.000          39.400
  24455198.477    24455189.059                    24455188.879    -2905800.786 6
  -2254907.537 6        36.500          39.500
 18  1  6  0  3  9.0000000  0  7G07G09G30G23G16G27G05
  21245921.352    21245908.945                    21245909.352   -16584961.570 8
 -15052244.856 8        52.500          49.400
  20021001.297    20020991.645                    20020991.523   -25750795.232 8
 -20058938.355 8        50.900          53.800
  22982594.344    22982588.090                    22982587.383    -8673793.447 6
  -7782831.545 7        40.900          43.900
  21138006.336                                    21137991.348   -22438972.687 8
 -16059010.18946        49.000          37.800
  21857672.063                                    21857661.234    -5265684.051 5
  -3902701.50142        34.000          16.900
  23670493.648    23670483.938                    23670483.758      198562.827 5
     32522.773 6        33.300          39.800
  24454646.141    24454637.133                    24454637.188    -2908699.957 6
  -2257166.635 6        36.900          39.600
 18  1  6  0  3 10.0000000  0  7G07G09G30G23G16G27G05
  21245578.492    21245566.203                    21245566.609   -16586763.087 8
 -15053648.633 8        52.100          49.300
  20020988.859    20020978.797                    20020978.910   -25750862.049 8
 -20058990.420 8        50.500          53.900
  22982037.352    22982030.629                    22982029.805    -8676723.338 6
  -7785114.572 7        40.700          43.900
  21138357.078                                    21138344.316   -22437128.551 8
 -16057573.20446        49.300          37.700
  21858091.258                                    21858080.840    -5263476.728 5
  -3900981.50742        33.200          16.300
  23670059.445    23670049.617                    23670049.496      196280.513 5
     30744.344 6        34.100          39.700
  24454094.445    24454085.789                    24454085.609    -2911598.606 5
  -2259425.322 6        34.800          39.400
 18  1  6  0  3 11.0000000  0  7G07G09G30G23G16G27G05
  21245235.695    21245223.465                    21245223.637   -16588564.736 8
 -15055052.515 8        52.300          49.100
  20020975.883    20020965.996                    20020965.992   -25750928.820 8
 -20059042.447 8        50.300          53.900
  22981479.398    22981472.500                    22981471.969    -8679653.457 6
  -7787397.775 7        41.100          43.800
  21138707.484                                    21138694.313   -22435284.442 8
 -16056136.24246        49.400          37.900
  21858511.273                                    21858501.207    -5261269.34215
  -3899261.46452        33.100          16.900
  23669624.664    23669615.773                    23669615.418      193998.160 5
     28965.883 6        34.600          39.700
  24453543.438    24453533.844                    24453533.957    -2914497.338 5
  -2261684.072 6        35.700          39.400
 18  1  6  0  3 12.0000000  0  7G07G09G30G23G16G27G05
  21244892.930    21244880.641                    21244880.871   -16590365.598 8
 -15056455.780 8        52.500          49.000
  20020963.359    20020953.648                    20020953.586   -25750994.599 8
 -20059093.700 9        50.500          54.100
  22980921.977    22980914.961                    22980914.605    -8682582.885 6
  -7789680.446 7        40.600          43.800
  21139059.641                                    21139045.180   -22433439.417 8
 -16054698.55846        49.800          37.900
  21858931.594                                    21858921.645    -5259060.808 5
  -3897540.50642        33.200          16.900
  23669191.008    23669181.063                    23669181.352      191716.729 5
     27188.154 6        33.900          39.800
  24452992.016    24452982.832                    24452982.652    -2917395.191 6
  -2263942.141 6        36.400          39.200
 18  1  6  0  3 13.0000000  0  7G07G09G30G23G16G27G05
  21244550.469    21244537.945                    21244538.234   -16592166.460 8
 -15057859.048 8        52.500          49.000
  20020950.719    20020940.539                    20020940.828   -25751060.171 8
 -20059144.796 9        50.400          54.100
  22980364.391    22980357.727                    22980357.313    -8685512.449 6
  -7791963.221 7        40.600          43.700
  21139410.375                                    21139397.438   -22431594.294 8
 -16053260.79846        49.100          38.000
  21859351.102                                    21859341.270    -5256851.990 5
  -3895819.33642        33.700          16.900
  23668756.820    23668746.934                    23668747.164      189435.417 5
     25410.511 6        33.900          40.200
  24452440.547    24452431.070                    24452430.832    -2920292.967 6
  -2266200.147 6        36.500          39.000
 18  1  6  0  3 14.0000000  0  7G07G09G30G23G16G27G05
  21244207.688    21244195.281                    21244195.629   -16593967.012 8
 -15059262.080 8        52.900          49.100
  20020938.539    20020928.594                    20020928.648   -25751125.232 8
 -20059195.496 9        50.200          54.000
  22979807.656    22979800.113                    22979799.699    -8688441.819 6
  -7794245.847 7        41.200          43.300
  21139761.555                                    21139747.563   -22429748.717 8
 -16051822.68546        48.500          38.000
  21859772.266                                    21859761.965    -5254642.632 5
  -3894097.74642        34.200          16.900
  23668323.070    23668312.656                    23668312.945      187154.521 5
     23633.190 6        34.600          40.400
  24451888.977    24451879.734                    24451879.672    -2923190.403 6
  -2268457.894 6        37.100          39.200
 18  1  6  0  3 15.0000000  0  7G07G09G30G23G16G27G05
  21243865.211    21243853.039                    21243853.445   -16595766.736 8
 -15060664.460 8        53.100          49.100
  20020926.367    20020916.129                    20020916.242   -25751189.252 8
 -20059245.380 8        50.300          53.900
  22979250.922    22979242.441                    22979242.320    -8691370.429 6
  -7796527.880 7        41.200          43.400
  21140112.344                                    21140098.410   -22427902.179 8
 -16050383.82646        48.500          38.200
  21860193.313                                    21860182.543    -5252432.141 5
  -3892375.28242        34.300          16.900
  23667888.953    23667878.891                    23667879.297      184874.582 5
     21856.611 6        34.300          40.300
  24451338.070    24451328.945                    24451328.590    -2926086.885 6
  -2270714.895 6        37.300          39.200
 18  1  6  0  3 16.0000000  0  7G07G09G30G23G16G27G05
  21243522.742    21243510.395                    21243510.742   -16597566.431 8
 -15062066.820 8        52.800          49.100
  20020914.172    20020904.344                    20020904.457   -25751253.080 8
 -20059295.110 9        50.700          54.100
  22978693.125    22978685.348                    22978685.520    -8694299.163 6
  -7798810.013 7        40.900          43.300
  21140464.352                                    21140450.008   -22426055.530 8
 -16048944.88146        49.100          37.800
  21860613.063                                    21860602.938    -5250221.429 5
  -3890652.64242        34.800          16.300
  23667454.531    23667445.172                    23667445.344      182594.794 5
     20080.165 6        34.700          39.800
  24450786.352    24450777.285                    24450777.047    -2928983.369 6
  -2272971.892 6        36.900          39.100
 18  1  6  0  3 17.0000000  0  7G07G09G30G23G16G27G05
  21243180.273    21243167.809                    21243168.156   -16599365.998 8
 -15063469.076 8        52.700          49.100
  20020902.109    20020892.047                    20020891.926   -25751316.561 8
 -20059344.581 9        50.700          54.100
  22978135.844    22978128.008                    22978128.063    -8697227.848 6
  -7801092.109 7        41.300          43.200
  21140816.305                                    21140801.727   -22424208.581 8
 -16047505.69646        49.300          37.800
  21861034.867                                    21861024.039    -5248010.26915
  -3888929.69152        35.200          16.300
  23667021.625    23667011.152                    23667011.383      180315.250 5
     18303.897 6        34.800          39.700
  24450235.742    24450225.855                    24450225.852    -2931879.584 6
  -2275228.680 6        37.200          39.200
 18  1  6  0  3 18.0000000  0  7G07G09G30G23G16G27G05
  21242837.867    21242825.402                    21242825.984   -16601165.416 8
 -15064871.225 8        52.700          48.900
  20020889.883    20020879.996                    20020880.285   -25751379.717 8
 -20059393.789 9        51.000          54.100
  22977578.539    22977570.410                    22977570.582    -8700156.550 6
  -7803374.211 7        41.300          43.200
  21141167.117                                    21141153.887   -22422361.400 8
 -16046066.33346        49.400          37.700
  21861455.844                                    21861444.254    -5245798.718 5
  -3887206.39442        34.500          16.300
  23666588.000    23666577.820                    23666578.109      178036.008 5
     16527.861 6        34.700          40.100
  24449684.789    24449674.902                    24449674.664    -2934775.643 6
  -2277485.344 6        37.100          39.100
 18  1  6  0  3 19.0000000  0  7G07G09G30G23G16G27G05
  21242495.328    21242482.922                    21242483.621   -16602964.491 8
 -15066273.097 8        52.400          49.000
  20020878.234    20020868.641                    20020868.402   -25751442.304 8
 -20059442.559 9        50.500          54.100
  22977020.852    22977013.309                    22977013.539    -8703084.981 6
  -7805656.103 7        40.900          43.400
  21141518.734                                    21141505.094   -22420513.737 8
 -16044626.59946        49.600          37.600
  21861876.969                                    21861865.438    -5243586.523 5
  -3885482.58642        35.400          16.300
  23666154.039    23666143.977                    23666144.324      175757.159 5
     14752.138 6        34.600          39.800
  24449134.414    24449123.941                    24449123.703    -2937671.238 6
  -2279741.657 6        36.900          39.200
 18  1  6  0  3 20.0000000  0  7G07G09G30G23G16G27G05
  21242153.266    21242140.684                    21242140.973   -16604762.706 8
 -15067674.307 8        52.500          49.000
  20020866.523    20020856.461                    20020856.516   -25751503.846 8
 -20059490.515 9        50.400          54.100
  22976463.977    22976456.141                    22976456.313    -8706012.661 6
  -7807937.411 7        40.600          43.400
  21141870.406                                    21141857.938   -22418665.112 8
 -16043186.11446        49.600          37.500
  21862297.969                                    21862286.730    -5241373.245 5
  -3883757.94942        35.800          15.600
  23665720.430    23665710.953                    23665710.891      173479.331 5
     12977.212 6        34.600          40.000
  24448583.023    24448572.961                    24448572.898    -2940565.921 6
  -2281997.259 6        36.400          39.200
 18  1  6  0  3 21.0000000  0  7G07G09G30G23G16G27G05
  21241811.195    21241799.141                    21241799.313   -16606560.814 8
 -15069075.428 8        52.200          49.100
  20020854.898    20020845.012                    20020844.949   -25751565.072 8
 -20059538.226 8        50.300          53.900
  22975906.766    22975898.988                    22975898.926    -8708940.348 6
  -7810218.711 7        40.900          43.700
  21142222.914                                    21142208.805   -22416816.232 8
 -16041745.42546        49.000          37.500
  21862720.438                                    21862707.969    -5239159.564 6
  -3882033.00742        36.400          15.600
  23665287.172    23665277.695                    23665277.574      171201.750 5
     11202.474 6        34.600          40.100
  24448032.305    24448022.770                    24448022.238    -2943460.456 6
  -2284252.735 6        36.500          39.400
 18  1  6  0  3 22.0000000  0  7G07G09G30G23G16G27G05
  21241468.898    21241456.609                    21241457.016   -16608358.793 8
 -15070476.451 8        52.200          49.000
  20020843.125    20020832.887                    20020833.059   -25751625.976 8
 -20059585.679 8        49.900          53.700
  22975349.469    22975342.395                    22975342.098    -8711868.029 6
  -7812500.016 7        40.600          43.800
  21142573.922                                    21142558.992   -22414967.112 8
 -16040304.55846        49.300          37.300
  21863141.813                                    21863129.227    -5236945.558 6
  -3880307.79542        36.300          16.900
  23664853.867    23664844.156                    23664844.152      168924.392 5
      9427.908 6        34.800          40.000
  24447481.805    24447471.801                    24447471.445    -2946354.778 6
  -2286508.047 6        37.400          39.400
 18  1  6  0  3 23.0000000  0  7G07G09G30G23G16G27G05
  21241126.734    21241114.445                    21241114.734   -16610156.385 8
 -15071877.173 8        52.100          48.500
  20020831.727    20020821.664                    20020821.719   -25751686.295 8
 -20059632.682 8        49.800          53.700
  22974792.281    22974784.797                    22974784.852    -8714795.419 6
  -7814781.089 7        41.100          43.700
  21142925.742                                    21142912.102   -22413117.482 8
 -16038863.28846        49.200          37.600
  21863563.656                                    21863550.543    -5234730.815 6
  -3878582.00942        36.500          16.900
  23664420.586    23664410.230                    23664410.520      166647.553 5
      7653.752 6        34.500          40.000
  24446931.352    24446921.348                    24446920.758    -2949248.648 6
  -2288763.004 6        37.100          39.400
 18  1  6  0  3 24.0000000  0  7G07G09G30G23G16G27G05
  21240785.000    21240773.004                    21240773.117   -16611953.549 8
 -15073277.566 8        52.200          48.700
  20020820.594    20020810.297                    20020810.527   -25751745.975 8
 -20059679.185 8        49.400          53.600
  22974235.383    22974227.313                    22974227.719    -8717722.478 6
  -7817061.912 7        41.600          43.700
  21143276.445                                    21143263.098   -22411267.274 8
 -16037421.57146        49.400          37.700
  21863985.398                                    21863972.109    -5232515.412 6
  -3876855.72342        36.300          16.900
  23663986.625    23663977.617                    23663977.906      164371.311 5
      5880.058 6        34.900          40.600
  24446379.875    24446370.340                    24446369.867    -2952142.016 6
  -2291017.577 6        37.300          39.500
 18  1  6  0  3 25.0000000  0  7G07G09G30G23G16G27G05
  21240442.953    21240430.430                    21240430.777   -16613750.371 8
 -15074677.680 8        52.300          48.800
  20020809.016    20020799.305                    20020799.301   -25751805.132 8
 -20059725.283 8        49.900          53.700
  22973678.797    22973670.434                    22973671.191    -8720649.335 6
  -7819342.577 7        41.800          43.500
  21143629.883                                    21143617.297   -22409416.639 8
 -16035979.51346        49.800          37.800
  21864406.070                                    21864394.070    -5230299.444 6
  -3875128.98142        36.000          16.900
  23663554.164    23663544.746                    23663544.859      162095.470 5
      4106.674 6        34.800          40.500
  24445829.648    24445819.586                    24445818.996    -2955034.990 6
  -2293271.839 6        37.200          39.700
 18  1  6  0  3 26.0000000  0  7G07G09G30G23G16G27G05
  21240101.156    21240088.926                    21240089.215   -16615547.141 8
 -15076077.763 8        52.100          48.600
  20020798.383    20020788.203                    20020788.375   -25751864.015 8
 -20059771.162 8        49.700          53.800
  22973121.875    22973113.688                    22973114.328    -8723576.218 6
  -7821623.269 7        41.700          43.700
  21143981.977                                    21143969.801   -22407565.830 8
 -16034537.32646        49.600          37.200
  21864827.570                                    21864815.395    -5228083.092 6
  -3873401.94642        36.100          16.900
  23663120.555    23663111.547                    23663111.367      159819.794 5
      2333.420 6        34.500          40.200
  24445278.789    24445269.313                    24445268.957    -2957927.873 6
  -2295526.043 6        37.100          39.700
 18  1  6  0  3 27.0000000  0  7G07G09G30G23G16G27G05
  21239759.250    21239747.313                    21239747.543   -16617343.201 8
 -15077477.299 8        52.400          48.800
  20020786.992    20020777.223                    20020777.395   -25751921.993 8
 -20059816.338 8        49.800          53.900
  22972565.313    22972556.715                    22972557.531    -8726502.528 6
  -7823903.512 7        41.800          43.700
  21144334.984                                    21144321.695   -22405714.160 8
 -16033094.46346        49.500          37.500
  21865249.688                                    21865237.570    -5225865.785 6
  -3871674.18142        36.400          17.400
  23662688.172    23662678.695                    23662678.340      157544.987 5
       560.853 6        35.000          40.000
  24444728.961    24444718.723                    24444718.426    -2960819.941 6
  -2297779.598 6        36.800          39.500
 18  1  6  0  3 28.0000000  0  7G07G09G30G23G16G27G05
  21239417.297    21239405.359                    21239405.414   -16619139.245 8
 -15078876.809 8        52.300          48.900
  20020776.109    20020766.105                    20020765.984   -25751979.740 8
 -20059861.341 9        50.300          54.100
  22972008.703    22972000.105                    22972000.512    -8729428.904 7
  -7826183.808 7        42.200          43.700
  21144686.992                                    21144671.887   -22403862.378 8
 -16031651.51246        49.200          37.700
  21865672.094                                    21865659.391    -5223648.200 6
  -3869946.20742        36.600          17.800
  23662254.383    23662245.668                    23662245.547      155270.295 5
     -1211.626 6        34.800          40.100
  24444178.203    24444168.199                    24444167.902    -2963711.914 6
  -2300033.086 6        37.100          39.600
 18  1  6  0  3 29.0000000  0  7G07G09G30G23G16G27G05
  21239075.859    21239063.980                    21239063.977   -16620934.863 8
 -15080275.995 8        52.300          48.900
  20020764.867    20020755.273                    20020755.270   -25752036.890 8
 -20059905.871 9        50.300          54.200
  22971451.914    22971443.082                    22971443.547    -8732354.991 7
  -7828463.869 7        42.100          43.700
  21145040.258                                    21145025.621   -22402010.040 8
 -16030208.13546        49.200          37.600
  21866094.484                                    21866081.137    -5221429.931 6
  -3868217.66242        36.400          17.400
  23661822.359    23661813.000                    23661812.879      152996.118 5
     -2983.703 6        34.800          40.000
  24443628.359    24443618.121                    24443617.707    -2966603.389 6
  -2302286.174 6        37.900          39.500
 18  1  6  0  3 30.0000000  0  7G07G09G30G23G16G27G05
  21238734.047    21238722.227                    21238722.047   -16622730.316 8
 -15081675.053 8        52.500          49.000
  20020754.430    20020744.660                    20020744.539   -25752093.670 8
 -20059950.120 9        50.300          54.200
  22970894.945    22970886.406                    22970886.754    -8735281.038 6
  -7830743.911 7        41.300          44.100
  21145391.398                                    21145379.750   -22400157.437 8
 -16028764.54446        49.400          37.400
  21866516.977                                    21866503.746    -5219211.286 5
  -3866488.81342        35.400          17.400
  23661389.906    23661380.313                    23661380.309      150722.278 5
     -4755.530 6        35.400          40.100
  24443078.219    24443067.746                    24443067.449    -2969494.701 6
  -2304539.142 6        37.500          39.300
 18  1  6  0  3 31.0000000  0  7G07G09G30G23G16G27G05
  21238392.500    21238381.031                    21238380.734   -16624525.298 8
 -15083073.741 8        52.300          49.100
  20020743.672    20020733.551                    20020733.723   -25752149.801 8
 -20059993.859 9        50.300          54.100
  22970338.203    22970330.250                    22970330.129    -8738206.731 6
  -7833023.666 7        41.400          44.200
  21145743.883                                    21145730.770   -22398304.228 8
 -16027320.48646        48.600          37.400
  21866937.977                                    21866926.211    -5216991.857 5
  -3864759.43542        35.500          16.900
  23660956.516    23660947.332                    23660947.504      148449.011 5
     -6526.906 6        35.200          39.900
  24442528.297    24442517.648                    24442517.410    -2972385.452 6
  -2306791.670 6        37.500          39.100
 18  1  6  0  3 32.0000000  0  7G07G09G30G23G16G27G05
  21238051.047    21238039.285                    21238039.281   -16626319.953 8
 -15084472.170 8        52.400          48.900
  20020733.063    20020722.941                    20020723.172   -25752205.378 8
 -20060037.162 9        50.700          54.000
  22969781.469    22969773.633                    22969773.570    -8741132.136 6
  -7835303.196 7        41.200          44.300
  21146098.367                                    21146083.145   -22396450.547 8
 -16025876.05646        49.200          37.300
  21867360.930                                    21867348.754    -5214771.786 5
  -3863029.55142        35.700          16.300
  23660524.398    23660514.980                    23660515.328      146176.231 5
     -8297.905 6        35.400          39.700
  24441978.617    24441967.793                    24441967.496    -2975275.795 6
  -2309043.877 6        37.800          38.900
 18  1  6  0  3 33.0000000  0  7G07G09G30G23G16G27G05
  21237709.680    21237697.566                    21237697.680   -16628114.535 8
 -15085870.542 8        52.600          48.900
  20020722.313    20020712.777                    20020712.773   -25752260.666 8
 -20060080.250 9        50.900          54.100
  22969225.047    22969216.918                    22969216.914    -8744057.620 6
  -7837582.784 7        41.800          44.200
  21146449.727                                    21146436.320   -22394596.679 8
 -16024431.49046        49.500          37.400
  21867784.320                                    21867771.559    -5212551.422 5
  -3861299.39242        35.000          17.400
  23660092.164    23660082.160                    23660082.801      143903.606 5
    -10068.774 6        35.200          39.200
  24441428.227    24441417.285                    24441417.457    -2978165.990 6
  -2311295.976 6        38.000          39.000
 18  1  6  0  3 34.0000000  0  7G07G09G30G23G16G27G05
  21237368.203    21237356.148                    21237356.438   -16629908.500 8
 -15087268.435 8        52.700          48.900
  20020712.367    20020702.188                    20020702.477   -25752315.170 8
 -20060122.716 9        51.400          54.200
  22968669.141    22968660.016                    22968660.129    -8746982.573 6
  -7839861.965 7        41.300          44.200
  21146804.117                                    21146789.539   -22392742.100 8
 -16022986.36746        49.900          37.100
  21868206.234                                    21868194.059    -5210330.207 5
  -3859568.55342        35.200          17.800
  23659660.320    23659649.848                    23659650.547      141631.716 5
    -11839.073 6        35.600          39.500
  24440878.555    24440866.969                    24440867.258    -2981055.526 6
  -2313547.568 6        38.400          38.800
 18  1  6  0  3 35.0000000  0  7G07G09G30G23G16G27G05
  21237026.961    21237014.965                    21237015.195   -16631702.377 8
 -15088666.262 8        52.200          48.900
  20020702.016    20020691.953                    20020692.125   -25752369.364 8
 -20060164.945 9        50.700          54.100
  22968112.125    22968103.410                    22968103.699    -8749907.591 6
  -7842141.198 7        41.800          44.100
  21147155.852                                    21147141.977   -22390887.286 8
 -16021541.05346        49.400          37.400
  21868628.797                                    21868616.914    -5208108.611 5
  -3857837.43142        34.400          17.800
  23659228.578    23659217.871                    23659218.512      139360.053 5
    -13609.196 6        35.400          39.900
  24440328.609    24440317.375                    24440317.723    -2983944.915 6
  -2315799.039 6        38.400          39.000
 18  1  6  0  3 36.0000000  0  7G07G09G30G23G16G27G05
  21236685.594    21236673.832                    21236673.887   -16633495.828 8
 -15090063.755 8        52.200          49.000
  20020691.938    20020681.465                    20020681.695   -25752422.939 8
 -20060206.692 9        50.300          54.300
  22967555.547    22967546.363                    22967546.828    -8752832.253 7
  -7844420.156 7        42.000          44.000
  21147509.352                                    21147496.004   -22389031.928 8
 -16020095.31946        48.800          37.500
  21869051.289                                    21869039.641    -5205886.288 5
  -3856105.76042        34.000          17.400
  23658796.063    23658785.766                    23658786.113      137088.958 5
    -15378.881 6        35.700          40.000
  24439778.852    24439767.852                    24439768.082    -2986833.799 6
  -2318050.118 6        38.700          38.800
 18  1  6  0  3 37.0000000  0  7G07G09G30G23G16G27G05
  21236344.492    21236332.672                    21236332.727   -16635289.073 8
 -15091461.088 8        52.300          49.000
  20020681.773    20020671.242                    20020671.531   -25752476.106 8
 -20060248.119 9        49.900          54.400
  22966999.008    22966989.941                    22966990.406    -8755756.861 7
  -7846699.076 7        42.600          44.000
  21147863.672                                    21147847.746   -22387176.258 8
 -16018649.34846        48.200          37.700
  21869474.234                                    21869462.762    -5203663.540 5
  -3854373.72942        34.600          16.900
  23658363.313    23658353.777                    23658354.242      134818.166 5
    -17148.332 6        35.000          39.900
  24439229.008    24439218.125                    24439218.121    -2989722.400 6
  -2320300.971 6        38.900          38.700
 18  1  6  0  3 38.0000000  0  7G07G09G30G23G16G27G05
  21236003.375    21235991.203                    21235991.199   -16637081.835 8
 -15092858.046 8        52.300          49.000
  20020671.945    20020661.590                    20020661.703   -25752528.611 8
 -20060289.034 9        50.300          54.400
  22966442.594    22966433.410                    22966433.992    -8758681.054 7
  -7848977.667 7        42.600          43.900
  21148215.852                                    21148201.039   -22385319.951 8
 -16017202.86446        48.100          37.800
  21869897.469                                    21869885.879    -5201440.131 5
  -3852641.16842        34.900          16.300
  23657931.289    23657921.168                    23657922.102      132547.989 5
    -18917.298 6        35.200          40.100
  24438679.727    24438668.844                    24438668.898    -2992610.444 6
  -2322551.394 6        38.800          38.800
 18  1  6  0  3 39.0000000  0  7G07G09G30G23G16G27G05
  21235662.164    21235649.992                    21235650.223   -16638874.512 8
 -15094254.938 8        52.300          49.000
  20020661.836    20020651.305                    20020651.770   -25752580.811 8
 -20060329.703 9        50.400          54.600
  22965886.078    22965876.660                    22965877.066    -8761605.340 7
  -7851256.336 7        42.100          43.700
  21148568.281                                    21148554.230   -22383463.459 7
 -16015756.25146        47.800          37.500
  21870319.953                                    21870308.949    -5199216.256 5
  -3850908.28942        34.600          15.600
  23657499.422    23657488.891                    23657489.883      130278.004 5
    -20686.111 6        34.800          39.900
  24438130.078    24438119.547                    24438119.191    -2995498.359 6
  -2324801.719 6        37.700          38.800
 18  1  6  0  3 40.0000000  0  7G07G09G30G23G16G27G05
  21235321.156    21235308.750                    21235309.156   -16640666.468 8
 -15095651.263 8        52.100          48.900
  20020652.266    20020641.852                    20020642.082   -25752632.106 8
 -20060369.673 9        50.600          54.600
  22965329.508    22965320.910                    22965321.316    -8764528.944 6
  -7853534.470 7        41.500          43.600
  21148920.836                                    21148907.254   -22381606.137 8
 -16014308.98746        48.400          37.300
  21870743.047                                    21870732.102    -5196991.423 5
  -3849174.66142        34.300          16.300
  23657067.930    23657056.988                    23657058.156      128008.888 5
    -22454.253 6        34.300          40.100
  24437580.680    24437569.738                    24437569.793    -2998385.483 6
  -2327051.428 6        37.200          38.800
 18  1  6  0  3 41.0000000  0  7G07G09G30G23G16G27G05
  21234980.141    21234968.027                    21234968.375   -16642458.487 8
 -15097047.644 8        52.400          48.800
  20020642.375    20020632.313                    20020632.367   -25752683.243 8
 -20060409.518 9        50.700          54.900
  22964773.008    22964763.941                    22964764.641    -8767452.741 6
  -7855812.757 7        41.700          43.400
  21149276.828                                    21149262.309   -22379748.738 8
 -16012861.66846        48.600          37.500
  21871167.031                                    21871155.617    -5194766.379 5
  -3847440.86642        34.300          16.300
  23656635.430    23656625.484                    23656626.652      125739.794 5
    -24222.384 6        34.300          39.800
  24437031.188    24437020.188                    24437020.359    -3001272.565 6
  -2329301.105 6        37.300          38.600
 18  1  6  0  3 42.0000000  0  7G07G09G30G23G16G27G05
  21234639.094    21234627.039                    21234627.563   -16644250.029 8
 -15098443.648 8        52.600          48.700
  20020632.688    20020622.566                    20020622.797   -25752733.703 8
 -20060448.835 9        50.800          54.700
  22964216.023    22964207.367                    22964208.125    -8770376.143 6
  -7858090.726 7        41.600          43.500
  21149629.656                                    21149614.727   -22377890.725 8
 -16011413.85946        48.400          37.400
  21871590.414                                    21871579.059    -5192540.609 5
  -3845706.49942        34.500          15.600
  23656204.539    23656193.773                    23656194.473      123471.404 5
    -25989.954 6        34.600          39.900
  24436481.594    24436471.355                    24436471.000    -3004159.154 6
  -2331550.383 6        37.200          39.000
 18  1  6  0  3 43.0000000  0  7G07G09G30G23G16G27G05
  21234298.250    21234285.844                    21234286.250   -16646041.324 8
 -15099839.465 8        52.700          48.600
  20020623.047    20020613.219                    20020613.391   -25752783.712 8
 -20060487.808 9        50.900          54.700
  22963659.086    22963651.367                    22963651.773    -8773299.469 6
  -7860368.644 7        41.700          43.600
  21149984.484                                    21149970.141   -22376032.363 8
 -16009965.78146        48.800          37.500
  21872014.570                                    21872002.805    -5190314.368 5
  -3843971.80042        34.500          15.600
  23655773.336    23655762.336                    23655762.977      121203.301 5
    -27757.311 6        34.100          40.000
  24435933.375    24435921.789                    24435921.492    -3007045.394 6
  -2333799.399 6        37.900          39.000
 18  1  6  0  3 44.0000000  0  7G07G09G30G23G16G27G05
  21233957.523    21233945.352                    21233945.699   -16647832.028 8
 -15101234.817 8        52.700          48.600
  20020613.875    20020604.047                    20020603.984   -25752832.959 8
 -20060526.179 9        51.200          54.800
  22963103.445    22963095.316                    22963095.781    -8776222.286 6
  -7862646.160 7        41.700          43.400
  21150335.984                                    21150322.402   -22374173.313 8
 -16008517.17246        48.800          37.500
  21872438.156                                    21872426.801    -5188087.204 5
  -3842236.33942        33.800          16.300
  23655341.102    23655331.391                    23655331.563      118935.893 5
    -29524.128 6        34.500          40.200
  24435384.172    24435372.410                    24435372.113    -3009930.997 6
  -2336047.923 6        38.500          39.200
 18  1  6  0  3 45.0000000  0  7G07G09G30G23G16G27G05
  21233616.680    21233604.449                    21233605.031   -16649622.797 8
 -15102630.214 8        52.700          48.700
  20020604.570    20020594.801                    20020594.621   -25752882.064 8
 -20060564.444 9        50.800          54.900
  22962547.594    22962538.762                    22962539.227    -8779145.270 6
  -7864923.804 7        41.700          43.400
  21150689.242                                    21150675.895   -22372314.179 8
 -16007068.49946        48.300          37.400
  21872862.070                                    21872850.363    -5185859.872 5
  -3840500.75242        34.200          16.300
  23654909.508    23654899.621                    23654900.086      116668.573 5
    -31290.869 6        34.100          40.000
  24434835.797    24434823.742                    24434823.270    -3012816.586 6
  -2338296.426 6        38.900          39.200
 18  1  6  0  3 46.0000000  0  7G07G09G30G23G16G27G05
  21233275.898    21233263.785                    21233264.309   -16651413.108 8
 -15104025.268 8        52.700          48.600
  20020595.289    20020585.109                    20020585.398   -25752930.492 8
 -20060602.185 9        51.100          54.800
  22961991.016    22961982.359                    22961982.941    -8782067.901 6
  -7867201.174 7        41.700          43.700
  21151043.320                                    21151030.969   -22370454.470 8
 -16005619.38146        48.700          37.400
  21873286.953                                    21873274.367    -5183631.815 5
  -3838764.62642        33.700          15.600
  23654478.094    23654468.734                    23654469.023      114401.833 5
    -33057.149 6        34.300          39.900
  24434285.898    24434275.016                    24434274.133    -3015701.640 6
  -2340544.515 6        39.100          39.200
 18  1  6  0  3 47.0000000  0  7G07G09G30G23G16G27G05
  21232935.320    21232922.973                    21232923.496   -16653203.074 8
 -15105420.044 8        52.900          48.600
  20020586.102    20020576.215                    20020576.328   -25752978.371 8
 -20060639.489 9        51.000          54.700
  22961434.727    22961426.422                    22961426.770    -8784990.316 6
  -7869478.376 7        41.700          43.700
  21151397.086                                    21151384.324   -22368594.295 8
 -16004169.89146        48.600          37.600
  21873710.672                                    21873698.730    -5181403.210 5
  -3837028.05442        34.300          16.300
  23654046.758    23654037.164                    23654037.453      112135.531 5
    -34823.094 6        34.700          40.000
  24433737.344    24433725.992                    24433725.227    -3018586.289 6
  -2342792.296 6        38.400          39.200
 18  1  6  0  3 48.0000000  0  7G07G09G30G23G16G27G05
  21232595.055    21232582.355                    21232582.938   -16654992.655 8
 -15106814.519 8        52.500          48.500
  20020577.180    20020567.000                    20020567.230   -25753025.707 8
 -20060676.377 9        51.100          54.500
  22960879.406    22960870.574                    22960871.098    -8787912.449 6
  -7871755.359 7        41.700          43.700
  21151752.859                                    21151738.809   -22366733.618 8
 -16002720.01046        48.800          38.000
  21874134.930                                    21874123.047    -5179173.885 5
  -3835290.93542        33.900          16.300
  23653615.875    23653606.047                    23653606.277      109869.758 5
    -36588.627 6        34.900          39.900
  24433187.539    24433177.301                    24433176.594    -3021470.515 6
  -2345039.743 6        38.600          38.900
 18  1  6  0  3 49.0000000  0  7G07G09G30G23G16G27G05
  21232254.188    21232242.250                    21232242.715   -16656781.839 8
 -15108208.693 8        52.400          48.400
  20020568.203    20020557.848                    20020557.844   -25753072.391 8
 -20060712.750 9        51.100          54.400
  22960322.727    22960314.129                    22960314.828    -8790834.278 6
  -7874032.103 7        41.800          43.800
  21152107.039                                    21152092.754   -22364872.427 8
 -16001269.73046        48.700          37.700
  21874557.719                                    21874547.652    -5176943.897 5
  -3833553.27242        33.000          15.600
  23653184.133    23653175.535                    23653175.531      107604.542 5
    -38353.730 6        34.600          39.900
  24432638.750    24432628.746                    24432627.805    -3024354.231 6
  -2347286.796 6        38.400          39.100
 18  1  6  0  3 50.0000000  0  7G07G09G30G23G16G27G05
  21231913.719    21231901.488                    21231901.953   -16658570.934 8
 -15109602.789 8        52.100          48.400
  20020559.414    20020549.527                    20020549.641   -25753118.837 8
 -20060748.944 9        51.400          54.600
  22959767.422    22959758.238                    22959758.645    -8793756.134 6
  -7876308.868 7        41.600          43.700
  21152461.719                                    21152446.496   -22363011.025 8
 -15999819.28846        48.500          37.600
  21874982.461                                    21874971.633    -5174713.550 5
  -3831815.33442        33.000          14.800
  23652753.266    23652744.492                    23652744.430      105339.507 5
    -40118.690 6        34.200          40.100
  24432090.156    24432079.625                    24432079.152    -3027237.794 6
  -2349533.725 6        38.700          39.200
 18  1  6  0  3 51.0000000  0  7G07G09G30G23G16G27G05
  21231573.320    21231561.852                    21231562.023   -16660359.679 8
 -15110996.621 8        52.100          48.500
  20020550.414    20020540.586                    20020540.699   -25753164.699 8
 -20060784.674 9        51.300          54.500
  22959211.344    22959202.219                    22959203.035    -8796677.754 6
  -7878585.453 7        41.600          43.500
  21152815.484                                    21152800.789   -22361149.157 8
 -15998368.48246        48.200          37.700
  21875407.859                                    21875396.094    -5172482.654 5
  -3830076.93842        32.900          14.800
  23652322.297    23652313.172                    23652313.109      103074.925 5
    -41883.303 6        33.800          39.700
  24431541.586    24431531.113                    24431530.523    -3030120.961 6
  -2351780.345 6        38.900          39.000
 18  1  6  0  3 52.0000000  0  7G07G09G30G23G16G27G05
  21231232.883    21231220.828                    21231221.059   -16662148.180 8
 -15112390.254 8        52.000          48.600
  20020541.938    20020532.051                    20020532.223   -25753210.110 8
 -20060820.061 9        51.500          54.500
  22958655.148    22958646.258                    22958647.016    -8799599.232 6
  -7880861.930 7        41.000          43.500
  21153169.469                                    21153156.648   -22359286.908 8
 -15996917.38146        48.700          37.400
  21875831.641                                    21875820.520    -5170251.248 5
  -3828338.21242        32.600          13.900
  23651891.523    23651882.340                    23651882.395      100810.745 5
    -43647.592 6        33.700          39.800
  24430993.039    24430982.625                    24430981.684    -3033003.783 6
  -2354026.693 6        38.600          39.200
 18  1  6  0  3 53.0000000  0  7G07G09G30G23G16G27G05
  21230892.875    21230881.172                    21230881.285   -16663936.043 8
 -15113783.392 8        52.300          48.600
  20020533.531    20020523.820                    20020523.816   -25753254.719 8
 -20060854.828 9        51.600          54.500
  22958099.086    22958090.781                    22958091.129    -8802520.204 6
  -7883138.017 7        41.700          43.700
  21153524.531                                    21153509.836   -22357423.923 8
 -15995465.70646        49.000          37.700
  21876256.211                                    21876245.793    -5168018.873 5
  -3826598.68942        32.800          14.800
  23651460.430    23651451.715                    23651451.828       98547.334 5
    -45411.289 6        33.400          40.000
  24430444.688    24430434.039                    24430433.156    -3035885.880 6
  -2356272.474 6        39.200          39.100
 18  1  6  0  3 54.0000000  0  7G07G09G30G23G16G27G05
  21230552.281    21230540.695                    21230540.691   -16665723.733 8
 -15115176.400 8        52.600          48.600
  20020525.227    20020514.695                    20020514.750   -25753298.936 8
 -20060889.278 9        50.900          54.500
  22957543.930    22957534.805                    22957535.152    -8805441.117 6
  -7885414.057 7        41.600          43.400
  21153879.797                                    21153865.512   -22355560.636 8
 -15994013.79246        48.900          37.700
  21876681.172                                    21876670.461    -5165786.102 5
  -3824858.89742        32.800          14.800
  23651029.789    23651021.309                    23651021.246       96284.203 5
    -47174.770 6        32.800          40.000
  24429896.086    24429885.906                    24429885.141    -3038767.789 6
  -2358518.117 6        38.900          39.100
 18  1  6  0  3 55.0000000  0  7G07G09G30G23G16G27G05
  21230212.422    21230200.367                    21230200.715   -16667511.267 8
 -15116569.282 8        52.700          48.400
  20020517.117    20020506.762                    20020506.934   -25753342.802 8
 -20060923.456 9        49.900          54.500
  22956988.219    22956978.859                    22956979.266    -8808361.967 6
  -7887690.044 7        41.700          43.400
  21154233.078                                    21154219.438   -22353697.064 8
 -15992561.65446        48.300          37.600
  21877105.773                                    21877095.355    -5163552.963 5
  -3823118.78242        33.000          14.800
  23650598.773    23650590.586                    23650590.758       94021.392 5
    -48937.996 6        32.900          39.800
  24429348.313    24429337.430                    24429336.664    -3041649.464 6
  -2360763.573 6        39.200          39.200
 18  1  6  0  3 56.0000000  0  7G07G09G30G23G16G27G05
  21229872.039    21229860.219                    21229860.684   -16669298.374 8
 -15117961.832 8        52.100          48.300
  20020508.617    20020498.496                    20020498.668   -25753386.022 8
 -20060957.142 9        50.700          54.400
  22956432.539    22956423.297                    22956423.586    -8811282.492 7
  -7889965.778 7        42.000          43.800
  21154588.719                                    21154574.785   -22351832.932 8
 -15991109.09046        48.500          37.700
  21877531.992                                    21877520.754    -5161319.027 5
  -3821378.03142        33.100          14.800
  23650168.234    23650159.930                    23650159.867       91759.082 5
    -50700.831 6        33.100          39.900
  24428799.398    24428788.867                    24428788.277    -3044530.610 6
  -2363008.631 6        38.100          39.100
 18  1  6  0  3 57.0000000  0  7G07G09G30G23G16G27G05
  21229532.219    21229520.281                    21229520.746   -16671085.525 8
 -15119354.422 8        52.100          48.300
  20020500.492    20020490.313                    20020490.426   -25753429.091 8
 -20060990.698 9        51.000          54.400
  22955876.742    22955867.676                    22955867.848    -8814203.182 6
  -7892241.642 7        41.800          43.600
  21154943.109                                    21154929.117   -22349968.720 8
 -15989656.45846        48.800          37.400
  21877957.570                                    21877945.688    -5159084.95515
  -3819637.18852        33.200          14.800
  23649738.563    23649729.672                    23649729.551       89496.860 5
    -52463.597 6        32.800          39.900
  24428251.672    24428240.320                    24428239.848    -3047411.718 6
  -2365253.647 6        38.100          39.000
 18  1  6  0  3 58.0000000  0  7G07G09G30G23G16G27G05
  21229192.117    21229180.238                    21229180.527   -16672871.812 8
 -15120746.329 8        52.200          48.100
  20020492.500    20020482.496                    20020482.609   -25753471.101 8
 -20061023.428 9        51.300          54.400
  22955321.063    22955312.406                    22955312.227    -8817123.075 6
  -7894516.880 7        41.800          43.900
  21155297.516                                    21155284.402   -22348103.537 8
 -15988203.06346        48.900          37.400
  21878381.844                                    21878370.840    -5156849.785 5
  -3817895.49242        33.200          13.900
  23649308.109    23649299.043                    23649298.922       87235.620 5
    -54225.597 6        32.800          39.700
  24427703.906    24427692.555                    24427692.141    -3050291.923 6
  -2367497.960 6        38.700          38.700
 18  1  6  0  3 59.0000000  0  7G07G09G30G23G16G27G05
  21228852.422    21228840.426                    21228840.715   -16674658.024 8
 -15122138.181 8        52.300          48.200
  20020484.516    20020474.336                    20020474.625   -25753512.841 8
 -20061055.960 9        50.900          54.400
  22954765.031    22954756.844                    22954756.371    -8820043.042 6
  -7896792.174 7        41.600          44.200
  21155652.688                                    21155638.578   -22346238.156 8
 -15986749.52146        49.000          37.400
  21878808.273                                    21878796.215    -5154614.177 5
  -3816153.43842        33.700          13.900
  23648878.898    23648868.777                    23648868.949       84974.595 5
    -55987.434 6        32.900          39.700
  24427155.164    24427143.813                    24427143.574    -3053171.991 6
  -2369742.172 6        38.700          38.600
 18  1  6  0  4  0.0000000  0  7G07G09G30G23G16G27G05
  21228512.758    21228500.469                    21228500.758   -16676443.702 8
 -15123529.620 8        52.500          48.300
  20020476.688    20020466.625                    20020466.738   -25753553.842 8
 -20061087.903 9        51.000          54.600
  22954208.930    22954201.152                    22954200.563    -8822962.613 6
  -7899067.156 7        41.300          44.100
  21156007.516                                    21155995.223   -22344372.130 8
 -15985295.47946        49.600          37.400
  21879233.367                                    21879221.895    -5152377.888 5
  -3814410.84542        33.800          14.800
  23648448.469    23648439.109                    23648439.105       82714.242 5
    -57748.756 6        32.300          39.700
  24426607.391    24426596.391                    24426595.918    -3056051.442 6
  -2371985.896 6        38.700          38.700
 18  1  6  0  4  1.0000000  0  7G07G09G30G23G16G27G05
  21228172.969    21228160.914                    21228160.852   -16678229.375 8
 -15124921.045 8        52.000          48.400
  20020469.156    20020458.977                    20020459.148   -25753594.660 8
 -20061119.710 9        51.000          54.700
  22953654.414    22953645.875                    22953645.344    -8825882.271 6
  -7901342.202 7        41.700          44.100
  21156363.156                                    21156348.754   -22342505.987 8
 -15983841.34146        50.200          37.600
  21879658.625                                    21879647.504    -5150141.281 5
  -3812668.03142        33.800          14.800
  23648018.016    23648009.008                    23648009.004       80454.002 5
    -59509.989 6        32.600          39.600
  24426059.742    24426048.449                    24426048.211    -3058930.835 6
  -2374229.579 6        38.200          38.600
 18  1  6  0  4  2.0000000  0  7G07G09G30G23G16G27G05
  21227833.094    21227820.863                    21227821.211   -16680014.433 8
 -15126312.001 8        52.400          48.300
  20020461.320    20020451.023                    20020451.254   -25753634.623 8
 -20061150.854 9        51.000          54.400
  22953098.977    22953090.496                    22953089.965    -8828801.368 6
  -7903616.818 7        41.700          43.900
  21156718.688                                    21156703.641   -22340639.091 8
 -15982386.61746        50.000          37.900
  21880084.734                                    21880073.438    -5147903.807 5
  -3810924.55842        34.000          14.800
  23647587.906    23647578.430                    23647578.777       78194.507 5
    -61270.649 6        31.600          39.400
  24425511.891    24425500.246                    24425500.242    -3061809.506 6
  -2376472.703 6        38.100          38.400
 18  1  6  0  4  3.0000000  0  7G07G09G30G23G16G27G05
  21227493.469    21227481.121                    21227481.586   -16681799.512 8
 -15127702.972 8        52.200          48.300
  20020453.586    20020443.641                    20020443.637   -25753674.441 8
 -20061181.872 9        51.200          54.300
  22952543.195    22952534.656                    22952534.184    -8831720.643 6
  -7905891.579 7        41.300          43.900
  21157073.883                                    21157059.246   -22338772.096 8
 -15980931.81546        50.300          37.700
  21880511.078                                    21880498.961    -5145666.077 5
  -3809180.90442        33.500          14.800
  23647157.789    23647148.313                    23647148.836       75935.150 5
    -63031.194 6        31.800          39.300
  24424963.586    24424952.352                    24424952.230    -3064688.179 6
  -2378715.819 6        37.800          38.300
 18  1  6  0  4  4.0000000  0  7G07G09G30G23G16G27G05
  21227153.883    21227141.711                    21227142.059   -16683583.921 8
 -15129093.414 8        52.500          48.300
  20020446.289    20020436.578                    20020436.516   -25753713.393 8
 -20061212.228 9        51.400          54.200
  22951987.820    22951979.105                    22951978.691    -8834639.388 6
  -7908165.931 7        41.400          43.900
  21157429.023                                    21157414.914   -22336904.312 8
 -15979476.39746        50.100          38.000
  21880937.805                                    21880925.043    -5143427.439 5
  -3807436.52242        33.700          16.300
  23646728.234    23646718.641                    23646719.223       73676.538 5
    -64791.164 6        31.600          38.800
  24424416.008    24424404.422                    24424404.711    -3067566.084 6
  -2380958.343 6        37.500          37.900
 18  1  6  0  4  5.0000000  0  7G07G09G30G23G16G27G05
  21226814.500    21226802.211                    21226802.559   -16685368.212 8
 -15130483.777 8        52.300          48.300
  20020439.000    20020428.996                    20020429.168   -25753752.003 8
 -20061242.321 9        51.400          54.200
  22951432.820    22951423.637                    22951423.398    -8837558.088 6
  -7910440.251 7        41.500          43.800
  21157783.742                                    21157769.750   -22335036.306 8
 -15978020.81146        49.800          37.800
  21881363.250                                    21881351.602    -5141188.463 5
  -3805691.86842        33.800          15.600
  23646297.930    23646288.688                    23646289.387       71418.169 5
    -66550.937 6        31.500          38.800
  24423867.391    24423856.391                    24423857.090    -3070443.820 6
  -2383200.733 6        37.600          37.500
 18  1  6  0  4  6.0000000  0  7G07G09G30G23G16G27G05
  21226474.930    21226462.875                    21226463.105   -16687152.196 8
 -15131873.889 8        52.300          48.200
  20020431.750    20020421.570                    20020421.684   -25753790.136 8
 -20061272.031 9        51.100          54.100
  22950876.875    22950868.395                    22950868.039    -8840476.600 6
  -7912714.421 7        41.400          43.900
  21158140.445                                    21158126.688   -22333167.887 8
 -15976564.89546        48.900          37.700
  21881788.523                                    21881777.402    -5138948.869 5
  -3803946.74242        33.600          15.600
  23645867.992    23645858.926                    23645859.977       69160.235 5
    -68310.369 6        31.500          38.600
  24423319.859    24423308.566                    24423309.324    -3073321.207 6
  -2385442.849 6        38.000          37.600
 18  1  6  0  4  7.0000000  0  7G07G09G30G23G16G27G05
  21226135.188    21226123.484                    21226123.832   -16688935.789 8
 -15133263.707 8        52.900          48.200
  20020424.219    20020414.449                    20020414.738   -25753827.663 8
 -20061301.271 9        50.900          54.100
  22950321.914    22950313.434                    22950313.020    -8843394.834 6
  -7914988.376 7        40.600          44.300
  21158495.367                                    21158482.195   -22331298.918 8
 -15975108.55246        49.300          37.700
  21882215.633                                    21882203.398    -5136708.611 5
  -3802201.12642        34.100          15.600
  23645438.266    23645429.375                    23645430.191       66902.818 5
    -70069.394 6        31.500          39.000
  24422772.711    24422761.359                    24422762.117    -3076198.082 6
  -2387684.570 6        37.700          37.900
 18  1  6  0  4  8.0000000  0  7G07G09G30G23G16G27G05
  21225796.047    21225783.992                    21225784.281   -16690719.068 8
 -15134653.268 8        52.900          48.400
  20020417.273    20020407.563                    20020407.617   -25753864.672 8
 -20061330.109 9        50.900          54.100
  22949765.992    22949757.922                    22949757.449    -8846312.875 6
  -7917262.168 7        40.500          44.400
  21158851.398                                    21158837.172   -22329429.540 8
 -15973651.89446        49.500          38.000
  21882641.969                                    21882629.676    -5134467.865 5
  -3800455.06542        33.700          15.600
  23645008.617    23645000.723                    23645001.363       64645.836 5
    -71828.088 6        31.800          38.800
  24422224.578    24422214.047                    24422214.863    -3079074.598 6
  -2389926.006 6        38.000          38.000
 18  1  6  0  4  9.0000000  0  7G07G09G30G23G16G27G05
  21225456.758    21225444.293                    21225444.934   -16692501.964 8
 -15136042.540 8        52.300          48.200
  20020410.531    20020400.762                    20020400.699   -25753901.099 8
 -20061358.494 9        50.300          54.100
  22949210.742    22949202.789                    22949202.316    -8849230.614 6
  -7919535.733 7        40.600          44.500
  21159207.602                                    21159192.965   -22327559.654 8
 -15972194.84646        48.900          37.700
  21883068.328                                    21883056.855    -5132226.370 5
  -3798708.43142        33.200          16.300
  23644578.422    23644571.113                    23644571.695       62389.397 5
    -73586.360 6        31.200          38.800
  24421677.125    24421666.652                    24421667.469    -3081950.666 6
  -2392167.094 6        36.400          37.900
 18  1  6  0  4 10.0000000  0  7G07G09G30G23G16G27G05
  21225117.641    21225105.000                    21225105.582   -16694284.538 8
 -15137431.559 8        52.400          48.200
  20020403.609    20020393.840                    20020393.719   -25753937.001 8
 -20061386.470 9        50.700          54.300
  22948655.328    22948647.668                    22948646.844    -8852148.161 6
  -7921809.134 7        41.100          44.200
  21159563.320                                    21159548.918   -22325689.322 8
 -15970737.43946        49.100          37.800
  21883495.570                                    21883483.512    -5129984.381 5
  -3796961.41442        33.800          16.300
  23644149.828    23644141.582                    23644142.457       60133.401 5
    -75344.277 6        31.300          38.700
  24421129.945    24421119.531                    24421120.348    -3084826.318 6
  -2394407.863 6        36.000          37.500
 18  1  6  0  4 11.0000000  0  7G07G09G30G23G16G27G05
  21224778.391    21224766.160                    21224766.566   -16696066.772 8
 -15138820.314 8        52.300          48.200
  20020396.625    20020387.031                    20020387.086   -25753972.364 8
 -20061414.025 8        50.800          53.900
  22948100.508    22948092.086                    22948091.672    -8855065.478 6
  -7924082.350 7        41.400          44.300
  21159920.188                                    21159905.141   -22323818.536 8
 -15969279.68246        49.600          37.700
  21883921.328                                    21883910.207    -5127741.787 5
  -3795213.92342        33.500          16.300
  23643720.555    23643712.309                    23643713.418       57877.850 5
    -77101.861 6        30.700          38.800
  24420582.781    24420571.898                    24420572.949    -3087701.620 5
  -2396648.364 6        35.800          37.700
 18  1  6  0  4 12.0000000  0  7G07G09G30G23G16G27G05
  21224439.172    21224426.824                    21224427.289   -16697848.798 8
 -15140208.902 8        52.100          48.400
  20020390.250    20020380.363                    20020380.418   -25754007.312 8
 -20061441.254 8        50.900          53.800
  22947544.906    22947537.012                    22947536.715    -8857982.699 6
  -7926355.509 7        41.400          44.300
  21160275.195                                    21160261.086   -22321947.414 8
 -15967821.67246        49.900          38.100
  21884348.523                                    21884336.641    -5125498.641 5
  -3793466.01942        33.900          16.900
  23643290.844    23643283.008                    23643284.234       55622.617 5
    -78859.191 6        30.300          38.600
  24420035.797    24420024.914                    24420025.848    -3090576.599 6
  -2398888.601 6        36.100          37.700
 18  1  6  0  4 13.0000000  0  7G07G09G30G23G16G27G05
  21224099.969    21224088.031                    21224088.320   -16699630.349 8
 -15141597.124 8        52.500          48.500
  20020383.555    20020373.785                    20020373.840   -25754041.589 8
 -20061467.968 8        50.900          53.900
  22946990.422    22946982.176                    22946981.586    -8860899.524 6
  -7928628.356 7        41.200          44.200
  21160631.023                                    21160616.211   -22320075.699 8
 -15966363.19046        50.000          38.000
  21884776.742                                    21884763.805    -5123254.829 5
  -3791717.58042        34.300          16.900
  23642861.164    23642854.207                    23642855.434       53368.011 5
    -80616.026 6        30.100          38.900
  24419488.578    24419477.813                    24419478.688    -3093451.013 6
  -2401128.401 6        36.700          37.900
 18  1  6  0  4 14.0000000  0  7G07G09G30G23G16G27G05
  21223761.453    21223749.047                    21223749.277   -16701411.641 8
 -15142985.146 8        52.700          48.600
  20020377.227    20020367.574                    20020367.570   -25754075.416 8
 -20061494.322 8        51.200          53.900
  22946435.539    22946427.117                    22946426.352    -8863816.202 6
  -7930901.097 7        41.100          44.100
  21160987.844                                    21160973.324   -22318203.608 8
 -15964904.41946        50.400          38.100
  21885203.875                                    21885190.938    -5121010.511 5
  -3789968.80942        33.700          16.300
  23642431.914    23642425.133                    23642426.535       51113.785 5
    -82372.568 6        30.800          39.000
  24418941.992    24418931.227                    24418931.984    -3096325.122 6
  -2403367.962 6        36.900          37.600
 18  1  6  0  4 15.0000000  0  7G07G09G30G23G16G27G05
  21223422.484    21223409.961                    21223410.484   -16703192.922 8
 -15144373.161 8        52.500          48.700
  20020370.875    20020360.754                    20020360.691   -25754109.002 8
 -20061520.498 8        50.900          53.900
  22945880.484    22945872.121                    22945871.473    -8866732.995 6
  -7933173.925 7        41.100          44.100
  21161343.914                                    21161330.508   -22316331.369 8
 -15963445.53246        50.200          37.900
  21885629.266                                    21885618.320    -5118765.881 5
  -3788219.78542        33.400          16.300
  23642002.711    23641996.223                    23641997.449       48859.707 5
    -84128.990 6        30.700          38.700
  24418395.141    24418384.258                    24418384.957    -3099199.161 6
  -2405607.478 6        37.500          37.700
 18  1  6  0  4 16.0000000  0  7G07G09G30G23G16G27G05
  21223083.508    21223071.160                    21223071.566   -16704974.402 8
 -15145761.330 8        52.200          48.800
  20020364.445    20020354.441                    20020354.789   -25754142.642 8
 -20061546.709 8        51.100          53.800
  22945325.648    22945316.699                    22945316.461    -8869650.089 6
  -7935446.991 7        41.400          44.100
  21161700.789                                    21161686.563   -22314459.243 8
 -15961986.73146        50.200          37.800
  21886056.641                                    21886045.168    -5116521.225 5
  -3786470.68042        32.900          16.300
  23641574.563    23641566.551                    23641567.953       46605.586 5
    -85885.447 6        30.700          38.800
  24417847.680    24417837.090                    24417837.789    -3102073.290 6
  -2407847.052 6        36.900          37.900
 18  1  6  0  4 17.0000000  0  7G07G09G30G23G16G27G05
  21222744.398    21222732.227                    21222732.516   -16706754.642 8
 -15147148.532 8        52.000          48.800
  20020358.391    20020348.094                    20020348.266   -25754174.811 8
 -20061571.771 8        50.800          53.800
  22944770.180    22944761.523                    22944761.285    -8872566.059 6
  -7937719.171 7        41.300          44.100
  21162056.953                                    21162042.785   -22312585.725 8
 -15960526.84846        49.700          37.900
  21886483.867                                    21886472.512    -5114275.093 5
  -3784720.42142        33.100          15.600
  23641146.297    23641138.285                    23641139.805       44352.734 5
    -87640.919 6        30.100          38.700
  24417301.422    24417290.539                    24417291.180    -3104946.135 6
  -2410085.630 6        36.500          37.600
 18  1  6  0  4 18.0000000  0  7G07G09G30G23G16G27G05
  21222405.852    21222393.445                    21222393.676   -16708534.871 8
 -15148535.723 8        52.200          48.800
  20020352.414    20020342.000                    20020342.289   -25754206.778 8
 -20061596.684 8        51.100          53.800
  22944215.813    22944206.805                    22944206.332    -8875482.159 6
  -7939991.463 7        41.800          44.300
  21162413.539                                    21162399.313   -22310712.121 8
 -15959066.89746        49.700          38.100
  21886910.680                                    21886900.438    -5112028.653 5
  -3782969.92042        33.200          15.600
  23640717.055    23640709.277                    23640711.031       42100.059 4
    -89396.250 6        29.600          38.600
  24416755.023    24416743.965                    24416744.898    -3107818.934 6
  -2412324.180 6        37.300          37.400
 18  1  6  0  4 19.0000000  0  7G07G09G30G23G16G27G05
  21222067.211    21222054.688                    21222054.977   -16710314.551 8
 -15149922.489 8        52.100          48.800
  20020346.500    20020336.145                    20020336.316   -25754237.982 8
 -20061620.996 9        50.700          54.000
  22943661.055    22943652.105                    22943651.574    -8878397.780 6
  -7942263.377 7        41.100          44.100
  21162770.117                                    21162755.188   -22308837.812 8
 -15957606.40146        49.200          38.000
  21887337.234                                    21887327.754    -5109781.423 5
  -3781218.83842        31.600          14.800
  23640287.828    23640280.988                    23640282.508       39848.078 5
    -91151.051 6        30.100          38.400
  24416208.352    24416197.410                    24416198.109    -3110691.091 6
  -2414562.223 6        36.400          37.600
 18  1  6  0  4 20.0000000  0  7G07G09G30G23G16G27G05
  21221728.891    21221716.074                    21221716.305   -16712094.182 8
 -15151309.210 8        52.600          48.800
  20020340.742    20020330.211                    20020330.676   -25754268.949 8
 -20061645.124 9        50.900          54.100
  22943106.477    22943097.469                    22943096.938    -8881313.474 6
  -7944535.344 7        41.500          44.300
  21163126.820                                    21163113.355   -22306963.342 8
 -15956145.77046        49.100          37.600
  21887765.492                                    21887755.309    -5107533.824 5
  -3779467.47342        32.400          14.800
  23639859.508    23639852.375                    23639853.953       37596.236 5
    -92905.733 6        30.500          38.300
  24415661.453    24415650.805                    24415651.680    -3113563.078 6
  -2416800.140 6        36.900          37.500
 18  1  6  0  4 21.0000000  0  7G07G09G30G23G16G27G05
  21221389.969    21221377.738                    21221377.852   -16713873.485 8
 -15152695.683 8        52.500          48.800
  20020335.008    20020323.949                    20020324.297   -25754299.416 8
 -20061668.866 9        50.700          54.100
  22942551.742    22942542.500                    22942541.852    -8884228.969 6
  -7946807.150 7        40.800          44.300
  21163483.180                                    21163469.539   -22305088.457 8
 -15954684.82246        49.600          37.900
  21888193.047                                    21888183.508    -5105285.724 5
  -3777715.71942        32.400          13.900
  23639432.383    23639423.785                    23639425.598       35344.898 5
    -94660.023 6        30.800          38.600
  24415115.531    24415104.121                    24415105.523    -3116434.748 6
  -2419037.805 6        36.700          37.600
 18  1  6  0  4 22.0000000  0  7G07G09G30G23G16G27G05
  21221051.500    21221039.094                    21221039.383   -16715652.140 8
 -15154081.645 8        52.400          48.900
  20020329.133    20020319.070                    20020319.301   -25754328.984 8
 -20061691.902 9        50.700          54.100
  22941996.859    22941987.676                    22941987.027    -8887143.908 6
  -7949078.530 7        41.600          44.300
  21163839.828                                    21163826.305   -22303212.779 8
 -15953223.26046        49.100          37.600
  21888620.805                                    21888611.383    -5103036.710 5
  -3775963.23242        32.000          14.800
  23639003.852    23638995.547                    23638997.477       33094.302 5
    -96413.727 6        30.500          38.500
  24414569.602    24414557.840                    24414559.008    -3119305.672 6
  -2421274.892 6        37.100          37.500
 18  1  6  0  4 23.0000000  0  7G07G09G30G23G16G27G05
  21220712.938    21220700.824                    21220700.938   -16717430.543 8
 -15155467.410 8        52.400          48.900
  20020323.523    20020313.051                    20020313.398   -25754358.122 8
 -20061714.605 9        51.100          54.100
  22941442.695    22941433.160                    22941432.570    -8890058.714 6
  -7951349.795 7        41.600          44.300
  21164198.883                                    21164183.250   -22301336.721 8
 -15951761.40046        49.800          37.700
  21889048.852                                    21889039.664    -5100787.141 5
  -3774210.29042        32.400          14.800
  23638575.734    23638567.313                    23638569.301       30844.094 5
    -98167.141 6        31.000          38.600
  24414023.516    24414011.871                    24414012.922    -3122176.232 6
  -2423511.689 6        36.700          37.600
 18  1  6  0  4 24.0000000  0  7G07G09G30G23G16G27G05
  21220374.586    21220362.238                    21220362.469   -16719208.972 8
 -15156853.202 8        52.300          49.000
  20020318.305    20020307.949                    20020308.004   -25754387.094 8
 -20061737.178 9        50.900          54.200
  22940887.852    22940878.141                    22940877.902    -8892973.628 7
  -7953621.153 7        42.000          44.300
  21164555.352                                    21164540.363   -22299460.584 8
 -15950299.47246        49.800          37.700
  21889477.297                                    21889467.641    -5098537.350 5
  -3772457.20242        33.200          14.800
  23638147.875    23638139.688                    23638141.266       28594.043 5
    -99920.425 6        31.300          38.700
  24413476.656    24413465.305                    24413466.590    -3125046.790 5
  -2425748.488 6        35.300          37.500
 18  1  6  0  4 25.0000000  0  7G07G09G30G23G16G27G05
  21220036.141    21220023.910                    21220024.023   -16720986.915 8
 -15158238.609 8        52.300          49.000
  20020312.969    20020302.262                    20020302.609   -25754415.357 8
 -20061759.202 9        51.300          54.300
  22940332.305    22940323.648                    22940323.469    -8895888.172 7
  -7955892.224 7        42.200          44.200
  21164912.641                                    21164897.594   -22297583.830 8
 -15948837.06346        49.800          37.900
  21889905.734                                    21889895.668    -5096286.816 5
  -3770703.54742        33.400          14.800
  23637718.945    23637711.109                    23637712.805       26344.507 5
   -101673.317 6        31.200          38.800
  24412930.484    24412919.309                    24412920.242    -3127916.760 5
  -2427984.825 6        35.800          37.500
 18  1  6  0  4 26.0000000  0  7G07G09G30G23G16G27G05
  21219697.742    21219685.688                    21219685.684   -16722764.502 8
 -15159623.743 8        52.200          49.000
  20020307.539    20020297.301                    20020297.590   -25754443.092 8
 -20061780.809 9        50.700          54.100
  22939777.680    22939768.906                    22939769.137    -8898802.486 6
  -7958163.120 7        41.800          43.900
  21165269.320                                    21165254.918   -22295706.609 8
 -15947374.30246        49.500          38.000
  21890335.398                                    21890324.512    -5094035.700 5
  -3768949.45442        32.600          14.800
  23637291.406    23637283.336                    23637284.797       24095.479 5
   -103425.806 6        32.000          38.900
  24412384.516    24412373.633                    24412374.508    -3130786.324 6
  -2430220.850 6        36.900          37.600
 18  1  6  0  4 27.0000000  0  7G07G09G30G23G16G27G05
  21219359.820    21219347.531                    21219347.586   -16724541.667 8
 -15161008.550 8        52.100          49.100
  20020302.461    20020292.164                    20020292.395   -25754470.171 8
 -20061801.912 9        50.300          54.100
  22939223.203    22939214.254                    22939214.250    -8901716.475 6
  -7960433.759 7        41.000          43.800
  21165626.438                                    21165611.859   -22293828.848 8
 -15945911.10946        49.000          38.000
  21890763.359                                    21890752.941    -5091783.841 5
  -3767194.76842        33.600          15.600
  23636864.305    23636855.590                    23636856.875       21847.067 5
   -105177.812 6        32.400          38.800
  24411838.117    24411827.527                    24411828.227    -3133655.376 6
  -2432456.469 6        36.900          37.700
 18  1  6  0  4 28.0000000  0  7G07G09G30G23G16G27G05
  21219021.672    21219009.617                    21219009.789   -16726317.050 8
 -15162391.966 8        51.800          49.000
  20020297.742    20020287.211                    20020287.207   -25754495.292 8
 -20061821.485 9        50.800          54.100
  22938669.078    22938660.012                    22938660.418    -8904628.796 6
  -7962703.097 7        40.900          43.900
  21165984.117                                    21165970.125   -22291949.183 8
 -15944446.43546        49.400          37.700
  21891192.750                                    21891181.512    -5089530.028 5
  -3765438.58242        34.100          14.800
  23636436.172    23636428.336                    23636429.387       19600.497 5
   -106928.393 6        32.800          38.700
  24411292.578    24411281.988                    24411282.805    -3136522.610 6
  -2434690.682 6        37.000          38.100
 18  1  6  0  4 29.0000000  0  7G07G09G30G23G16G27G05
  21218683.711    21218671.656                    21218671.770   -16728093.930 8
 -15163776.547 8        51.900          49.000
  20020292.648    20020282.293                    20020282.406   -25754521.695 8
 -20061842.058 9        50.200          54.300
  22938114.773    22938105.531                    22938105.762    -8907542.715 6
  -7964973.682 7        40.900          43.900
  21166341.625                                    21166327.984   -22290070.883 8
 -15942982.82846        49.400          37.900
  21891621.375                                    21891610.898    -5087277.408 5
  -3763683.27642        34.400          14.800
  23636009.258    23636000.543                    23636001.652       17352.578 5
   -108680.024 6        32.500          38.400
  24410747.102    24410735.984                    24410736.801    -3139391.221 6
  -2436925.970 6        37.000          38.000
 18  1  6  0  4 30.0000000  0  7G07G09G30G23G16G27G05
  21218345.977    21218333.395                    21218333.625   -16729870.124 8
 -15165160.598 8        51.500          48.900
  20020287.406    20020277.637                    20020277.340   -25754547.218 8
 -20061861.944 9        49.100          54.400
  22937560.203    22937550.785                    22937550.898    -8910456.050 6
  -7967243.811 7        40.900          43.800
  21166699.055                                    21166685.297   -22288191.788 7
 -15941518.60146        47.700          38.100
  21892050.531                                    21892039.586    -5085023.809 5
  -3761927.21042        34.200          14.800
  23635582.813    23635572.926                    23635574.328       15105.485 5
   -110431.009 6        32.200          38.500
  24410200.922    24410190.508                    24410191.324    -3142259.122 6
  -2439160.697 6        36.300          38.100
 18  1  6  0  4 31.0000000  0  7G07G09G30G23G16G27G05
  21218007.617    21217995.387                    21217995.500   -16731646.227 8
 -15166544.570 8        51.400          48.700
  20020283.055    20020272.816                    20020272.813   -25754572.462 8
 -20061881.612 9        49.600          54.500
  22937005.773    22936996.297                    22936996.469    -8913369.438 6
  -7969513.983 7        41.300          44.100
  21167056.719                                    21167042.141   -22286312.493 8
 -15940054.21446        48.300          37.800
  21892479.367                                    21892468.598    -5082769.912 5
  -3760170.90142        34.600          14.800
  23635153.383    23635145.781                    23635147.184       12858.627 5
   -112181.814 6        32.900          38.800
  24409654.891    24409644.828                    24409645.293    -3145126.843 6
  -2441395.283 6        36.600          38.100
 18  1  6  0  4 32.0000000  0  7G07G09G30G23G16G27G05
  21217669.805    21217657.633                    21217657.805   -16733421.733 8
 -15167928.082 8        51.700          48.600
  20020278.109    20020268.105                    20020268.102   -25754596.877 8
 -20061900.639 9        50.100          54.500
  22936451.781    22936442.305                    22936442.242    -8916282.296 6
  -7971783.737 7        41.600          44.000
  21167414.672                                    21167399.977   -22284432.459 8
 -15938589.25746        48.500          38.000
  21892908.422                                    21892897.770    -5080515.093 5
  -3758413.88542        35.400          14.800
  23634726.617    23634717.785                    23634719.129       10612.462 5
   -113932.071 6        33.000          38.900
  24409109.703    24409099.758                    24409100.281    -3147993.845 6
  -2443629.310 6        37.000          38.300
 18  1  6  0  4 33.0000000  0  7G07G09G30G23G16G27G05
  21217331.727    21217319.379                    21217319.785   -16735197.081 8
 -15169311.468 8        51.400          48.600
  20020273.563    20020263.734                    20020263.555   -25754620.967 8
 -20061919.416 9        50.000          54.700
  22935897.539    22935888.238                    22935888.176    -8919195.136 7
  -7974053.471 7        42.200          44.100
  21167771.789                                    21167757.973   -22282552.154 8
 -15937124.08046        48.200          37.800
  21893338.289                                    21893326.641    -5078259.906 5
  -3756656.63142        35.400          14.800
  23634299.578    23634290.395                    23634291.621        8366.590 5
   -115682.106 6        33.500          38.800
  24408563.023    24408553.957                    24408554.539    -3150860.701 6
  -2445863.216 6        37.200          38.300
 18  1  6  0  4 34.0000000  0  7G07G09G30G23G16G27G05
  21216993.922    21216981.457                    21216981.863   -16736972.218 8
 -15170694.692 8        51.200          48.500
  20020268.945    20020259.352                    20020259.230   -25754644.647 8
 -20061937.862 9        50.000          54.900
  22935343.891    22935334.297                    22935334.293    -8922107.879 6
  -7976323.140 7        41.500          43.700
  21168129.859                                    21168115.984   -22280671.533 8
 -15935658.66346        48.500          37.900
  21893767.680                                    21893756.148    -5076004.304 5
  -3754899.01842        35.200          14.800
  23633872.805    23633862.918                    23633864.145        6121.050 5
   -117431.881 6        33.700          38.800
  24408017.586    24408008.227                    24408008.984    -3153727.233 6
  -2448096.882 6        36.900          37.800
 18  1  6  0  4 35.0000000  0  7G07G09G30G23G16G27G05
  21216656.086    21216643.738                    21216644.320   -16738746.665 8
 -15172077.377 8        51.300          48.700
  20020264.508    20020254.680                    20020254.793   -25754667.414 8
 -20061955.606 9        50.200          54.900
  22934789.180    22934779.645                    22934779.699    -8925020.009 6
  -7978592.325 7        41.700          43.700
  21168488.102                                    21168473.875   -22278790.097 8
 -15934192.61046        48.600          38.100
  21894197.258                                    21894185.434    -5073747.743 5
  -3753140.67942        35.000          13.900
  23633446.047    23633436.160                    23633437.387        3876.303 5
   -119181.039 6        34.500          38.400
  24407472.344    24407462.984                    24407463.801    -3156592.988 6
  -2450329.934 6        36.900          37.900
 18  1  6  0  4 36.0000000  0  7G07G09G30G23G16G27G05
  21216318.625    21216306.395                    21216306.801   -16740521.146 8
 -15173460.093 8        51.400          48.700
  20020260.258    20020250.664                    20020250.543   -25754690.032 8
 -20061973.232 9        50.500          54.900
  22934234.289    22934224.988                    22934225.277    -8927932.346 6
  -7980861.678 7        41.700          43.800
  21168845.352                                    21168831.184   -22276908.581 8
 -15932726.48946        48.400          37.700
  21894626.133                                    21894615.070    -5071490.903 5
  -3751382.09042        35.200          14.800
  23633018.063    23633008.234                    23633009.871        1631.670 5
   -120930.102 6        34.400          38.400
  24406927.445    24406917.383                    24406918.141    -3159458.770 6
  -2452563.009 6        37.100          37.900
 18  1  6  0  4 37.0000000  0  7G07G09G30G23G16G27G05
  21215980.711    21215968.305                    21215968.828   -16742295.402 8
 -15174842.629 8        51.600          48.600
  20020255.875    20020246.164                    20020246.336   -25754712.190 8
 -20061990.502 9        50.800          54.700
  22933680.289    22933670.695                    22933671.395    -8930844.489 6
  -7983130.882 7        41.700          43.700
  21169203.867                                    21169190.227   -22275026.693 8
 -15931260.08446        48.700          37.800
  21895055.648                                    21895044.352    -5069233.616 5
  -3749623.18542        34.400          14.800
  23632591.109    23632581.984                    23632583.621        -612.567 5
   -122678.861 6        34.500          38.300
  24406382.313    24406372.309                    24406373.125    -3162324.144 6
  -2454795.768 6        36.700          37.800
 18  1  6  0  4 38.0000000  0  7G07G09G30G23G16G27G05
  21215643.656    21215630.781                    21215631.246   -16744069.292 8
 -15176224.882 8        51.400          48.700
  20020251.672    20020241.961                    20020242.074   -25754733.830 8
 -20062007.360 9        51.300          54.400
  22933126.766    22933117.172                    22933117.285    -8933756.414 6
  -7985399.912 7        40.900          43.800
  21169561.656                                    21169548.191   -22273144.352 8
 -15929793.33246        48.700          37.800
  21895485.945                                    21895474.297    -5066975.728 5
  -3747863.78542        35.400          14.800
  23632163.781    23632154.539                    23632156.059       -2856.336 5
   -124427.254 6        34.500          38.300
  24405836.883    24405826.879                    24405827.695    -3165189.178 6
  -2457028.267 6        36.600          38.100
 18  1  6  0  4 39.0000000  0  7G07G09G30G23G16G27G05
  21215306.141    21215293.969                    21215294.258   -16745842.558 8
 -15177606.648 8        51.100          48.700
  20020248.195    20020237.898                    20020238.129   -25754754.627 8
 -20062023.572 9        51.600          54.500
  22932572.336    22932563.152                    22932563.324    -8936667.828 6
  -7987668.546 7        40.900          43.900
  21169921.008                                    21169906.664   -22271261.262 8
 -15928325.98546        49.100          38.200
  21895916.891                                    21895904.129    -5064716.904 6
  -3746103.66542        36.000          14.800
  23631737.461    23631727.691                    23631729.328       -5099.411 5
   -126175.103 6        34.800          38.400
  24405292.492    24405281.609                    24405282.777    -3168053.472 6
  -2459260.186 6        36.200          37.500
 18  1  6  0  4 40.0000000  0  7G07G09G30G23G16G27G05
  21214968.617    21214956.387                    21214956.852   -16747615.623 8
 -15178988.260 8        51.500          48.500
  20020244.359    20020233.945                    20020234.234   -25754775.005 8
 -20062039.449 9        50.800          54.300
  22932018.461    22932009.160                    22932009.098    -8939579.132 6
  -7989937.087 7        41.200          44.000
  21170278.766                                    21170265.242   -22269377.827 8
 -15926858.37846        48.000          37.900
  21896346.109                                    21896333.934    -5062457.668 5
  -3744343.20542        35.500          14.800
  23631310.781    23631300.953                    23631302.590       -7342.078 5
   -127922.633 6        34.600          38.600
  24404746.750    24404736.688                    24404737.563    -3170917.490 6
  -2461491.895 6        36.900          38.000
 18  1  6  0  4 41.0000000  0  7G07G09G30G23G16G27G05
  21214631.438    21214618.563                    21214619.086   -16749388.469 8
 -15180369.691 8        52.000          48.400
  20020240.555    20020230.258                    20020230.254   -25754794.972 8
 -20062055.006 9        51.000          54.300
  22931464.398    22931454.980                    22931455.035    -8942490.302 6
  -7992205.523 7        41.100          43.800
  21170637.305                                    21170623.137   -22267494.087 8
 -15925390.52846        48.200          38.100
  21896775.094                                    21896763.738    -5060197.955 5
  -3742582.37942        35.100          14.800
  23630884.273    23630874.504                    23630875.730       -9584.455 5
   -129669.924 6        35.000          38.800
  24404202.109    24404191.637                    24404192.570    -3173781.211 6
  -2463723.366 6        37.300          37.900
 18  1  6  0  4 42.0000000  0  7G07G09G30G23G16G27G05
  21214294.031    21214281.215                    21214281.797   -16751160.952 8
 -15181750.847 8        52.100          48.300
  20020237.203    20020226.145                    20020226.434   -25754814.381 8
 -20062070.130 9        50.500          54.300
  22930910.727    22930901.016                    22930901.422    -8945401.254 6
  -7994473.800 7        41.400          43.900
  21170996.406                                    21170982.238   -22265609.851 7
 -15923922.28946        47.800          38.200
  21897205.664                                    21897193.840    -5057937.594 5
  -3740821.06642        34.900          14.800
  23630458.086    23630448.023                    23630449.250      -11826.290 5
   -131416.806 6        34.800          38.900
  24403658.195    24403647.254                    24403648.305    -3176644.526 6
  -2465954.522 6        37.700          37.600
 18  1  6  0  4 43.0000000  0  7G07G09G30G23G16G27G05
  21213956.727    21213944.203                    21213944.609   -16752933.278 8
 -15183131.886 8        52.200          48.300
  20020233.148    20020222.676                    20020223.023   -25754833.414 8
 -20062084.958 9        50.700          54.200
  22930356.438    22930346.902                    22930347.191    -8948312.119 6
  -7996742.006 7        41.600          44.100
  21171354.875                                    21171340.297   -22263725.321 8
 -15922453.82346        48.400          38.200
  21897636.227                                    21897623.992    -5055676.830 5
  -3739059.42842        35.300          15.600
  23630031.141    23630021.195                    23630022.422      -14067.807 5
   -133163.438 6        35.000          39.200
  24403113.078    24403102.254                    24403103.305    -3179507.548 6
  -2468185.451 6        37.600          37.500
 18  1  6  0  4 44.0000000  0  7G07G09G30G23G16G27G05
  21213619.844    21213607.086                    21213607.609   -16754705.399 8
 -15184512.754 8        52.200          48.400
  20020230.055    20020219.406                    20020219.461   -25754852.069 8
 -20062099.494 9        50.500          54.100
  22929802.734    22929793.141                    22929793.195    -8951222.931 6
  -7999010.176 7        41.400          44.300
  21171713.266                                    21171698.570   -22261840.496 8
 -15920985.12946        48.500          38.000
  21898066.328                                    21898054.270    -5053415.650 5
  -3737297.46142        35.900          15.600
  23629605.742    23629594.859                    23629595.910      -16309.080 5
   -134909.885 6        35.200          39.000
  24402568.758    24402556.996                    24402558.398    -3182370.364 6
  -2470416.222 6        36.700          37.700
 18  1  6  0  4 45.0000000  0  7G07G09G30G23G16G27G05
  21213282.672    21213269.973                    21213270.438   -16756476.726 8
 -15185893.008 8        52.300          48.400
  20020226.328    20020215.914                    20020216.203   -25754869.729 8
 -20062113.255 9        50.700          54.200
  22929248.977    22929239.676                    22929239.555    -8954133.064 6
  -8001277.812 7        40.900          44.300
  21172071.461                                    21172057.762   -22259954.745 8
 -15919515.71046        48.600          37.900
  21898497.406                                    21898484.703    -5051153.395 5
  -3735534.67142        35.100          15.600
  23629178.141    23629168.664                    23629169.715      -18549.392 5
   -136655.584 6        35.500          38.700
  24402023.422    24402012.363                    24402013.648    -3185232.317 6
  -2472646.319 6        36.300          37.300
 18  1  6  0  4 46.0000000  0  7G07G09G30G23G16G27G05
  21212945.281    21212933.344                    21212933.164   -16758247.889 8
 -15187273.129 8        52.000          48.600
  20020223.055    20020212.875                    20020212.930   -25754886.977 8
 -20062126.689 9        51.000          54.200
  22928694.727    22928685.895                    22928685.832    -8957043.109 6
  -8003545.371 7        41.500          44.500
  21172430.609                                    21172416.852   -22258068.688 8
 -15918046.06246        48.700          37.900
  21898927.211                                    21898915.445    -5048890.658 5
  -3733771.49542        35.900          16.300
  23628752.617    23628742.555                    23628743.195      -20789.383 5
   -138401.030 6        35.800          39.000
  24401479.297    24401467.535                    24401469.055    -3188093.975 6
  -2474876.175 6        36.700          37.200
 18  1  6  0  4 47.0000000  0  7G07G09G30G23G16G27G05
  21212608.609    21212596.555                    21212596.375   -16760018.920 8
 -15188653.156 8        52.100          48.400
  20020219.555    20020209.258                    20020209.371   -25754903.949 8
 -20062139.919 9        50.800          54.100
  22928141.164    22928132.156                    22928132.152    -8959953.144 6
  -8005812.921 7        41.700          44.300
  21172789.844                                    21172775.852   -22256182.414 8
 -15916576.23346        48.600          37.900
  21899358.445                                    21899345.918    -5046627.607 6
  -3732008.08842        36.200          16.300
  23628326.008    23628316.121                    23628316.879      -23029.164 5
   -140146.299 6        35.900          38.700
  24400934.852    24400922.855                    24400924.609    -3190955.494 6
  -2477105.929 6        37.100          37.300
 18  1  6  0  4 48.0000000  0  7G07G09G30G23G16G27G05
  21212271.609    21212259.320                    21212259.258   -16761789.445 8
 -15190032.788 8        52.200          48.500
  20020216.836    20020206.246                    20020206.418   -25754920.185 8
 -20062152.562 9        50.700          54.100
  22927587.758    22927577.930                    22927578.160    -8962862.802 6
  -8008080.190 7        41.400          44.300
  21173149.133                                    21173135.141   -22254295.505 8
 -15915105.91546        48.800          37.800
  21899788.555                                    21899776.730    -5044363.811 6
  -3730244.06742        36.200          16.900
  23627899.852    23627890.258                    23627891.191      -25268.271 6
   -141891.048 6        36.200          38.600
  24400389.828    24400378.242                    24400379.996    -3193816.391 6
  -2479335.201 6        37.100          37.500
 18  1  6  0  4 49.0000000  0  7G07G09G30G23G16G27G05
  21211934.805    21211922.223                    21211922.453   -16763559.900 8
 -15191412.363 8        52.100          48.400
  20020213.656    20020203.066                    20020203.297   -25754936.156 8
 -20062165.009 9        51.000          54.200
  22927034.500    22927024.613                    22927024.727    -8965772.448 6
  -8010347.445 7        41.300          44.400
  21173507.711                                    21173493.895   -22252408.394 8
 -15913635.44446        49.000          37.800
  21900219.672                                    21900207.203    -5042099.661 6
  -3728479.79142        36.100          16.300
  23627472.719    23627463.477                    23627464.645      -27507.172 6
   -143635.639 6        36.200          38.200
  24399845.547    24399833.961                    24399835.480    -3196677.139 6
  -2481564.355 6        37.600          37.300
 18  1  6  0  4 50.0000000  0  7G07G09G30G23G16G27G05
  21211597.828    21211586.008                    21211585.770   -16765329.808 8
 -15192791.511 8        52.000          48.500
  20020210.531    20020200.293                    20020200.641   -25754951.387 8
 -20062176.876 9        51.200          54.300
  22926480.977    22926471.090                    22926471.027    -8968681.688 6
  -8012614.382 7        41.500          44.500
  21173866.914                                    21173853.273   -22250520.629 8
 -15912164.45946        49.300          38.100
  21900649.391                                    21900638.328    -5039834.701 5
  -3726714.88842        35.900          16.300
  23627047.820    23627038.227                    23627039.102      -29745.458 6
   -145379.764 6        36.800          37.700
  24399302.109    24399289.879                    24399291.281    -3199537.281 6
  -2483793.042 6        37.400          37.600
 18  1  6  0  4 51.0000000  0  7G07G09G30G23G16G27G05
  21211260.797    21211249.035                    21211249.207   -16767099.396 8
 -15194170.411 8        52.000          48.700
  20020207.820    20020197.523                    20020197.754   -25754966.108 8
 -20062188.345 9        51.400          54.400
  22925927.266    22925917.730                    22925917.727    -8971590.730 6
  -8014881.168 7        41.400          44.500
  21174226.039                                    21174212.867   -22248632.424 8
 -15910693.13146        48.700          38.200
  21901080.633                                    21901069.043    -5037569.195 6
  -3724949.56842        36.100          16.300
  23626622.531    23626611.648                    23626612.816      -31983.230 6
   -147123.480 6        36.200          37.900
  24398757.367    24398745.547                    24398746.949    -3202397.045 6
  -2486021.422 6        37.900          37.500
 18  1  6  0  4 52.0000000  0  7G07G09G30G23G16G27G05
  21210924.219    21210911.871                    21210912.336   -16768868.819 8
 -15195549.183 8        51.900          48.600
  20020204.750    20020195.273                    20020195.504   -25754980.441 8
 -20062199.520 9        51.100          54.400
  22925373.117    22925364.227                    22925364.223    -8974499.688 6
  -8017147.894 7        41.300          44.200
  21174585.586                                    21174572.238   -22246743.933 8
 -15909221.58746        48.300          38.000
  21901512.102                                    21901500.453    -5035303.231 6
  -3723183.88342        36.100          16.300
  23626196.047    23626185.691                    23626187.152      -34220.731 6
   -148866.987 6        36.000          37.800
  24398213.352    24398201.297                    24398202.816    -3205256.582 6
  -2488249.632 6        37.900          37.400
 18  1  6  0  4 53.0000000  0  7G07G09G30G23G16G27G05
  21210587.703    21210575.883                    21210576.055   -16770637.818 8
 -15196927.623 8        51.900          48.600
  20020202.445    20020192.383                    20020192.438   -25754994.155 8
 -20062210.202 9        51.100          54.400
  22924819.508    22924810.676                    22924810.496    -8977408.351 6
  -8019414.385 7        41.300          44.300
  21174945.289                                    21174931.590   -22244854.900 8
 -15907749.60846        48.500          37.800
  21901943.188                                    21901931.480    -5033036.577 5
  -3721417.67042        34.800          16.300
  23625770.148    23625759.734                    23625761.313      -36457.692 6
   -150610.071 6        36.100          37.900
  24397669.695    24397657.289                    24397658.691    -3208115.565 6
  -2490477.412 6        37.700          37.500
 18  1  6  0  4 54.0000000  0  7G07G09G30G23G16G27G05
  21210250.992    21210238.879                    21210239.109   -16772406.606 8
 -15198305.900 8        52.000          48.800
  20020199.789    20020189.961                    20020190.191   -25755007.459 8
 -20062220.565 9        51.200          54.400
  22924266.047    22924257.273                    22924257.035    -8980316.893 6
  -8021680.783 7        40.900          44.400
  21175304.547                                    21175290.848   -22242965.540 8
 -15906277.38146        48.800          37.700
  21902374.203                                    21902363.199    -5030769.459 5
  -3719651.09242        34.600          17.400
  23625344.695    23625334.281                    23625335.801      -38694.261 6
   -152352.848 6        36.900          38.000
  24397124.844    24397113.844                    24397115.012    -3210974.338 6
  -2492705.021 6        36.000          37.300
 18  1  6  0  4 55.0000000  0  7G07G09G30G23G16G27G05
  21209914.555    21209902.617                    21209902.613   -16774174.968 8
 -15199683.847 8        52.100          48.800
  20020197.172    20020187.344                    20020187.516   -25755020.141 8
 -20062230.449 9        51.200          54.600
  22923712.492    22923703.660                    22923703.422    -8983225.146 6
  -8023946.952 7        41.500          44.500
  21175664.188                                    21175650.547   -22241075.616 8
 -15904804.71546        49.100          38.000
  21902804.891                                    21902794.824    -5028501.668 5
  -3717883.99942        35.200          16.900
  23624920.141    23624909.199                    23624910.602      -40930.362 6
   -154095.263 6        36.900          37.600
  24396581.328    24396569.566                    24396570.734    -3213832.567 5
  -2494932.222 6        35.700          37.700
 18  1  6  0  4 56.0000000  0  7G07G09G30G23G16G27G05
  21209578.188    21209566.484                    21209566.129   -16775942.925 8
 -15201061.476 8        52.300          49.100
  20020195.063    20020185.352                    20020185.230   -25755032.204 8
 -20062239.852 9        50.900          54.500
  22923159.148    22923150.434                    22923150.254    -8986133.099 6
  -8026212.887 7        40.400          44.500
  21176024.180                                    21176010.480   -22239185.186 8
 -15903331.65346        49.100          38.200
  21903237.141                                    21903226.664    -5026233.266 5
  -3716116.40242        34.600          16.900
  23624494.375    23624483.492                    23624484.895      -43165.827 6
   -155837.174 6        37.000          37.500
  24396037.875    24396025.645                    24396026.695    -3216690.353 6
  -2497159.070 6        36.900          37.800
 18  1  6  0  4 57.0000000  0  7G07G09G30G23G16G27G05
  21209241.484    21209229.840                    21209229.660   -16777710.732 8
 -15202438.988 8        52.100          49.300
  20020192.820    20020182.992                    20020183.105   -25755043.920 8
 -20062248.985 9        51.000          54.500
  22922605.844    22922597.305                    22922596.949    -8989040.968 6
  -8028478.742 7        39.900          44.300
  21176384.078                                    21176370.145   -22237294.481 8
 -15901858.37946        48.900          38.100
  21903668.430                                    21903658.012    -5023964.380 5
  -3714348.44942        34.300          16.900
  23624068.336    23624057.980                    23624059.383      -45401.047 6
   -157578.901 6        36.700          37.600
  24395494.063    24395482.535                    24395483.176    -3219547.870 6
  -2499385.707 6        37.300          37.900
 18  1  6  0  4 58.0000000  0  7G07G09G30G23G16G27G05
  21208905.445    21208893.449                    21208893.621   -16779478.379 8
 -15203816.377 8        52.300          49.400
  20020190.773    20020180.770                    20020180.941   -25755055.290 8
 -20062257.838 9        51.100          54.400
  22922052.680    22922043.906                    22922043.668    -8991948.846 6
  -8030744.624 7        39.800          44.300
  21176743.906                                    21176730.207   -22235403.510 8
 -15900384.89346        49.000          38.300
  21904100.563                                    21904089.676    -5021695.113 5
  -3712580.19342        33.700          16.900
  23623642.930    23623632.750                    23623633.977      -47636.003 6
   -159320.427 6        36.800          37.700
  24394950.773    24394938.895                    24394939.535    -3222405.189 6
  -2501612.186 6        37.300          37.900
 18  1  6  0  4 59.0000000  0  7G07G09G30G23G16G27G05
  21208569.398    21208557.578                    21208557.516   -16781245.423 8
 -15205193.295 8        52.300          49.600
  20020188.898    20020178.660                    20020178.773   -25755065.826 8
 -20062266.053 9        51.000          54.400
  22921499.719    22921490.652                    22921490.648    -8994856.184 6
  -8033010.072 7        40.400          44.500
  21177103.742                                    21177090.102   -22233511.789 8
 -15898910.82246        49.200          38.500
  21904531.938                                    21904521.695    -5019425.036 5
  -3710811.29042        34.200          16.900
  23623217.734    23623207.906                    23623209.191      -49870.208 6
   -161061.368 6        37.000          38.100
  24394407.258    24394395.496                    24394396.078    -3225261.805 6
  -2503838.124 6        37.900          38.000
 18  1  6  0  5  0.0000000  0  7G07G09G30G23G16G27G05
  21208232.930    21208221.109                    21208221.105   -16783012.195 8
 -15206569.994 8        52.300          49.700
  20020187.094    20020176.680                    20020176.676   -25755075.910 8
 -20062273.908 9        51.200          54.400
  22920945.930    22920937.215                    22920936.918    -8997763.361 6
  -8035275.405 7        40.500          44.500
  21177463.672                                    21177450.031   -22231619.716 8
 -15897436.49046        49.300          38.300
  21904963.844                                    21904953.543    -5017154.389 5
  -3709041.94642        34.200          16.900
  23622792.516    23622783.273                    23622783.855      -52104.030 6
   -162802.009 6        37.700          38.300
  24393863.695    24393851.641                    24393852.223    -3228118.092 6
  -2506063.792 6        36.800          38.100
 18  1  6  0  5  1.0000000  0  7G07G09G30G23G16G27G05
  21207897.102    21207884.754                    21207884.750   -16784778.635 8
 -15207946.442 8        52.300          49.600
  20020185.219    20020175.039                    20020175.152   -25755085.490 8
 -20062281.372 9        51.400          54.400
  22920392.563    22920384.082                    22920383.609    -9000670.325 6
  -8037540.564 7        40.600          44.600
  21177823.828                                    21177810.246   -22229727.195 8
 -15895961.80146        49.900          38.400
  21905397.164                                    21905385.809    -5014883.176 5
  -3707272.16842        33.700          16.900
  23622368.414    23622358.059                    23622358.465      -54337.407 6
   -164542.293 6        37.700          37.900
  24393320.094    24393308.215                    24393308.797    -3230973.965 6
  -2508289.142 6        37.400          37.800
 18  1  6  0  5  2.0000000  0  7G07G09G30G23G16G27G05
  21207561.023    21207549.027                    21207548.906   -16786544.810 8
 -15209322.681 8        52.300          49.800
  20020183.461    20020172.871                    20020173.336   -25755094.560 8
 -20062288.439 9        51.500          54.400
  22919839.969    22919831.020                    22919830.898    -9003577.168 6
  -8039805.643 7        40.800          44.300
  21178184.422                                    21178170.371   -22227834.264 8
 -15894486.78646        49.900          38.300
  21905829.211                                    21905818.383    -5012611.426 5
  -3705501.95342        33.900          16.300
  23621943.727    23621933.605                    23621933.836      -56570.344 6
   -166282.243 6        37.600          37.900
  24392777.234    24392765.063                    24392765.645    -3233829.480 6
  -2510514.217 6        37.300          37.900
 18  1  6  0  5  3.0000000  0  7G07G09G30G23G16G27G05
  21207224.828    21207212.832                    21207212.770   -16788310.684 8
 -15210698.689 8        52.500          49.700
  20020181.633    20020171.453                    20020171.566   -25755103.161 8
 -20062295.138 9        52.100          54.300
  22919286.531    22919277.758                    22919277.402    -9006483.781 6
  -8042070.537 7        40.800          44.400
  21178544.641                                    21178530.355   -22225940.920 8
 -15893011.45746        49.900          38.300
  21906261.633                                    21906250.570    -5010339.156 5
  -3703731.32842        34.600          16.300
  23621518.297    23621508.820                    23621508.816      -58802.868 6
   -168021.872 6        37.900          38.100
  24392234.148    24392221.449                    24392221.973    -3236684.695 6
  -2512739.061 6        36.700          37.800
 18  1  6  0  5  4.0000000  0  7G07G09G30G23G16G27G05
  21206888.727    21206877.023                    21206876.902   -16790076.165 8
 -15212074.386 8        52.300          49.700
  20020180.438    20020169.906                    20020170.020   -25755111.173 8
 -20062301.386 9        52.300          54.300
  22918733.766    22918724.875                    22918724.520    -9009390.129 6
  -8044335.226 7        41.100          44.300
  21178905.039                                    21178891.164   -22224047.091 8
 -15891535.74846        50.000          38.200
  21906693.664                                    21906682.953    -5008066.245 5
  -3701960.24342        34.600          16.300
  23621093.656    23621084.063                    23621084.176      -61034.864 6
   -169761.088 6        37.600          38.300
  24391690.766    24391678.066                    24391678.824    -3239539.375 6
  -2514963.485 6        36.200          37.900
 18  1  6  0  5  5.0000000  0  7G07G09G30G23G16G27G05
  21206552.797    21206541.094                    21206541.148   -16791841.354 8
 -15213449.859 8        52.000          49.400
  20020178.797    20020168.617                    20020168.848   -25755118.658 8
 -20062307.215 9        51.200          54.400
  22918180.414    22918171.816                    22918171.695    -9012296.274 6
  -8046599.755 7        40.900          44.100
  21179265.469                                    21179251.359   -22222152.830 8
 -15890059.70146        49.500          38.300
  21907127.023                                    21907116.020    -5005792.738 5
  -3700188.70942        34.600          16.900
  23620669.102    23620659.566                    23620659.563      -63266.463 6
   -171499.984 6        37.800          38.100
  24391147.977    24391135.102                    24391135.566    -3242393.767 6
  -2517187.693 6        36.400          38.100
 18  1  6  0  5  6.0000000  0  7G07G09G30G23G16G27G05
  21206217.125    21206205.129                    21206205.066   -16793606.199 8
 -15214825.063 8        51.800          49.300
  20020177.422    20020167.242                    20020167.238   -25755125.636 8
 -20062312.652 9        51.100          54.400
  22917627.461    22917618.805                    22917618.684    -9015202.217 6
  -8048864.122 7        41.200          44.400
  21179626.430                                    21179611.969   -22220258.117 8
 -15888583.29546        49.600          38.500
  21907559.461                                    21907548.398    -5003518.708 5
  -3698416.74842        35.000          17.400
  23620244.422    23620234.887                    23620235.059      -65497.534 6
   -173238.480 6        37.800          38.100
  24390604.180    24390592.242                    24390592.707    -3245247.632 5
  -2519411.470 6        35.900          37.600
 18  1  6  0  5  7.0000000  0  7G07G09G30G23G16G27G05
  21205881.461    21205869.230                    21205869.285   -16795371.055 8
 -15216200.272 8        51.900          49.500
  20020176.086    20020166.199                    20020166.195   -25755132.398 8
 -20062317.917 9        51.300          54.300
  22917074.836    22917065.828                    22917065.766    -9018108.257 6
  -8051128.566 7        41.100          44.200
  21179986.766                                    21179972.305   -22218363.297 8
 -15887106.81746        50.000          38.300
  21907992.523                                    21907981.168    -5001244.365 5
  -3696644.51242        35.000          17.400
  23619819.375    23619810.309                    23619810.363      -67728.543 6
   -174976.932 6        37.900          37.900
  24390060.461    24390048.641                    24390049.105    -3248101.484 6
  -2521635.247 6        36.000          37.600
 18  1  6  0  5  8.0000000  0  7G07G09G30G23G16G27G05
  21205545.641    21205533.527                    21205533.699   -16797135.128 8
 -15217574.876 8        51.400          49.500
  20020175.086    20020164.848                    20020165.078   -25755138.174 8
 -20062322.423 9        51.200          54.200
  22916522.063    22916512.703                    22916512.641    -9021013.608 6
  -8053392.471 7        41.400          44.600
  21180347.414                                    21180333.598   -22216467.580 8
 -15885629.63246        50.300          38.500
  21908424.320                                    21908414.137    -4998969.058 5
  -3694871.53342        34.600          17.400
  23619395.867    23619385.863                    23619385.742      -69958.616 6
   -176714.646 6        38.400          37.600
  24389517.891    24389505.602                    24389506.359    -3250954.530 6
  -2523858.405 6        36.300          38.200
 18  1  6  0  5  9.0000000  0  7G07G09G30G23G16G27G05
  21205209.891    21205197.719                    21205198.008   -16798898.871 8
 -15218949.223 8        51.800          49.300
  20020173.945    20020163.766                    20020164.113   -25755143.417 8
 -20062326.508 9        51.200          54.200
  22915969.266    22915960.258                    22915959.961    -9023918.745 6
  -8055656.216 7        41.500          44.600
  21180708.547                                    21180694.145   -22214571.390 8
 -15884152.08446        50.200          38.500
  21908858.570                                    21908847.508    -4996693.106 5
  -3693098.07142        34.600          17.400
  23618971.781    23618961.426                    23618961.480      -72188.207 6
   -178451.989 6        38.000          37.500
  24388974.914    24388962.742                    24388963.676    -3253807.132 6
  -2526081.201 6        36.800          37.900
 18  1  6  0  5 10.0000000  0  7G07G09G30G23G16G27G05
  21204874.414    21204862.359                    21204862.590   -16800662.676 8
 -15220323.617 8        52.100          49.300
  20020172.867    20020163.508                    20020163.504   -25755148.554 8
 -20062330.503 9        51.500          54.100
  22915416.617    22915407.551                    22915406.961    -9026824.066 6
  -8057920.095 7        41.700          44.600
  21181069.602                                    21181054.848   -22212675.170 8
 -15882674.50546        49.900          38.700
  21909291.977                                    21909280.563    -4994416.961 5
  -3691324.46242        34.700          17.400
  23618547.422    23618536.832                    23618537.121      -74417.754 6
   -180189.301 6        38.600          37.200
  24388432.875    24388420.410                    24388421.109    -3256659.699 6
  -2528303.979 6        37.000          37.800
 18  1  6  0  5 11.0000000  0  7G07G09G30G23G16G27G05
  21204538.406    21204526.879                    21204527.168   -16802426.076 8
 -15221697.689 8        52.100          49.000
  20020171.813    20020161.867                    20020162.039   -25755153.059 8
 -20062334.009 9        51.300          54.100
  22914863.664    22914854.539                    22914854.125    -9029729.079 6
  -8060183.745 7        41.700          44.500
  21181429.938                                    21181415.887   -22210778.418 8
 -15881196.51446        49.600          38.300
  21909725.609                                    21909713.844    -4992140.212 5
  -3689550.40042        34.600          16.900
  23618122.898    23618112.602                    23618112.949      -76646.736 6
   -181926.170 6        38.200          37.200
  24387889.898    24387877.434                    24387878.074    -3259511.802 6
  -2530526.399 6        37.300          38.000
 18  1  6  0  5 12.0000000  0  7G07G09G30G23G16G27G05
  21204203.305    21204190.898                    21204191.363   -16804189.050 8
 -15223071.435 8        52.400          48.900
  20020171.156    20020161.211                    20020161.383   -25755156.947 8
 -20062337.043 9        51.200          54.100
  22914310.617    22914302.020                    22914301.547    -9032633.772 6
  -8062447.135 7        41.600          44.500
  21181791.102                                    21181776.934   -22208881.130 8
 -15879718.11146        49.500          38.300
  21910159.141                                    21910147.023    -4989862.702 5
  -3687775.71242        35.400          17.400
  23617699.063    23617688.531                    23617688.879      -78875.203 6
   -183662.630 6        37.900          37.200
  24387347.484    24387335.254                    24387335.777    -3262363.402 6
  -2532748.425 6        37.500          37.900
 18  1  6  0  5 13.0000000  0  7G07G09G30G23G16G27G05
  21203867.828    21203855.539                    21203855.945   -16805951.753 8
 -15224444.964 8        52.100          48.800
  20020170.273    20020160.504                    20020160.734   -25755160.342 8
 -20062339.690 9        50.800          54.100
  22913757.383    22913749.254                    22913749.016    -9035538.303 6
  -8064710.399 7        41.700          44.300
  21182152.203                                    21182137.742   -22206983.423 8
 -15878239.38246        49.500          38.300
  21910592.805                                    21910581.098    -4987584.697 6
  -3686000.63242        36.000          17.400
  23617275.195    23617264.723                    23617265.012      -81103.265 6
   -185398.777 6        38.600          36.900
  24386804.430    24386792.434                    24386792.957    -3265214.659 6
  -2534970.185 6        37.600          38.300
 18  1  6  0  5 14.0000000  0  7G07G09G30G23G16G27G05
  21203532.680    21203520.332                    21203520.680   -16807714.110 8
 -15225818.241 8        52.300          48.700
  20020169.813    20020160.102                    20020160.215   -25755163.226 8
 -20062341.935 9        50.300          54.000
  22913204.914    22913195.906                    22913196.195    -9038442.598 6
  -8066973.488 7        41.400          44.200
  21182513.344                                    21182499.352   -22205085.295 8
 -15876760.32346        49.500          38.400
  21911026.109                                    21911014.813    -4985306.125 5
  -3684225.12742        35.600          17.400
  23616851.211    23616840.855                    23616841.027      -83330.818 6
   -187134.526 6        38.600          37.100
  24386262.430    24386249.848                    24386250.430    -3268065.560 6
  -2537191.669 6        37.500          38.300
 18  1  6  0  5 15.0000000  0  7G07G09G30G23G16G27G05
  21203197.414    21203185.125                    21203185.355   -16809476.124 8
 -15227191.237 8        52.400          48.800
  20020169.320    20020159.609                    20020159.723   -25755165.525 8
 -20062343.724 9        50.300          54.100
  22912652.219    22912643.504                    22912643.441    -9041346.663 6
  -8069236.394 7        41.100          44.100
  21182874.711                                    21182860.133   -22203186.660 8
 -15875280.86546        48.900          38.400
  21911459.805                                    21911447.922    -4983026.943 5
  -3682449.13842        34.800          17.400
  23616427.063    23616417.059                    23616417.055      -85557.879 6
   -188869.897 6        38.100          37.000
  24385719.531    24385707.301                    24385708.059    -3270916.000 6
  -2539412.786 6        37.400          37.800
