     2.10           OBSERVATION DATA    M (MIXED)           RINEX VERSION / TYPE
RTKCONV 2.4.3 b33                       20210424 192718 UTC PGM / RUN BY / DATE 
log: D:\Study\PhD Research\Data\ublox\2021.4.24-kinematic\  COMMENT             
format: u-blox                                              COMMENT             
                                                            MARKER NAME         
                                                            MARKER NUMBER       
                                                            OBSERVER / AGENCY   
                                                            REC # / TYPE / VERS 
                                                            ANT # / TYPE        
   856861.9185 -4528427.8407  4394523.6429                  APPROX POSITION XYZ 
        0.0000        0.0000        0.0000                  ANTENNA: DELTA H/E/N
     1     1                                                WAVELENGTH FACT L1/2
     8    C1    L1    D1    S1    C2    L2    D2    S2      # / TYPES OF OBSERV 
  2021     4    24    15     3   14.9940000     GPS         TIME OF FIRST OBS   
  2021     4    24    16     2   50.9950000     GPS         TIME OF LAST OBS    
                                                            END OF HEADER       
 21  4 24 15 12 14.9940000  0 11G 4G 7G 8G 9G16G21G27G30G18G14G26
  21914016.712   115158915.957       -4084.900          41.000    21914011.507  
  89734223.269       -3182.898          42.000  
  19246456.813   101140816.402        1342.593          45.000    19246449.336  
  78811005.865        1046.193          38.000  
  18612225.555    97807899.601         382.495          46.000    18612222.142  
  76213938.933         298.023          42.000  
  20435249.076   107387967.045       -2939.829          43.000    20435247.372  
  83678920.140       -2290.687          44.000  
  21493214.507   112947587.646       -3502.643          45.000                  
                                                
  22352400.897   117462675.795        2641.752          37.000                  
                                                
  19211573.914   100957496.016       -2162.478          48.000    19211568.147  
  78668153.709       -1685.088          42.000  
  22001778.396   115620125.961        2761.334          44.000    22001775.360  
  90093594.242        2151.776          39.000  
  23796102.128                       -2382.810          27.000                  
                                                
  23704829.458                        2600.970          30.000    23704830.493  
  97067300.641        2026.065          32.000  
                                                                  23630545.098  
              3      -2776.693          21.000  
 21  4 24 15 12 15.9940000  0 11G 4G 7G 8G 9G16G21G27G30G18G14G26
  21914793.883   115163000.462       -4084.125          41.000    21914788.776  
  89737406.008       -3182.416          42.000  
  19246201.315   101139473.561        1343.425          45.000    19246193.889  
  78809959.508        1046.609          38.000  
  18612152.757    97807517.050         382.818          46.000    18612149.389  
  76213640.833         298.476          42.000  
  20435808.466   107390906.668       -2939.319          43.000    20435806.817  
  83681210.757       -2290.366          44.000  
  21493880.959   112951089.807       -3501.644          45.000                  
                                                
  22351897.993   117460033.375        2642.985          37.000                  
                                                
  19211985.422   100959658.385       -2162.072          48.000    19211979.793  
  78669838.672       -1684.651          42.000  
  22001252.855   115617364.134        2762.695          44.000    22001249.809  
  90091442.163        2152.625          38.000  
  23796551.548                       -2381.534          27.000                  
                                                
  23704334.439                        2601.674          30.000    23704335.337  
  97065273.940        2027.380          32.000  
                                                                  23631223.618  
              3      -2780.730          21.000  
 21  4 24 15 12 16.9940000  0 11G 4G 7G 8G 9G16G21G27G30G18G14G26
  21915570.891   115167083.807       -4083.118          40.000    21915565.784  
  89740587.824       -3181.506          42.000  
  19245945.647   101138129.802        1344.080          45.000    19245938.308  
  78808912.411        1047.338          38.000  
  18612079.721    97807133.837         383.348          46.000    18612076.371  
  76213342.245         298.359          42.000  
  20436367.682   107393845.459       -2938.712          43.000    20436366.111  
  83683500.719       -2289.912          44.000  
  21494547.138   112954590.766       -3500.595          45.000                  
                                                
  22351394.990   117457389.749        2643.959          37.000                  
                                                
  19212396.861   100961820.057       -2161.462          48.000    19212391.288  
  78671523.095       -1684.316          42.000  
  22000727.033   115614601.142        2763.336          44.000    22000724.036  
  90089289.197        2152.954          39.000  
  23797005.531                       -2381.119          28.000                  
                                                
  23703839.347                        2602.699          30.000    23703839.858  
  97063246.294        2028.154          32.000  
                                                                  23631901.563  
              3      -2761.212          21.000  
 21  4 24 15 12 17.9940000  0 11G 4G 7G 8G 9G16G21G27G30G18G14G26
  21916347.729   115171165.960       -4081.573          40.000    21916342.753  
  89743768.731       -3180.646          42.000  
  19245689.784   101136785.080        1345.195          45.000    19245682.369  
  78807864.579        1048.304          38.000  
  18612006.774    97806749.960         384.021          47.000    18612003.256  
  76213043.101         299.496          41.000  
  20436926.733   107396783.376       -2937.469          43.000    20436925.189  
  83685790.008       -2289.042          44.000  
  21495213.189   112958090.467       -3499.249          45.000                  
                                                
  22350891.671   117454744.888        2645.302          38.000                  
                                                
  19212807.950   100963981.008       -2160.691          48.000    19212802.591  
  78673206.962       -1683.737          42.000  
  22000200.978   115611836.915        2764.691          44.000    22000197.985  
  90087135.239        2154.242          38.000  
  23797457.329                       -2380.595          27.000                  
                                                
  23703343.978                        2603.554          31.000    23703344.162  
                      2028.072          31.000  
                                                                  23632578.592  
              3      -2772.595          21.000  
 21  4 24 15 12 18.9940000  0 11G 4G 7G 8G 9G16G21G27G30G18G14G26
  21917124.347   115175247.189       -4081.115          40.000    21917119.384  
  89746948.901       -3180.042          42.000  
  19245433.800   101135439.630        1345.646          45.000    19245426.250  
  78806816.200        1048.337          38.000  
  18611933.554    97806365.655         384.300          47.000    18611930.131  
  76212743.655         299.486          42.000  
  20437485.716   107399720.674       -2937.180          43.000    20437484.283  
  83688078.817       -2288.730          44.000  
  21495879.067   112961589.187       -3498.534          45.000                  
                                                
  22350388.150   117452099.010        2646.168          38.000                  
                                                
  19213219.089   100966141.458       -2160.359          48.000    19213213.725  
  78674890.416       -1683.450          42.000  
  21999674.854   115609071.715        2765.417          44.000    21999671.701  
  90084980.543        2154.767          38.000  
  23797910.224                       -2380.201          27.000                  
                                                
  23702848.349                        2604.535          30.000    23702848.232  
                      2030.530          31.000  
                                                                  23633254.816  
              3      -2766.135          23.000  
 21  4 24 15 12 19.9940000  0 11G 4G 7G 8G 9G16G21G27G30G18G14G26
  21917900.776   115179327.998       -4080.432          40.000    21917895.980  
  89750128.771       -3179.755          42.000  
  19245177.709   101134094.007        1345.729          45.000    19245170.053  
  78805767.643        1048.763          38.000  
  18611860.471    97805981.468         384.057          47.000    18611857.089  
  76212444.287         299.280          42.000  
  20438044.707   107402657.913       -2937.438          43.000    20438043.244  
  83690367.557       -2288.812          44.000  
  21496544.727   112965087.449       -3498.145          45.000                  
                                                
  22349884.591   117449452.666        2646.814          38.000                  
                                                
  19213630.201   100968301.981       -2160.664          48.000    19213624.856  
  78676573.936       -1683.499          42.000  
  21999148.669   115606306.063        2765.900          44.000    21999145.409  
  90082825.497        2155.121          38.000  
  23798363.421                       -2380.418          26.000                  
                                                
  23702352.683                        2604.829          30.000    23702352.332  
                      2030.455          31.000  
                                                                  23633931.619  
              3      -2771.035          23.000  
 21  4 24 15 12 20.9940000  0 11G 4G 7G 8G 9G16G21G27G30G18G14G26
  21918677.226   115183408.123       -4079.358          40.000    21918672.345  
  89753308.094       -3179.193          42.000  
  19244921.584   101132747.919        1346.516          45.000    19244913.954  
  78804718.744        1049.129          38.000  
  18611787.350    97805597.081         384.587          47.000    18611783.935  
  76212144.785         299.455          42.000  
  20438603.508   107405594.753       -2936.437          44.000    20438601.994  
  83692656.004       -2288.293          44.000  
  21497210.239   112968584.947       -3497.126          45.000                  
                                                
  22349380.832   117446805.589        2647.523          38.000                  
                                                
  19214041.191   100970462.244       -2159.962          48.000    19214035.945  
  78678257.263       -1683.156          42.000  
  21998622.234   115603539.688        2766.907          44.000    21998618.969  
  90080669.876        2155.902          38.000  
  23798818.810                       -2379.514          26.000                  
                                                
  23701856.737                        2606.006          30.000    23701856.178  
                      2030.670          31.000  
                                                                  23634608.975  
              3      -2777.090          22.000  
 21  4 24 15 12 21.9940000  0 11G 4G 7G 8G 9G16G21G27G30G18G14G26
  21919453.504   115187487.350       -4079.108          41.000    21919448.543  
  89756486.691       -3178.467          41.000  
  19244665.250   101131401.131        1346.929          45.000    19244657.600  
  78803669.307        1049.468          38.000  
  18611714.075    97805212.314         384.697          47.000    18611710.747  
  76211844.942         299.803          42.000  
  20439162.334   107408530.987       -2936.099          44.000    20439160.789  
  83694943.983       -2287.998          44.000  
  21497875.609   112972081.458       -3496.165          45.000                  
                                                
  22348877.015   117444157.507        2648.349          38.000                  
                                                
  19214452.251   100972622.066       -2159.847          48.000    19214446.929  
  78679940.239       -1683.013          42.000  
  21998095.617   115600772.367        2767.554          44.000    21998092.355  
  90078513.526        2156.433          38.000  
  23799272.045                       -2379.311          27.000                  
                                                
  23701360.684                        2607.577          30.000    23701359.908  
                      2030.741          31.000  
                                                                  23635285.089  
              3      -2767.554          22.000  
 21  4 24 15 12 22.9940000  0 11G 4G 7G 8G 9G16G21G27G30G18G14G26
  21920229.628   115191566.240       -4078.589          41.000    21920224.769  
  89759665.046       -3178.320          41.000  
  19244408.888   101130054.248        1346.833          45.000    19244401.331  
  78802619.791        1049.465          38.000  
  18611640.942    97804827.717         384.601          47.000    18611637.635  
  76211545.260         299.465          42.000  
  20439721.113   107411467.254       -2936.292          44.000    20439719.594  
  83697231.983       -2288.133          44.000  
  21498540.824   112975577.617       -3495.897          45.000                  
                                                
  22348372.921   117441509.038        2649.052          37.000                  
                                                
  19214863.329   100974782.020       -2159.927          48.000    19214858.077  
  78681623.324       -1682.951          42.000  
  21997568.905   115598004.688        2767.889          44.000    21997565.641  
  90076356.902        2156.873          39.000  
  23799726.060                       -2379.623          27.000                  
                                                
  23700864.570                        2607.789          29.000    23700863.788  
                      2031.890          31.000  
                                                                  23635963.236  
              3      -2762.713          22.000  
 21  4 24 15 12 23.9940000  0 11G 4G 7G 8G 9G16G21G27G30G18G14G26
  21921005.729   115195644.747       -4078.015          41.000    21921000.878  
  89762843.091       -3177.393          41.000  
  19244152.525   101128707.192        1347.385          45.000    19244145.034  
  78801570.129        1049.815          38.000  
  18611567.776    97804443.241         384.504          47.000    18611564.538  
  76211245.677         299.562          42.000  
  20440279.863   107414403.428       -2935.935          44.000    20440278.448  
  83699519.898       -2287.850          44.000  
  21499206.051   112979073.314       -3495.328          45.000                  
                                                
  22347868.800   117438860.142        2649.290          38.000                  
                                                
  19215274.342   100976942.022       -2159.856          48.000    19215269.139  
  78683306.441       -1682.968          42.000  
  21997042.188   115595236.573        2768.390          44.000    21997038.891  
  90074199.924        2157.080          39.000  
  23800181.136                       -2378.846          27.000                  
                                                
  23700368.690                        2608.448          31.000    23700367.546  
  97049033.550        2031.805          31.000  
                                                                  23636639.584  
              3      -2763.425          23.000  
 21  4 24 15 12 24.9940000  0 11G 4G 7G 8G 9G16G21G27G30G18G14G26
  21921781.715   115199722.976       -4077.984          41.000    21921776.972  
  89766020.949       -3177.747          41.000  
  19243896.116   101127360.096        1347.104          44.000    19243888.726  
  78800520.447        1049.715          38.000  
  18611494.713    97804059.010         384.088          47.000    18611491.429  
  76210946.271         299.341          42.000  
  20440838.552   107417339.652       -2936.270          44.000    20440837.153  
  83701807.875       -2288.156          44.000  
  21499871.236   112982568.697       -3495.269          45.000                  
                                                
  22347364.578   117436210.906        2649.338          38.000                  
                                                
  19215685.416   100979102.231       -2160.207          48.000    19215680.171  
  78684989.719       -1683.250          42.000  
  21996515.228   115592468.150        2768.597          45.000    21996512.151  
  90072042.705        2157.373          39.000  
  23800633.694                       -2379.454          26.000                  
                                                
  23699872.524                        2608.316          30.000    23699871.171  
                      2032.678          31.000  
                                                                  23637314.625  
              3      -2761.753          23.000  
 21  4 24 15 12 25.9940000  0 11G 4G 7G 8G 9G16G21G27G30G18G14G26
  21922557.729   115203801.180       -4078.204          41.000    21922553.037  
  89769198.777       -3177.905          41.000  
  19243639.701   101126013.203        1346.653          44.000    19243632.462  
  78799470.903        1049.663          38.000  
  18611421.834    97803675.270         383.317          47.000    18611418.408  
  76210647.259         298.662          42.000  
  20441397.251   107420276.177       -2936.764          43.000    20441395.961  
  83704096.069       -2288.441          44.000  
  21500536.388   112986063.977       -3495.307          45.000                  
                                                
  22346860.323   117433561.608        2648.897          37.000                  
                                                
  19216096.593   100981262.864       -2160.896          48.000    19216091.294  
  78686673.322       -1683.723          42.000  
  21995988.364   115589699.665        2768.396          44.000    21995985.430  
  90069885.463        2157.037          39.000  
  23801085.163                       -2379.151          26.000                  
                                                
  23699376.461                        2607.878          31.000    23699374.732  
                      2032.382          30.000  
                                                                  23637989.435  
              3      -2768.059          24.000  
 21  4 24 15 12 26.9940000  0 11G 4G 7G 8G 9G16G21G27G30G18G14G26
  21923333.762   115207879.513       -4078.156          41.000    21923329.157  
  89772376.695       -3178.021          41.000  
  19243383.437   101124666.638        1346.553          44.000    19243376.079  
  78798421.644        1049.047          38.000  
  18611348.910    97803292.150         383.020          47.000    18611345.515  
  76210348.719         298.530          42.000  
  20441956.083   107423213.115       -2936.957          43.000    20441954.834  
  83706384.595       -2288.534          44.000  
  21501201.483   112989559.316       -3495.101          44.000                  
                                                
  22346356.127   117430912.346        2649.166          37.000                  
                                                
  19216507.845   100983424.060       -2161.169          48.000    19216502.565  
  78688357.375       -1684.045          42.000  
  21995461.611   115586931.257        2768.542          44.000    21995458.596  
  90067728.237        2157.489          39.000  
  23801537.788                       -2380.251          25.000                  
                                                
  23698880.286                        2607.959          31.000    23698878.298  
                      2032.269          30.000  
                                                                  23638664.642  
              3      -2764.011          25.000  
 21  4 24 15 12 27.9940000  0 11G 4G 7G 8G 9G16G21G27G30G18G14G26
  21924109.852   115211957.676       -4078.088          41.000    21924105.299  
  89775554.471       -3177.582          41.000  
  19243127.167   101123320.137        1346.431          44.000    19243119.818  
  78797372.412        1049.303          37.000  
  18611276.072    97802909.393         382.622          47.000    18611272.706  
  76210050.453         298.334          42.000  
  20442514.944   107426150.230       -2937.126          43.000    20442513.853  
  83708673.246       -2288.786          44.000  
  21501866.567   112993054.427       -3494.903          44.000                  
                                                
  22345851.849   117428262.840        2649.812          38.000                  
                                                
  19216919.158   100985585.553       -2161.712          48.000    19216913.815  
  78690041.648       -1684.445          42.000  
  21994934.789   115584162.657        2768.622          44.000    21994931.832  
  90065570.897        2157.501          39.000  
  23801988.438                       -2380.558          25.000                  
                                                
  23698383.952                        2608.390          31.000    23698381.826  
                      2032.216          30.000  
                                                                  23639341.167  
              3      -2766.229          25.000  
 21  4 24 15 12 28.9940000  0 11G 4G 7G 8G 9G16G21G27G30G18G14G26
  21924885.747   115216035.432       -4077.307          41.000    21924881.225  
  89778731.945       -3177.045          41.000  
  19242870.909   101121973.467        1346.929          44.000    19242863.663  
  78796323.053        1049.459          37.000  
  18611203.326    97802526.765         382.659          47.000    18611199.912  
  76209752.312         298.280          42.000  
  20443073.845   107429087.270       -2936.953          43.000    20443072.688  
  83710961.846       -2288.425          44.000  
  21502531.524   112996549.097       -3494.299          44.000                  
                                                
  22345347.562   117425612.909        2650.365          38.000                  
                                                
  19217330.591   100987747.111       -2161.402          48.000    19217325.138  
  78691725.976       -1684.263          41.000  
  21994407.822   115581393.626        2769.440          44.000    21994404.880  
  90063413.198        2158.063          39.000  
  23802438.172                       -2379.978          24.000                  
                                                
  23697887.462   124533246.219        2609.091          31.000    23697885.296  
                      2032.284          30.000  
                                                                  23640017.396  
              3      -2764.521          25.000  
 21  4 24 15 12 29.9940000  0 11G 4G 7G 8G 9G16G21G27G30G18G14G26
  21925661.511   115220112.306       -4076.300          40.000    21925657.042  
  89781908.740       -3176.221          41.000  
  19242614.567   101120626.121        1347.607          44.000    19242607.238  
  78795273.171        1050.140          37.000  
  18611130.451    97802143.729         383.184          47.000    18611127.006  
  76209453.844         298.670          42.000  
  20443632.800   107432023.740       -2936.411          43.000    20443631.541  
  83713250.000       -2287.983          44.000  
  21503196.340   113000042.815       -3493.368          45.000                  
                                                
  22344843.122   117422962.021        2651.345          37.000                  
                                                
  19217741.778   100989908.215       -2160.877          49.000    19217736.399  
  78693409.960       -1683.943          41.000  
  21993880.629   115578623.645        2770.495          44.000    21993877.739  
  90061254.782        2158.765          39.000  
  23802890.213                3      -2378.383          23.000                  
                                                
  23697391.009                        2610.203          31.000    23697388.529  
                      2034.419          31.000  
                                                                  23640693.084  
              3      -2762.499          24.000  
 21  4 24 15 12 30.9940000  0 11G 4G 7G 8G 9G16G21G27G30G18G14G26
  21926436.979   115224188.016       -4075.171          40.000    21926432.509  
  89785084.621       -3175.055          41.000  
  19242357.929   101119277.836        1348.824          44.000    19242350.616  
  78794222.581        1050.882          37.000  
  18611057.453    97801760.049         383.996          47.000    18611053.853  
  76209154.875         299.299          42.000  
  20444191.497   107434959.345       -2935.278          43.000    20444190.235  
  83715537.502       -2287.402          44.000  
  21503860.866   113003535.301       -3491.986          45.000                  
                                                
  22344338.457   117420309.829        2653.428          38.000                  
                                                
  19218152.867   100992068.626       -2160.027          49.000    19218147.444  
  78695093.405       -1683.283          42.000  
  21993353.311   115575852.489        2771.979          44.000    21993350.496  
  90059095.441        2159.973          39.000  
  23803341.833                3      -2377.187          22.000                  
                                                
  23696894.318   124528025.535        2611.940          32.000    23696891.623  
                      2034.332          30.000  
                                                                  23641367.878  
              3      -2762.294          24.000  
 21  4 24 15 12 31.9940000  0 11G 4G 7G 8G 9G16G21G27G30G18G14G26
  21927212.362   115228262.840       -4074.817          40.000    21927207.960  
  89788259.802       -3175.037          41.000  
  19242101.277   101117928.907        1348.740          44.000    19242093.954  
  78793171.472        1051.009          37.000  
  18610984.279    97801376.017         383.984          47.000    18610980.801  
  76208855.628         299.231          42.000  
  20444750.044   107437894.408       -2935.100          43.000    20444748.827  
  83717824.552       -2287.108          44.000  
  21504525.247   113007026.849       -3491.396          45.000                  
                                                
  22343833.657   117417656.803        2653.244          38.000                  
                                                
  19218563.877   100994228.609       -2160.043          48.000    19218558.549  
  78696776.514       -1683.369          42.000  
  21992825.744   115573080.425        2772.223          44.000    21992823.012  
  90056935.392        2160.175          38.000  
  23803792.462                3      -2375.520          22.000                  
                                                
  23696397.416                        2613.022          32.000    23696394.595  
                      2035.422          30.000  
                                                                  23642042.881  
              3      -2761.912          23.000  
 21  4 24 15 12 32.9940000  0 11G 4G 7G 8G 9G16G21G27G30G18G14G26
  21927987.645   115232337.149       -4073.969          40.000    21927983.266  
  89791434.597       -3174.542          41.000  
  19241844.527   101116579.666        1349.518          44.000    19241837.308  
  78792120.128        1051.323          37.000  
  18610911.154    97800991.976         384.074          47.000    18610907.806  
  76208556.367         299.161          42.000  
  20445308.514   107440829.265       -2934.769          43.000    20445307.282  
  83720111.460       -2286.967          44.000  
  21505189.531   113010517.823       -3490.589          45.000                  
                                                
  22343328.682   117415003.190        2653.687          38.000                  
                                                
  19218974.823   100996388.543       -2159.935          48.000    19218969.502  
  78698459.560       -1682.981          42.000  
  21992298.190   115570307.794        2772.900          44.000    21992295.356  
  90054774.913        2160.583          38.000  
  23804243.295                3      -2376.981          23.000                  
                                                
  23695900.523                        2612.762          32.000    23695897.409  
                      2035.696          30.000  
                                                                  23642717.177  
              3      -2762.681          24.000  
 21  4 24 15 12 33.9940000  0 11G 4G 7G 8G 9G16G21G27G30G18G14G26
  21928762.758   115236410.842       -4073.224          40.000    21928758.534  
  89794608.904       -3174.121          41.000  
  19241587.755   101115230.040        1349.812          44.000    19241580.473  
  78791068.465        1051.568          37.000  
  18610838.039    97800607.813         384.186          47.000    18610834.779  
  76208257.017         299.587          42.000  
  20445867.042   107443763.821       -2934.479          43.000    20445865.700  
  83722398.118       -2286.630          44.000  
  21505853.639   113014008.123       -3489.881          44.000                  
                                                
  22342823.827   117412348.834        2654.785          38.000                  
                                                
  19219385.722   100998548.285       -2159.528          48.000    19219380.475  
  78700142.480       -1682.819          42.000  
  21991770.468   115567534.489        2773.773          44.000    21991767.611  
  90052613.898        2161.078          38.000  
  23804695.694                3      -2383.384          24.000                  
                                                
  23695403.242                        2613.330          32.000    23695400.076  
                      2036.133          30.000  
                                                                  23643391.595  
              3      -2761.336          25.000  
 21  4 24 15 12 34.9940000  0 11G 4G 7G 8G 9G16G21G27G30G18G14G26
  21929537.794   115240483.603       -4072.162          40.000    21929533.563  
  89797782.458       -3173.212          41.000  
  19241330.683   101113879.695        1350.457          44.000    19241323.484  
  78790016.231        1052.095          37.000  
  18610764.940    97800223.217         384.852          47.000    18610761.600  
  76207957.346         299.656          42.000  
  20446425.378   107446697.749       -2933.824          43.000    20446423.996  
  83724684.286       -2286.008          44.000  
  21506517.612   113017497.412       -3488.888          44.000                  
                                                
  22342318.427   117409693.532        2655.549          37.000                  
                                                
  19219796.480   101000707.543       -2159.093          48.000    19219791.203  
  78701825.011       -1682.364          42.000  
  21991242.635   115564760.212        2774.500          44.000    21991239.690  
  90050452.140        2161.975          38.000  
  23805148.110                3      -2373.048          23.000                  
                                                
  23694905.635                        2614.960          32.000    23694902.403  
                      2037.532          30.000  
                                                                  23644066.613  
              3      -2759.593          25.000  
 21  4 24 15 12 35.9940000  0 11G 4G 7G 8G 9G16G21G27G30G18G14G26
  21930312.611   115244555.433       -4071.747          40.000    21930308.336  
  89800955.315       -3172.559          41.000  
  19241073.490   101112528.629        1351.202          44.000    19241066.325  
  78788963.470        1052.710          38.000  
  18610691.756    97799838.230         384.929          47.000    18610688.275  
  76207657.352         299.882          42.000  
  20446983.674   107449631.071       -2933.281          43.000    20446982.106  
  83726969.988       -2285.574          44.000  
  21507181.385   113020985.720       -3488.093          44.000                  
                                                
  22341812.869   117407037.233        2656.555          37.000                  
                                                
  19220207.304   101002866.337       -2158.911          49.000    19220202.010  
  78703507.202       -1682.400          42.000  
  21990714.583   115561984.984        2775.366          44.000    21990711.587  
  90048289.608        2162.860          38.000  
  23805602.027                3      -2384.227          21.000                  
                                                
  23694407.825                        2615.789          32.000    23694404.514  
                      2038.608          30.000  
                                                                  23644741.139  
              3      -2761.331          25.000  
 21  4 24 15 12 36.9940000  0 11G 4G 7G 8G 9G16G21G27G30G18G14G26
  21931087.313   115248626.788       -4070.880          40.000    21931083.132  
  89804127.824       -3172.748          41.000  
  19240816.346   101111177.378        1351.356          44.000    19240809.186  
  78787910.523        1053.060          38.000  
  18610618.578    97799453.327         384.759          47.000    18610615.001  
  76207357.417         300.014          42.000  
  20447541.832   107452564.295       -2933.268          43.000    20447540.304  
  83729255.616       -2285.871          44.000  
  21507844.969   113024473.543       -3487.695          44.000                  
                                                
  22341307.236   117404380.417        2657.011          37.000                  
                                                
  19220618.030   101005025.154       -2158.885          49.000    19220612.797  
  78705189.384       -1682.239          42.000  
  21990186.351   115559209.282        2775.720          44.000    21990183.351  
  90046126.729        2162.823          38.000  
  23806054.744                3      -2385.537          19.000                  
                                                
  23693910.117   124512342.467        2616.320          32.000    23693906.578  
                      2039.236          30.000  
                                                                  23645415.612  
              3      -2759.582          25.000  
 21  4 24 15 12 37.9940000  0 11G 4G 7G 8G 9G16G21G27G30G18G14G26
  21931861.945   115252697.893       -4070.844          40.000    21931857.787  
  89807300.097       -3171.930          41.000  
  19240559.215   101109826.043        1351.490          44.000    19240552.055  
  78786857.554        1052.593          38.000  
  18610545.419    97799068.653         384.614          47.000    18610541.850  
  76207057.676         299.694          42.000  
  20448100.062   107455497.523       -2933.205          43.000    20448098.464  
  83731541.253       -2285.676          44.000  
  21508508.537   113027961.018       -3487.103          44.000                  
                                                
  22340801.409   117401723.281        2657.358          37.000                  
                                                
  19221028.928   101007184.125       -2159.037          49.000    19221023.627  
  78706871.712       -1682.389          42.000  
  21989658.201   115556433.252        2776.233          44.000    21989655.149  
  90043963.589        2163.343          38.000  
  23806508.483                3      -2378.383          18.000                  
                                                
  23693411.981   124509726.277        2616.297          32.000    23693408.671  
                      2038.948          30.000  
                                                                  23646089.086  
              3      -2758.202          25.000  
 21  4 24 15 12 38.9940000  0 11G 4G 7G 8G 9G16G21G27G30G18G14G26
  21932636.402   115256768.622       -4070.508          40.000    21932632.435  
  89810472.098       -3172.028          41.000  
  19240302.088   101108474.568        1351.421          44.000    19240294.912  
  78785804.447        1053.101          38.000  
  18610472.303    97798684.124         384.343          47.000    18610468.726  
  76206758.067         299.104          42.000  
  20448658.295   107458430.711       -2933.152          43.000    20448656.518  
  83733826.854       -2285.660          44.000  
  21509172.136   113031448.064       -3487.057          44.000                  
                                                
  22340295.621   117399065.727        2657.154          37.000                  
                                                
  19221439.823   101009343.196       -2159.314          49.000    19221434.577  
  78708554.101       -1682.575          42.000  
  21989129.892   115553656.819        2776.544          44.000    21989126.758  
  90041800.128        2163.672          38.000  
  23806960.207                3      -2374.996          19.000                  
                                                
  23692913.953   124507109.607        2616.541          32.000    23692908.341  
              1       2040.481          30.000  
                                                                  23646760.437  
              3      -2731.958          23.000  
 21  4 24 15 12 39.9940000  0 11G 4G 7G 8G 9G16G21G27G30G18G14G26
  21933410.966   115260839.034       -4070.080          40.000    21933407.034  
  89813643.839       -3171.490          41.000  
  19240044.976   101107123.004        1351.691          44.000    19240037.598  
  78784751.280        1053.107          38.000  
  18610399.160    97798299.799         384.301          47.000    18610395.667  
  76206458.575         299.481          42.000  
  20449216.501   107461363.914       -2933.292          43.000    20449214.734  
  83736112.450       -2285.616          44.000  
  21509835.670   113034934.744       -3486.558          44.000                  
                                                
  22339789.646   117396407.796        2657.788          36.000                  
                                                
  19221850.665   101011502.401       -2159.350          48.000    19221845.406  
  78710236.600       -1682.507          42.000  
  21988601.554   115550880.048        2776.770          44.000    21988598.319  
  90039636.426        2163.666          38.000  
  23807408.026                3      -2373.038          21.000                  
                                                
  23692416.118   124504492.589        2617.176          33.000    23692405.071  
                      2039.418          30.000  
                                                                  23647433.493  
              3      -2757.264          23.000  
 21  4 24 15 12 40.9940000  0 11G 4G 7G 8G 9G16G21G27G30G18G14G26
  21934185.470   115264909.317       -4070.447          40.000    21934181.637  
  89816815.483       -3171.582          41.000  
  19239787.655   101105771.529        1351.430          44.000    19239780.399  
  78783698.183        1053.107          38.000  
  18610326.131    97797915.843         383.698          47.000    18610322.625  
  76206159.390         298.826          42.000  
  20449774.768   107464297.280       -2933.528          43.000    20449772.878  
  83738398.190       -2285.674          44.000  
  21510499.180   113038421.217       -3486.400          44.000                  
                                                
  22339283.771   117393749.649        2658.169          36.000                  
                                                
  19222261.560   101013661.909       -2159.750          48.000    19222256.339  
  78711919.335       -1682.723          42.000  
  21988073.117   115548103.082        2776.855          44.000    21988069.817  
  90037472.542        2163.879          38.000  
  23807858.709                3      -2369.985          23.000                  
                                                
  23691918.177   124501875.326        2617.532          33.000    23691908.322  
                      2039.174          30.000  
                                                                  23648107.342  
              3      -2762.559          22.000  
 21  4 24 15 12 41.9940000  0 11G 4G 7G 8G 9G16G21G27G30G18G14G26
  21934959.906   115268979.595       -4070.331          40.000    21934956.099  
  89819987.140       -3171.533          41.000  
  19239530.567   101104420.306        1351.041          44.000    19239523.276  
  78782645.266        1053.307          38.000  
  18610253.088    97797532.418         383.362          47.000    18610249.616  
  76205860.626         298.620          42.000  
  20450333.009   107467230.967       -2933.499          43.000    20450331.165  
  83740684.191       -2285.950          44.000  
  21511162.598   113041907.653       -3486.298          44.000                  
                                                
  22338777.978   117391091.450        2658.438          37.000                  
                                                
  19222672.603   101015821.894       -2160.187          48.000    19222667.363  
  78713602.447       -1683.310          42.000  
  21987544.667   115545326.116        2777.106          44.000    21987541.357  
  90035308.702        2163.623          38.000  
  23808309.081                3      -2377.687          25.000                  
                                                
  23691420.330   124499257.994        2617.651          33.000    23691410.617  
                      2039.576          30.000  
                                                                  23648781.091  
              3      -2748.999          23.000  
 21  4 24 15 12 42.9940000  0 11G 4G 7G 8G 9G16G21G27G30G18G14G26
  21935734.354   115273049.660       -4070.062          40.000    21935730.540  
  89823158.622       -3171.405          41.000  
  19239273.373   101103069.060        1351.157          44.000    19239266.152  
  78781592.382        1052.655          38.000  
  18610180.032    97797149.303         382.835          47.000    18610176.602  
  76205562.088         298.265          42.000  
  20450891.261   107470164.788       -2934.000          43.000    20450889.382  
  83742970.270       -2286.123          44.000  
  21511825.985   113045393.823       -3486.217          44.000                  
                                                
  22338272.027   117388433.002        2658.580          36.000                  
                                                
  19223083.648   101017982.134       -2160.532          48.000    19223078.393  
  78715285.743       -1683.494          42.000  
  21987016.243   115542548.892        2777.124          44.000    21987012.900  
  90033144.599        2164.197          38.000  
  23808762.284                3      -2377.583          25.000                  
                                                
  23690921.995   124496640.366        2617.591          33.000    23690913.928  
                      2039.506          30.000  
                                                                  23649455.226  
              3      -2752.952          24.000  
 21  4 24 15 12 43.9940000  0 11G 4G 7G 8G 9G16G21G27G30G18G14G26
  21936508.870   115277119.717       -4069.854          40.000    21936505.013  
  89826330.112       -3171.533          41.000  
  19239016.290   101101718.051        1350.856          44.000    19239009.027  
  78780539.634        1052.912          38.000  
  18610107.235    97796766.690         382.261          47.000    18610103.700  
  76205263.951         297.726          42.000  
  20451449.724   107473098.909       -2934.467          44.000    20451447.712  
  83745256.605       -2286.554          44.000  
  21512489.486   113048879.911       -3486.129          43.000                  
                                                
  22337766.183   117385774.494        2658.601          36.000                  
                                                
  19223494.709   101020142.799       -2160.947          48.000    19223489.508  
  78716969.383       -1683.763          42.000  
  21986487.777   115539771.617        2777.240          44.000    21986484.400  
  90030980.500        2164.117          38.000  
  23809215.497                3      -2378.182          25.000                  
                                                
  23690423.702   124494022.656        2617.562          32.000    23690413.351  
                      2040.500          30.000  
                                                                  23650128.951  
              3      -2753.623          24.000  
 21  4 24 15 12 44.9940000  0 11G 4G 7G 8G 9G16G21G27G30G18G14G26
  21937283.348   115281189.785       -4069.934          40.000    21937279.623  
  89829501.590       -3171.387          41.000  
  19238759.103   101100367.280        1350.480          44.000    19238752.004  
  78779487.074        1052.734          38.000  
  18610034.524    97796384.596         381.823          47.000    18610030.915  
  76204966.216         297.576          42.000  
  20452008.257   107476033.351       -2934.659          44.000    20452006.078  
  83747543.165       -2286.521          44.000  
  21513152.813   113052365.933       -3485.938          43.000                  
                                                
  22337260.244   117383115.953        2658.489          37.000                  
                                                
  19223905.964   101022303.937       -2161.337          48.000    19223900.838  
  78718653.394       -1684.366          42.000  
  21985959.351   115536994.316        2777.521          44.000    21985955.908  
  90028816.373        2164.111          38.000  
  23809670.214                3      -2378.617          26.000                  
                                                
  23689925.458   124491404.820        2617.881          32.000    23689914.421  
                      2040.115          31.000  
                                                                  23650804.124  
              3      -2760.327          25.000  
 21  4 24 15 12 45.9940000  0 11G 4G 7G 8G 9G16G21G27G30G18G14G26
  21938057.876   115285259.920       -4070.489          39.000    21938054.147  
  89832673.123       -3171.600          40.000  
  19238502.043   101099016.790        1350.364          44.000    19238495.051  
  78778434.768        1052.180          37.000  
  18609962.001    97796003.102         381.193          47.000    18609958.296  
  76204668.944         297.082          41.000  
  20452566.764   107478968.165       -2934.945          44.000    20452564.476  
  83749830.042       -2286.941          44.000  
  21513816.123   113055851.992       -3486.105          43.000                  
                                                
  22336754.280   117380457.350        2658.383          36.000                  
                                                
  19224317.344   101024465.594       -2161.762          48.000    19224312.186  
  78720337.807       -1684.642          42.000  
  21985430.763   115534217.061        2777.154          44.000    21985427.355  
  90026652.279        2164.136          38.000  
  23810126.433                3      -2378.727          26.000                  
                                                
  23689427.089   124488786.981        2618.071          32.000    23689416.416  
                      2040.419          31.000  
                                                                  23651477.724  
              3      -2758.953          25.000  
 21  4 24 15 12 46.9940000  0 11G 4G 7G 8G 9G16G21G27G30G18G14G26
  21938832.485   115289330.173       -4070.355          39.000    21938828.668  
  89835844.751       -3171.973          40.000  
  19238245.082   101097666.671        1349.800          44.000    19238238.168  
  78777382.712        1052.056          38.000  
  18609889.468    97795622.247         380.517          48.000    18609885.822  
  76204372.185         296.323          42.000  
  20453125.372   107481903.436       -2935.500          44.000    20453122.938  
  83752117.275       -2287.764          44.000  
  21514479.457   113059338.109       -3486.406          43.000                  
                                                
  22336248.441   117377798.813        2658.721          37.000                  
                                                
  19224728.839   101026627.846       -2162.757          48.000    19224723.703  
  78722022.668       -1685.319          42.000  
  21984902.213   115531439.876        2776.831          44.000    21984898.874  
  90024488.236        2163.574          37.000  
  23810580.383                3      -2377.348          25.000                  
                                                
  23688928.643   124486169.240        2617.330          32.000    23688918.398  
                      2040.225          31.000  
                                                                  23652151.845  
              3      -2756.925          25.000  
 21  4 24 15 12 47.9940000  0 11G 4G 7G 8G 9G16G21G27G30G18G26G14
  21939606.980   115293400.499       -4070.569          39.000    21939603.218  
  89839016.413       -3171.741          40.000  
  19237988.243   101096316.817        1349.541          44.000    19237981.327  
  78776330.859        1051.847          38.000  
  18609817.102    97795241.945         379.875          47.000    18609813.489  
  76204075.842         295.896          42.000  
  20453684.015   107484839.082       -2936.073          44.000    20453681.479  
  83754404.781       -2287.683          44.000  
  21515142.761   113062824.221       -3486.208          44.000                  
                                                
  22335742.657   117375140.361        2657.891          37.000                  
                                                
  19225140.369   101028790.589       -2163.153          48.000    19225135.261  
  78723707.916       -1685.452          42.000  
  21984373.826   115528662.727        2776.935          44.000    21984370.393  
  90022324.239        2163.647          37.000  
  23811032.435                3      -2382.514          23.000                  
                                                
  23652793.282                3      -3539.390          18.000    23652825.650  
              3      -2757.679          25.000  
  23688430.032   124483551.437        2617.205          32.000    23688420.436  
  97000141.429        2039.874          32.000  
 21  4 24 15 12 48.9940000  0 11G 4G 7G 8G 9G16G21G27G30G18G26G14
  21940381.484   115297470.883       -4070.318          39.000    21940377.788  
  89842188.154       -3171.619          40.000  
  19237731.477   101094967.270        1349.592          44.000    19237724.575  
  78775279.293        1051.486          38.000  
  18609744.826    97794862.212         379.615          47.000    18609741.235  
  76203779.943         295.869          42.000  
  20454242.700   107487775.114       -2935.934          44.000    20454240.210  
  83756692.593       -2287.754          44.000  
  21515806.031   113066310.356       -3485.995          43.000                  
                                                
  22335236.636   117372481.883        2658.413          37.000                  
                                                
  19225552.058   101030953.869       -2163.414          48.000    19225546.884  
  78725393.582       -1685.676          42.000  
  21983845.361   115525885.615        2777.411          43.000    21983841.951  
  90020160.259        2163.745          37.000  
  23811486.164                3      -2380.020          23.000                  
                                                
  23653457.340                3      -3539.390          18.000    23653498.726  
              3      -2757.327          25.000  
  23687931.607   124480933.548        2618.564          32.000    23687922.416  
  96998101.579        2039.984          31.000  
 21  4 24 15 12 49.9940000  0 11G 4G 7G 8G 9G16G21G27G30G18G26G14
  21941156.044   115301541.270       -4070.318          39.000    21941152.213  
  89845359.888       -3171.613          40.000  
  19237474.761   101093617.959        1349.223          44.000    19237467.818  
  78774227.851        1051.849          38.000  
  18609672.684    97794483.029         378.948          47.000    18609669.122  
  76203484.478         295.156          42.000  
  20454801.488   107490711.486       -2936.510          44.000    20454798.950  
  83758980.677       -2288.241          44.000  
  21516469.338   113069796.448       -3486.137          43.000                  
                                                
  22334730.643   117369823.335        2658.492          37.000                  
                                                
  19225963.803   101033117.621       -2164.039          48.000    19225958.511  
  78727079.612       -1686.013          42.000  
  21983316.835   115523108.488        2777.332          43.000    21983313.307  
  90017996.267        2163.715          37.000  
  23811938.556                3      -2375.239          23.000                  
                                                
  23654139.607                3      -3539.390          18.000    23654172.265  
              3      -2758.788          24.000  
  23687433.121                        2617.710          33.000    23687424.330  
  96996061.618        2040.624          32.000  
 21  4 24 15 12 50.9940000  0 11G 4G 7G 8G 9G16G21G27G30G18G26G14
  21941930.534   115305611.787       -4070.892          39.000    21941926.879  
  89848531.739       -3172.058          40.000  
  19237218.071   101092269.004        1348.601          44.000    19237211.157  
  78773176.736        1050.962          37.000  
  18609600.689    97794104.485         378.031          48.000    18609597.017  
  76203189.505         294.559          41.000  
  20455360.280   107493648.299       -2937.393          44.000    20455357.901  
  83761269.102       -2288.645          43.000  
  21517132.734   113073282.603       -3486.368          43.000                  
                                                
  22334224.774   117367164.879        2658.051          38.000                  
                                                
  19226375.661   101035281.947       -2164.755          48.000    19226370.300  
  78728766.110       -1686.887          42.000  
  21982788.453   115520331.463        2776.825          43.000    21982784.780  
  90015832.350        2163.324          37.000  
  23812390.782                3      -2374.684          22.000                  
                                                
  23654816.396                3      -3539.390          19.000    23654845.423  
              3      -2755.871          25.000  
  23686934.788   124475697.821        2618.380          33.000    23686926.291  
                      2039.694          32.000  
 21  4 24 15 12 51.9940000  0 11G 4G 7G 8G 9G16G21G27G30G18G14G26
  21942705.093   115309682.554       -4070.959          39.000    21942701.541  
  89851703.772       -3172.491          40.000  
  19236961.524   101090920.532        1347.825          44.000    19236954.563  
  78772125.977        1050.368          38.000  
  18609528.911    97793726.693         377.202          48.000    18609525.172  
  76202895.126         293.777          42.000  
  20455919.353   107496585.689       -2938.110          44.000    20455916.826  
  83763557.971       -2289.402          43.000  
  21517796.144   113076768.948       -3486.604          43.000                  
                                                
  22333718.930   117364506.657        2657.561          38.000                  
                                                
  19226787.621   101037446.988       -2165.583          48.000    19226782.217  
  78730453.152       -1687.593          42.000  
  21982260.061   115517554.652        2776.447          43.000    21982256.333  
  90013668.574        2163.599          37.000  
  23812846.789                3      -2387.721          22.000                  
                                                
  23686436.463   124473080.124        2618.142          33.000    23686428.322  
  96991982.030        2039.384          32.000  
                                                                  23655518.929  
              3      -2757.486          24.000  
 21  4 24 15 12 52.9940000  0 11G 4G 7G 8G 9G16G21G27G30G18G14G26
  21943479.831   115313753.926       -4071.478          39.000    21943476.279  
  89854876.274       -3172.913          40.000  
  19236705.105   101089572.875        1347.378          45.000    19236698.150  
  78771075.868        1049.863          38.000  
  18609457.305    97793350.025         376.227          48.000    18609453.555  
  76202601.615         293.275          42.000  
  20456478.440   107499523.961       -2938.509          44.000    20456475.898  
  83765847.546       -2289.875          43.000  
  21518459.622   113080255.844       -3487.039          43.000                  
                                                
  22333213.130   117361848.921        2657.649          38.000                  
                                                
  19227199.808   101039613.063       -2166.537          48.000    19227194.376  
  78732141.008       -1688.275          42.000  
  21981731.762   115514778.400        2776.074          43.000    21981727.958  
  90011505.267        2162.610          37.000  
  23813305.417                3      -2396.464          22.000                  
                                                
  23685938.270   124470462.954        2617.490          32.000    23685930.412  
  96989942.657        2039.420          32.000  
                                                                  23656191.738  
              3      -2757.406          23.000  
 21  4 24 15 12 53.9940000  0 11G 4G 7G 8G 9G16G21G27G30G18G14G26
  21944254.586   115317825.721       -4072.070          39.000    21944251.055  
  89858049.066       -3173.212          40.000  
  19236448.803   101088225.860        1346.559          45.000    19236441.808  
  78770026.253        1049.274          37.000  
  18609385.858    97792974.265         375.162          48.000    18609382.129  
  76202308.819         292.411          42.000  
  20457037.764   107502462.985       -2939.346          44.000    20457035.208  
  83768137.690       -2290.619          43.000  
  21519123.130   113083743.088       -3487.633          43.000                  
                                                
  22332707.510   117359191.535        2657.212          38.000                  
                                                
  19227612.302   101041779.999       -2167.547          48.000    19227606.813  
  78733829.530       -1689.017          42.000  
  21981203.619   115512002.505        2775.751          44.000    21981199.632  
  90009342.224        2162.653          37.000  
  23813764.050                3      -2383.336          24.000                  
                                                
  23685440.116   124467846.145        2616.175          33.000    23685432.567  
  96987903.593        2038.851          32.000  
                                                                  23656865.028  
              3      -2755.656          23.000  
 21  4 24 15 12 54.9940000  0 11G 4G 7G 8G 9G16G21G27G30G18G14G26
  21945029.499   115321898.015       -4072.766          39.000    21945025.883  
  89861222.284       -3173.206          40.000  
  19236192.598   101086879.593        1345.983          44.000    19236185.663  
  78768977.207        1048.887          37.000  
  18609314.463    97792599.560         374.131          48.000    18609310.795  
  76202016.832         291.699          42.000  
  20457597.249   107505402.859       -2940.202          44.000    20457594.704  
  83770428.491       -2291.041          43.000  
  21519786.763   113087230.792       -3488.042          43.000                  
                                                
  22332201.966   117356534.654        2656.635          38.000                  
                                                
  19228024.769   101043947.919       -2168.379          48.000    19228019.441  
  78735518.811       -1689.498          42.000  
  21980675.476   115509227.115        2775.494          44.000    21980671.511  
  90007179.583        2162.555          37.000  
  23814218.066                2      -2383.954          25.000                  
                                                
  23684942.196   124465229.686        2616.301          33.000    23684934.742  
  96985864.800        2039.344          31.000  
                                                                  23657537.503  
              3      -2756.455          23.000  
 21  4 24 15 12 55.9940000  0 11G 4G 7G 8G 9G16G21G27G30G18G14G26
  21945804.429   115325970.694       -4072.540          39.000    21945801.000  
  89864395.805       -3173.627          40.000  
  19235936.605   101085533.933        1345.588          45.000    19235929.529  
  78767928.613        1048.664          37.000  
  18609243.324    97792225.753         373.480          48.000    18609239.688  
  76201725.564         291.053          42.000  
  20458156.897   107508343.417       -2940.756          45.000    20458154.370  
  83772719.843       -2291.532          43.000  
  21520450.482   113090718.817       -3488.053          43.000                  
                                                
  22331696.415   117353878.087        2656.610          38.000                  
                                                
  19228437.460   101046116.675       -2168.995          48.000    19228432.143  
  78737208.753       -1690.153          42.000  
  21980147.354   115506452.076        2774.878          44.000    21980143.358  
  90005017.205        2162.463          37.000  
  23814675.600                2      -2385.465          26.000                  
                                                
  23684444.187   124462613.599        2615.755          33.000    23684436.944  
                      2038.073          32.000  
                                                                  23658211.167  
              3      -2750.829          23.000  
 21  4 24 15 12 56.9940000  0 11G 4G 7G 8G 9G16G21G27G30G18G14G26
  21946579.396   115330043.942       -4073.578          39.000    21946576.051  
  89867569.739       -3173.749          39.000  
  19235680.698   101084189.059        1344.738          45.000    19235673.622  
  78766880.682        1047.875          38.000  
  18609172.386    97791853.012         372.252          48.000    18609168.724  
  76201435.111         290.315          42.000  
  20458716.801   107511284.863       -2941.710          45.000    20458714.153  
  83775011.875       -2292.282          43.000  
  21521114.333   113094207.352       -3488.590          43.000                  
                                                
  22331191.006   117351222.047        2655.692          39.000                  
                                                
  19228850.413   101048286.447       -2170.249          48.000    19228845.073  
  78738899.480       -1691.013          42.000  
  21979619.406   115503677.556        2774.170          44.000    21979615.416  
  90002855.245        2161.615          37.000  
  23815131.914                3      -2388.281          26.000                  
                                                
  23683946.254   124459997.978        2615.140          33.000    23683939.322  
  96981788.145        2037.787          32.000  
                                                                  23658886.635  
              3      -2766.824          23.000  
 21  4 24 15 12 57.9940000  0 11G 4G 7G 8G 9G16G21G27G30G18G14G26
  21947354.593   115334117.972       -4074.414          39.000    21947351.262  
  89870744.343       -3175.098          39.000  
  19235424.940   101082845.228        1343.255          45.000    19235418.001  
  78765833.554        1046.572          38.000  
  18609101.719    97791481.586         370.671          48.000    18609098.065  
  76201145.709         288.588          42.000  
  20459276.676   107514227.436       -2943.478          45.000    20459274.153  
  83777304.780       -2293.545          43.000  
  21521778.382   113097696.649       -3489.905          43.000                  
                                                
  22330685.893   117348566.693        2655.140          38.000                  
                                                
  19229263.519   101050457.468       -2171.852          48.000    19229258.290  
  78740591.198       -1692.484          43.000  
  21979091.578   115500903.822        2773.224          44.000    21979087.557  
  90000693.890        2160.895          37.000  
  23815586.385                3      -2386.279          25.000                  
                                                
  23683448.588   124457383.034        2614.076          33.000    23683441.735  
  96979750.537        2037.518          32.000  
                                                                  23659560.970  
              3      -2759.260          23.000  
 21  4 24 15 12 58.9940000  0 11G 4G 7G 8G 9G16G21G27G30G18G14G26
  21948129.907   115338192.804       -4074.744          38.000    21948126.598  
  89873919.523       -3175.623          40.000  
  19235169.432   101081502.390        1342.456          45.000    19235162.525  
  78764787.203        1045.629          38.000  
  18609031.305    97791111.449         369.605          47.000    18609027.641  
  76200857.262         288.289          42.000  
  20459836.917   107517171.087       -2944.153          45.000    20459834.247  
  83779598.536       -2294.150          43.000  
  21522442.520   113101186.643       -3490.408          42.000                  
                                                
  22330180.886   117345912.101        2654.412          39.000                  
                                                
  19229676.924   101052629.744       -2172.825          47.000    19229671.668  
  78742283.859       -1692.965          42.000  
  21978563.965   115498130.820        2772.821          43.000    21978559.873  
  89998533.104        2160.590          37.000  
  23816042.261                3      -2388.711          25.000                  
                                                
  23682951.139   124454768.774        2614.333          34.000    23682944.352  
  96977713.444        2037.885          32.000  
                                                                  23660235.420  
              3      -2757.355          23.000  
 21  4 24 15 12 59.9940000  0 11G 4G 7G 8G 9G16G21G27G30G18G14G26
  21948905.381   115342268.292       -4075.610          38.000    21948902.098  
  89877095.225       -3175.647          39.000  
  19234914.037   101080160.466        1341.571          45.000    19234907.207  
  78763741.531        1044.907          38.000  
  18608961.102    97790742.491         368.346          47.000    18608957.466  
  76200569.768         287.041          42.000  
  20460397.413   107520115.735       -2944.964          45.000    20460394.548  
  83781893.071       -2294.842          43.000  
  21523106.819   113104677.245       -3490.844          42.000                  
                                                
  22329675.873   117343258.123        2653.943          39.000                  
                                                
  19230090.398   101054803.128       -2173.864          47.000    19230085.298  
  78743977.407       -1693.959          42.000  
  21978036.396   115495358.456        2772.180          43.000    21978032.182  
  89996372.846        2159.674          36.000  
  23816498.053                2      -2390.055          26.000                  
                                                
  23682453.713   124452155.144        2614.095          34.000    23682447.132  
                      2035.600          32.000  
                                                                  23660909.718  
              3      -2758.248          24.000  
 21  4 24 15 13  0.9940000  0 11G 4G 7G 8G 9G16G21G27G30G18G14G26
  21949680.955   115346344.213       -4075.897          38.000    21949677.700  
  89880271.297       -3176.202          39.000  
  19234658.885   101078819.203        1341.142          45.000    19234652.002  
  78762696.382        1045.115          37.000  
  18608891.049    97790374.461         367.804          47.000    18608887.302  
  76200283.007         286.295          41.000  
  20460957.961   107523061.149       -2945.588          45.000    20460955.197  
  83784188.188       -2295.110          42.000  
  21523771.057   113108168.241       -3491.084          42.000                  
                                                
  22329171.074   117340604.522        2653.909          39.000                  
                                                
  19230504.092   101056977.429       -2174.778          47.000    19230499.013  
  78745671.659       -1694.407          42.000  
  21977508.942   115492586.502        2772.070          43.000    21977504.659  
  89994212.862        2159.851          36.000  
  23816953.781                       -2390.263          27.000                  
                                                
  23681956.459   124449541.901        2613.049          34.000    23681949.805  
                      2036.006          31.000  
                                                                  23661584.817  
              3      -2759.786          23.000  
 21  4 24 15 13  1.9940000  0 11G 4G 7G 8G 9G16G21G27G30G18G14G26
  21950456.554   115350420.497       -4076.807          39.000    21950453.309  
  89883447.606       -3176.740          39.000  
  19234403.711   101077478.518        1340.104          45.000    19234396.876  
  78761651.690        1044.172          37.000  
  18608821.127    97790007.322         366.533          48.000    18608817.436  
  76199996.917         285.645          41.000  
  20461518.598   107526007.221       -2946.618          45.000    20461515.933  
  83786483.837       -2296.118          42.000  
  21524435.438   113111659.521       -3491.573          43.000                  
                                                
  22328666.295   117337951.226        2652.910          39.000                  
                                                
  19230918.012   101059152.524       -2175.986          47.000    19230912.967  
  78747366.533       -1695.528          42.000  
  21976981.610   115489814.858        2771.338          43.000    21976977.232  
  89992053.142        2159.509          36.000  
  23817408.661                       -2390.493          26.000                  
                                                
  23681459.135   124446928.850        2613.072          33.000    23681452.840  
                      2036.545          31.000  
                                                                  23662259.481  
              3      -2758.511          23.000  
 21  4 24 15 13  2.9940000  0 11G 4G 7G 8G 9G16G21G27G30G18G14G26
  21951232.280   115354497.057       -4076.624          39.000    21951229.060  
  89886624.113       -3176.379          39.000  
  19234148.772   101076138.331        1340.224          45.000    19234141.870  
  78760607.395        1044.093          37.000  
  18608751.435    97789640.978         366.167          48.000    18608747.707  
  76199711.447         285.381          42.000  
  20462079.414   107528953.891       -2946.827          45.000    20462076.543  
  83788779.945       -2296.239          43.000  
  21525099.800   113115151.036       -3491.414          43.000                  
                                                
  22328161.464   117335298.144        2653.018          39.000                  
                                                
  19231332.038   101061328.343       -2176.026          47.000    19231327.006  
  78749061.994       -1695.602          42.000  
  21976454.209   115487043.466        2771.442          43.000    21976449.802  
  89989893.597        2159.747          36.000  
  23817864.567                       -2391.518          25.000                  
                                                
  23680961.965   124444316.012        2613.189          33.000    23680955.686  
  96969568.484        2036.854          31.000  
                                                                  23662933.905  
              3      -2765.129          23.000  
 21  4 24 15 13  3.9940000  0 11G 4G 7G 8G 9G16G21G27G30G18G14G26
  21952007.859   115358573.234       -4075.751          38.000    21952004.683  
  89889800.387       -3176.184          39.000  
  19233893.739   101074798.016        1340.424          45.000    19233886.856  
  78759563.007        1044.160          38.000  
  18608681.894    97789274.807         366.020          48.000    18608677.997  
  76199426.112         285.345          42.000  
  20462640.167   107531900.513       -2946.737          45.000    20462637.224  
  83791076.008       -2296.002          43.000  
  21525764.171   113118642.133       -3490.992          43.000                  
                                                
  22327656.563   117332644.637        2653.762          39.000                  
                                                
  19231746.095   101063504.258       -2176.210          47.000    19231740.983  
  78750757.503       -1695.763          42.000  
  21975926.852   115484271.691        2771.844          43.000    21975922.365  
  89987733.775        2160.034          36.000  
  23818321.483                3      -2389.178          23.000                  
                                                
  23680464.687   124441702.785        2613.139          33.000    23680458.421  
  96967532.229        2036.208          32.000  
                                                                  23663608.880  
              3      -2764.155          23.000  
 21  4 24 15 13  4.9940000  0 11G 4G 7G 8G 9G16G21G27G30G18G14G26
  21952783.349   115362648.840       -4075.006          38.000    21952780.278  
  89892976.167       -3175.098          40.000  
  19233638.568   101073457.333        1341.066          45.000    19233631.775  
  78758518.299        1045.362          38.000  
  18608612.148    97788908.530         366.437          48.000    18608608.326  
  76199140.702         285.806          42.000  
  20463200.931   107534846.844       -2945.945          45.000    20463197.907  
  83793371.870       -2295.750          43.000  
  21526428.517   113122132.575       -3490.088          43.000                  
                                                
  22327151.533   117329990.495        2654.671          39.000                  
                                                
  19232160.075   101065680.014       -2175.475          47.000    19232155.143  
  78752452.917       -1695.459          42.000  
  21975399.263   115481499.270        2772.943          42.000    21975394.756  
  89985573.460        2160.822          36.000  
  23818778.354                3      -2404.257          22.000                  
                                                
  23679967.397   124439088.776        2615.014          33.000    23679960.988  
                      2037.171          32.000  
                                                                  23664282.212  
              3      -2753.679          22.000  
 21  4 24 15 13  5.9940000  0 11G 4G 7G 8G 9G16G21G27G30G18G14G26
  21953558.749   115366723.783       -4074.408          39.000    21953555.714  
  89896151.442       -3175.116          40.000  
  19233383.335   101072116.209        1341.376          45.000    19233376.542  
  78757473.282        1045.233          38.000  
  18608542.490    97788542.110         366.257          48.000    18608538.538  
  76198855.201         285.318          42.000  
  20463761.462   107537792.849       -2946.079          46.000    20463758.546  
  83795667.446       -2295.605          43.000  
  21527092.549   113125622.274       -3489.474          43.000                  
                                                
  22326646.366   117327335.638        2655.068          39.000                  
                                                
  19232574.087   101067855.579       -2175.602          47.000    19232569.178  
  78754148.162       -1695.499          42.000  
  21974871.476   115478726.151        2773.431          42.000    21974867.067  
  89983412.603        2160.883          36.000  
  23819234.415                3      -2390.034          24.000                  
                                                
  23679470.137   124436474.071        2615.125          34.000    23679463.492  
  96963457.960        2037.140          32.000  
                                                                  23664956.567  
              3      -2753.403          23.000  
 21  4 24 15 13  6.9940000  0 11G 4G 7G 8G 9G16G21G27G30G18G14G26
  21954334.135   115370798.232       -4073.755          39.000    21954331.149  
  89899326.325       -3174.402          40.000  
  19233128.103   101070774.829        1341.726          45.000    19233121.295  
  78756428.065        1045.227          38.000  
  18608472.808    97788175.730         366.418          48.000    18608468.843  
  76198569.695         285.626          42.000  
  20464321.973   107540738.674       -2945.535          45.000    20464319.076  
  83797962.892       -2295.274          43.000  
  21527756.429   113129111.455       -3488.675          43.000                  
                                                
  22326141.085   117324680.247        2655.355          36.000                  
                                                
  19232988.019   101070031.110       -2175.418          47.000    19232983.272  
  78755843.359       -1694.918          43.000  
  21974343.729   115475952.536        2774.060          42.000    21974339.227  
  89981251.324        2161.737          36.000  
  23819691.666                3      -2389.968          25.000                  
                                                
  23678972.757   124433858.842        2615.567          33.000    23678965.816  
                      2038.666          32.000  
                                                                  23665630.018  
              3      -2759.154          23.000  
 21  4 24 15 13  7.9940000  0 11G 4G 7G 8G 9G16G21G27G30G18G14G26
  21955109.370   115374872.482       -4074.231          39.000    21955106.449  
  89902501.062       -3174.811          40.000  
  19232872.953   101069433.483        1341.332          45.000    19232866.013  
  78755382.846        1045.085          38.000  
  18608403.232    97787809.685         365.826          48.000    18608399.237  
  76198284.465         284.929          42.000  
  20464882.558   107543684.641       -2946.108          46.000    20464879.513  
  83800258.451       -2295.725          43.000  
  21528420.367   113132600.376       -3488.729          43.000                  
                                                
  22325635.649   117322024.606        2655.153          37.000                  
                                                
  19233402.010   101072206.896       -2175.890          47.000    19233397.329  
  78757538.794       -1695.714          43.000  
  21973815.948   115473178.690        2774.029          42.000    21973811.326  
  89979089.923        2160.889          36.000  
  23820143.884                3      -2390.337          26.000    23820109.209  
              3      -1862.872          25.000  
  23678475.203   124431243.294        2615.503          34.000    23678468.203  
  96959382.019        2038.197          32.000  
                                                                  23666303.927  
              3      -2759.878          23.000  
 21  4 24 15 13  8.9940000  0 11G 4G 7G 8G 9G16G21G27G30G18G14G26
  21955884.625   115378946.605       -4074.121          40.000    21955881.725  
  89905675.663       -3174.249          40.000  
  19232617.682   101068092.229        1341.347          45.000    19232610.906  
  78754337.724        1044.960          38.000  
  18608333.691    97787444.011         365.613          48.000    18608329.635  
  76197999.521         284.943          42.000  
  20465443.268   107546630.764       -2946.023          46.000    20465440.121  
  83802554.133       -2295.721          43.000  
  21529084.212   113136089.104       -3488.593          42.000                  
                                                
  22325130.206   117319368.733        2655.951          37.000                  
                                                
  19233816.143   101074382.994       -2176.166          47.000    19233811.339  
  78759234.448       -1695.705          42.000  
  21973288.060   115470404.658        2774.371          41.000    21973283.395  
  89976928.317        2161.859          36.000  
  23820598.545                3      -2388.224          26.000    23820563.383  
              3      -1864.016          26.000  
  23677977.597   124428627.497        2616.128          34.000    23677970.518  
  96957343.746        2038.648          32.000  
                                                                  23666978.757  
              3      -2751.253          23.000  
 21  4 24 15 13  9.9940000  0 11G 4G 7G 8G 9G16G21G27G30G18G14G26
  21956659.916   115383020.603       -4074.524          39.000    21956657.035  
  89908850.229       -3174.786          40.000  
  19232362.606   101066751.127        1340.611          45.000    19232355.765  
  78753292.695        1044.711          38.000  
  18608264.149    97787078.777         364.738          48.000    18608260.209  
  76197714.924         284.147          42.000  
  20466003.950   107549577.144       -2946.922          46.000    20466000.836  
  83804850.011       -2296.257          43.000  
  21529748.018   113139577.678       -3489.036          43.000                  
                                                
  22324624.801   117316712.764        2655.495          37.000                  
                                                
  19234230.400   101076559.475       -2177.117          47.000    19234225.521  
  78760930.394       -1696.513          42.000  
  21972760.043   115467630.505        2774.005          41.000    21972755.449  
  89974766.675        2160.907          36.000  
  23821054.442                3      -2389.896          25.000    23821017.098  
              3      -1863.506          26.000  
  23677480.187   124426011.637        2615.443          34.000    23677472.793  
                      2038.808          32.000  
                                                                  23667652.566  
              3      -2766.267          24.000  
 21  4 24 15 13 10.9940000  0 11G 4G 7G 8G 9G16G21G27G30G18G14G26
  21957435.198   115387095.035       -4074.646          39.000    21957432.273  
  89912025.128       -3175.189          40.000  
  19232107.529   101065410.675        1340.149          45.000    19232100.712  
  78752248.201        1043.938          38.000  
  18608194.890    97786714.481         363.854          48.000    18608190.886  
  76197431.049         283.631          42.000  
  20466564.796   107552524.256       -2947.477          46.000    20466561.602  
  83807146.458       -2296.761          43.000  
  21530412.030   113143066.645       -3489.193          43.000                  
                                                
  22324119.533   117314057.176        2655.125          38.000                  
                                                
  19234644.723   101078736.833       -2177.779          47.000    19234639.825  
  78762627.036       -1697.096          42.000  
  21972232.261   115464856.755        2773.645          41.000    21972227.599  
  89972605.292        2161.047          35.000  
  23821510.319                3      -2396.278          24.000    23821474.523  
              3      -1864.571          25.000  
  23676982.517   124423396.039        2614.976          35.000    23676975.103  
                      2038.317          32.000  
                                                                  23668324.540  
              3      -2752.508          24.000  
 21  4 24 15 13 11.9940000  0 11G 4G 7G 8G 9G16G21G27G30G18G14G26
  21958210.508   115391169.560       -4073.895          39.000    21958207.636  
  89915200.112       -3174.677          40.000  
  19231852.522   101064070.532        1340.792          45.000    19231845.736  
  78751203.925        1044.835          38.000  
  18608125.797    97786350.822         363.880          48.000    18608121.666  
  76197147.677         283.500          42.000  
  20467125.825   107555471.786       -2947.212          46.000    20467122.428  
  83809443.230       -2296.343          43.000  
  21531076.030   113146555.644       -3488.586          43.000                  
                                                
  22323614.223   117311401.616        2655.656          38.000                  
                                                
  19235059.178   101080914.746       -2177.600          48.000    19235054.272  
  78764324.100       -1696.718          42.000  
  21971704.383   115462083.099        2774.194          41.000    21971699.795  
  89970444.006        2161.481          35.000  
  23821965.260                3      -2392.055          22.000    23821930.348  
              3      -1864.309          25.000  
  23676484.733   124420780.414        2616.317          35.000    23676477.360  
  96951229.158        2038.848          33.000  
                                                                  23668999.216  
              3      -2761.238          23.000  
 21  4 24 15 13 12.9940000  0 11G 4G 7G 8G 9G16G21G27G30G18G14G26
  21958985.774   115395243.363       -4073.291          39.000    21958982.871  
  89918374.490       -3174.249          39.000  
  19231597.466   101062729.917        1340.823          45.000    19231590.636  
  78750159.308        1044.584          38.000  
  18608056.618    97785986.943         363.910          49.000    18608052.425  
  76196864.140         283.420          42.000  
  20467686.688   107558418.903       -2946.895          46.000    20467683.245  
  83811739.688       -2296.424          43.000  
  21531739.865   113150043.851       -3487.908          44.000                  
                                                
  22323108.746   117308745.250        2656.581          38.000                  
                                                
  19235473.497   101083092.375       -2177.502          48.000    19235468.668  
  78766020.952       -1696.695          42.000  
  21971176.402   115459308.657        2775.091          41.000    21971171.738  
  89968282.095        2162.195          36.000  
  23822426.132                3      -2437.892          20.000    23822385.665  
              3      -1864.064          25.000  
  23675986.778   124418164.034        2616.756          35.000    23675979.482  
  96949190.444        2039.039          32.000  
                                                                  23669672.124  
              3      -2752.586          22.000  
 21  4 24 15 13 13.9940000  0 11G 4G 7G 8G 9G16G21G27G30G18G14G26
  21959760.971   115399316.686       -4073.346          39.000    21959758.041  
  89921548.473       -3173.828          40.000  
  19231342.273   101061389.006        1340.981          45.000    19231335.574  
  78749114.454        1044.666          39.000  
  18607987.367    97785623.066         363.732          49.000    18607983.205  
  76196580.608         283.410          42.000  
  20468247.552   107561365.820       -2946.972          46.000    20468244.004  
  83814035.991       -2296.498          43.000  
  21532403.533   113153531.490       -3487.438          44.000                  
                                                
  22322603.232   117306088.339        2656.974          37.000                  
                                                
  19235887.941   101085269.962       -2177.696          48.000    19235882.988  
  78767717.775       -1696.904          42.000  
  21970648.307   115456533.702        2774.762          40.000    21970643.682  
  89966119.775        2161.914          36.000  
  23822882.645                3      -2400.581          18.000    23822840.468  
              3      -1864.337          25.000  
  23675488.720   124415547.062        2616.666          35.000    23675481.506  
  96947151.246        2038.974          33.000  
                                                                  23670345.244  
              3      -2744.357          20.000  
 21  4 24 15 13 14.9940000  0 11G 4G 7G 8G 9G16G21G27G30G18G14G26
  21960536.072   115403389.754       -4072.955          40.000    21960533.070  
  89924722.302       -3173.712          40.000  
  19231087.174   101060048.125        1341.002          45.000    19231080.408  
  78748069.604        1044.875          39.000  
  18607918.220    97785259.497         363.390          48.000    18607914.017  
  76196297.299         283.129          42.000  
  20468808.283   107564312.854       -2947.060          46.000    20468804.756  
  83816332.383       -2296.562          43.000  
  21533067.122   113157018.870       -3487.181          44.000                  
                                                
  22322097.575   117303431.182        2657.345          37.000                  
                                                
  19236302.443   101087447.781       -2178.015          48.000    19236297.358  
  78769414.774       -1697.209          42.000  
  21970120.238   115453758.484        2774.884          40.000    21970115.596  
  89963957.261        2162.842          36.000  
  23823341.122                3      -2418.266          15.000    23823296.946  
              3      -1863.910          26.000  
  23674990.525   124412929.789        2617.377          35.000    23674983.378  
  96945111.836        2038.747          33.000  
                                                                  23671019.548  
              3      -2757.050          19.000  
 21  4 24 15 13 15.9940000  0 11G 4G 7G 8G 9G16G21G27G30G14G26G18
  21961311.078   115407462.530       -4072.736          40.000    21961308.153  
  89927895.896       -3173.236          40.000  
  19230831.941   101058707.175        1340.822          46.000    19230825.190  
  78747024.688        1045.162          39.000  
  18607849.195    97784896.142         363.354          48.000    18607844.868  
  76196014.182         282.780          42.000  
  20469369.108   107567259.898       -2947.041          46.000    20469365.597  
  83818628.762       -2296.251          43.000  
  21533730.630   113160505.865       -3486.785          44.000                  
                                                
  22321591.869   117300773.644        2657.955          37.000                  
                                                
  19236716.928   101089625.735       -2177.895          48.000    19236711.763  
  78771111.883       -1697.109          42.000  
  21969591.877   115450982.911        2775.604          40.000    21969587.387  
  89961794.512        2162.860          36.000  
  23674492.279   124410312.142        2617.648          35.000    23674485.280  
  96943072.055        2040.408          33.000  
                                                                  23671693.230  
              3      -2760.019          20.000  
                                                                  23823752.648  
              3      -1863.628          26.000  
 21  4 24 15 13 16.9940000  0 11G 4G 7G 8G 9G16G21G27G30G14G26G18
  21962086.196   115411535.197       -4072.681          40.000    21962083.217  
  89931069.407       -3173.371          40.000  
  19230576.722   101057366.341        1340.541          46.000    19230570.137  
  78745979.888        1044.657          39.000  
  18607780.196    97784533.241         362.646          48.000    18607775.868  
  76195731.394         282.272          42.000  
  20469929.883   107570207.156       -2947.610          46.000    20469926.412  
  83820925.329       -2296.626          43.000  
  21534394.213   113163992.718       -3486.722          44.000                  
                                                
  22321086.122   117298115.954        2657.719          37.000                  
                                                
  19237131.444   101091804.055       -2178.507          48.000    19237126.232  
  78772809.259       -1697.331          42.000  
  21969063.689   115448207.219        2775.739          39.000    21969059.116  
  89959631.635        2162.665          36.000  
  23673993.999   124407694.285        2617.743          35.000    23673987.134  
  96941032.182        2039.741          33.000  
                                                                  23672366.516  
              3      -2757.957          20.000  
                                                                  23824207.843  
              3      -1865.094          26.000  
 21  4 24 15 13 17.9940000  0 10G 4G 7G 8G 9G16G21G27G30G14G18
  21962861.205   115415607.848       -4072.601          40.000    21962858.185  
  89934242.896       -3173.395          40.000  
  19230321.706   101056025.728        1340.436          46.000    19230314.987  
  78744935.241        1044.895          39.000  
  18607711.176    97784170.839         362.212          48.000    18607706.894  
  76195448.999         282.214          42.000  
  20470490.717   107573154.708       -2947.523          45.000    20470487.302  
  83823222.127       -2296.953          43.000  
  21535057.828   113167479.506       -3486.750          44.000                  
                                                
  22320580.306   117295458.238        2657.560          36.000                  
                                                
  19237546.106   101093982.822       -2178.994          48.000    19237540.762  
  78774507.018       -1698.020          42.000  
  21968535.339   115445431.503        2775.739          39.000    21968530.867  
  89957468.722        2163.343          36.000  
  23673495.700   124405076.342        2618.264          35.000    23673489.047  
  96938992.232        2040.085          33.000  
                                                                  23824663.848  
              3      -1865.491          26.000  
 21  4 24 15 13 18.9940000  0 11G 4G 7G 8G 9G16G21G27G30G14G26G18
  21963636.145   115419680.541       -4072.870          40.000    21963633.163  
  89937416.424       -3173.645          40.000  
  19230066.775   101054685.356        1340.192          46.000    19230059.972  
  78743890.826        1044.210          39.000  
  18607642.239    97783808.963         361.707          48.000    18607638.067  
  76195167.020         281.670          42.000  
  20471051.618   107576102.620       -2948.224          45.000    20471048.228  
  83825519.195       -2297.322          43.000  
  21535721.401   113170966.249       -3486.624          44.000                  
                                                
  22320074.490   117292800.486        2657.587          37.000                  
                                                
  19237960.840   101096162.065       -2179.547          48.000    19237955.480  
  78776205.119       -1698.345          42.000  
  21968007.037   115442655.760        2775.854          39.000    21968002.668  
  89955305.795        2163.391          36.000  
  23672997.461   124402458.354        2618.168          35.000    23672990.882  
  96936952.248        2039.832          33.000  
                                                                  23673713.667  
              3      -2754.858          19.000  
                                                                  23825119.584  
              3      -1865.888          26.000  
 21  4 24 15 13 19.9940000  0 11G 4G 7G 8G 9G16G21G27G30G14G26G18
  21964411.136   115423752.887       -4072.302          40.000    21964408.039  
  89940589.675       -3173.212          40.000  
  19229811.791   101053344.893        1340.299          46.000    19229804.975  
  78742846.299        1044.437          39.000  
  18607573.506    97783447.283         361.516          48.000    18607569.318  
  76194885.183         281.775          42.000  
  20471612.552   107579050.509       -2948.013          45.000    20471609.142  
  83827816.264       -2297.402          43.000  
  21536384.966   113174452.622       -3486.507          44.000                  
                                                
  22319568.693   117290142.314        2658.155          36.000                  
                                                
  19238375.535   101098341.441       -2179.613          48.000    19238370.026  
  78777903.312       -1697.988          42.000  
  21967478.837   115439879.656        2775.909          39.000    21967474.375  
  89953142.649        2162.653          36.000  
  23672499.182   124399839.962        2618.642          36.000    23672492.637  
  96934911.942        2040.449          33.000  
                                                                  23674385.907  
              3      -2753.645          18.000  
                                                                  23825576.247  
              3      -1865.288          26.000  
 21  4 24 15 13 20.9940000  0 11G 4G 7G 8G 9G16G21G27G30G14G26G18
  21965186.040   115427824.850       -4071.979          40.000    21965182.921  
  89943762.632       -3172.937          40.000  
  19229556.719   101052004.273        1340.678          46.000    19229549.843  
  78741801.657        1044.922          39.000  
  18607504.673    97783085.733         361.233          48.000    18607500.562  
  76194603.455         281.349          42.000  
  20472173.472   107581998.338       -2947.977          45.000    20472169.974  
  83830113.255       -2297.073          43.000  
  21537048.339   113177938.526       -3485.849          44.000                  
                                                
  22319062.784   117287483.746        2657.760          36.000                  
                                                
  19238790.350   101100520.879       -2179.733          48.000    19238784.727  
  78779601.588       -1698.437          42.000  
  21966950.492   115437103.162        2776.556          39.000    21966945.951  
  89950979.120        2163.525          36.000  
  23672000.582   124397221.089        2619.144          36.000    23671994.289  
  96932871.261        2039.905          33.000  
                                                                  23675058.615  
              3      -2754.730          17.000  
                                                                  23826032.016  
              3      -1864.290          27.000  
 21  4 24 15 13 21.9940000  0 11G 4G 7G 8G 9G16G21G27G30G14G26G18
  21965960.892   115431896.656       -4071.930          40.000    21965957.734  
  89946935.463       -3173.071          40.000  
  19229301.724   101050663.735        1340.272          46.000    19229294.884  
  78740757.088        1044.508          39.000  
  18607436.022    97782724.526         360.942          48.000    18607431.824  
  76194321.998         281.261          42.000  
  20472734.457   107584946.310       -2948.305          45.000    20472730.915  
  83832410.379       -2297.287          43.000  
  21537711.658   113181424.222       -3485.620          44.000                  
                                                
  22318556.741   117284824.917        2659.272          36.000                  
                                                
  19239205.145   101102700.604       -2180.085          48.000    19239199.483  
  78781300.064       -1698.483          42.000  
  21966422.088   115434326.463        2776.489          39.000    21966417.479  
  89948815.481        2163.147          36.000  
  23671502.066   124394601.990        2618.865          36.000    23671495.970  
  96930830.399        2040.517          33.000  
                                                                  23675731.344  
              3      -2755.929          18.000  
                                                                  23826487.232  
              3      -1865.552          27.000  
 21  4 24 15 13 22.9940000  0 11G 4G 7G 8G 9G16G21G27G30G14G26G18
  21966735.800   115435968.630       -4072.308          40.000    21966732.598  
  89950108.418       -3173.255          40.000  
  19229046.676   101049323.588        1339.717          46.000    19229039.906  
  78739712.835        1043.996          39.000  
  18607367.468    97782364.019         360.027          48.000    18607363.231  
  76194041.093         280.430          42.000  
  20473295.513   107587894.775       -2948.885          45.000    20473291.876  
  83834707.886       -2297.953          43.000  
  21538374.979   113184910.036       -3486.138          44.000                  
                                                
  22318050.774   117282166.277        2658.297          36.000                  
                                                
  19239620.160   101104880.959       -2181.027          48.000    19239614.444  
  78782999.048       -1699.271          42.000  
  21965893.749   115431549.895        2776.416          39.000    21965889.121  
  89946651.915        2163.227          36.000  
  23671003.576   124391982.955        2618.717          36.000    23670997.545  
  96928789.610        2040.797          33.000  
                                                                  23676404.284  
              3      -2747.855          19.000  
                                                                  23826943.651  
              3      -1865.588          27.000  
 21  4 24 15 13 23.9940000  0 11G 4G 7G 8G 9G16G21G27G30G14G26G18
  21967510.899   115440041.219       -4072.839          41.000    21967507.581  
  89953281.846       -3173.456          40.000  
  19228791.863   101047984.286        1339.127          46.000    19228785.138  
  78738669.229        1043.161          39.000  
  18607299.133    97782004.634         359.111          48.000    18607294.775  
  76193761.046         279.715          42.000  
  20473856.926   107590844.184       -2949.624          45.000    20473853.239  
  83837006.126       -2298.425          43.000  
  21539038.370   113188396.403       -3486.292          44.000                  
                                                
  22317544.934   117279508.155        2658.107          36.000                  
                                                
  19240035.241   101107062.367       -2181.734          48.000    19240029.591  
  78784698.862       -1700.000          42.000  
  21965365.503   115428773.941        2775.836          38.000    21965360.919  
  89944488.812        2163.068          36.000  
  23670505.167   124389364.449        2618.480          36.000    23670499.327  
  96926749.197        2040.379          33.000  
                                                                  23677075.966  
              3      -2752.839          21.000  
                                                                  23827400.113  
              3      -1865.396          27.000  
 21  4 24 15 13 24.9940000  0 11G 4G 7G 8G 9G16G21G27G30G14G26G18
  21968285.930   115444113.421       -4071.722          41.000    21968282.528  
  89956455.005       -3172.711          40.000  
  19228537.043   101046644.862        1339.847          46.000    19228530.259  
  78737625.523        1043.562          39.000  
  18607230.665    97781645.391         359.333          48.000    18607226.412  
  76193481.126         279.789          42.000  
  20474418.116   107593793.546       -2949.210          45.000    20474414.479  
  83839304.331       -2298.290          43.000  
  21539701.689   113191882.368       -3485.760          43.000                  
                                                
  22317039.123   117276849.649        2658.780          37.000                  
                                                
  19240450.364   101109243.871       -2181.430          48.000    19240444.710  
  78786398.745       -1699.865          42.000  
  21964837.163   115425997.588        2776.263          38.000    21964832.643  
  89942325.436        2163.275          36.000  
  23670006.710   124386745.534        2618.932          36.000    23670000.993  
  96924708.472        2041.011          33.000  
                                                                  23677747.651  
              3      -2754.729          22.000  
                                                                  23827857.221  
              3      -1865.993          26.000  
 21  4 24 15 13 25.9940000  0 11G 4G 7G 8G 9G16G21G27G30G14G26G18
  21969060.811   115448185.237       -4071.979          42.000    21969057.466  
  89959627.843       -3172.931          40.000  
  19228282.074   101045305.269        1339.463          46.000    19228275.382  
  78736581.680        1043.746          39.000  
  18607162.401    97781286.266         358.947          48.000    18607158.051  
  76193201.287         279.613          42.000  
  20474979.330   107596742.820       -2949.621          45.000    20474975.564  
  83841602.464       -2298.413          43.000  
  21540364.917   113195367.849       -3485.275          43.000                  
                                                
  22316533.220   117274190.670        2658.962          37.000                  
                                                
  19240865.565   101111425.441       -2181.866          49.000    19240859.868  
  78788098.658       -1700.063          42.000  
  21964308.674   115423220.792        2776.459          38.000    21964304.176  
  89940161.705        2163.483          36.000  
  23669508.131   124384126.127        2619.127          35.000    23669502.562  
  96922667.420        2040.317          33.000  
                                                                  23678421.187  
              3      -2753.289          23.000  
                                                                  23828313.456  
              3      -1866.477          26.000  
 21  4 24 15 13 26.9940000  0 11G 4G 7G 8G 9G16G21G27G30G14G26G18
  21969835.751   115452256.992       -4071.851          42.000    21969832.377  
  89962800.632       -3172.821          40.000  
  19228027.181   101043965.847        1339.384          46.000    19228020.561  
  78735537.957        1043.781          39.000  
  18607094.120    97780927.609         358.490          48.000    18607089.762  
  76192921.805         279.339          42.000  
  20475540.666   107599692.347       -2949.670          45.000    20475536.838  
  83843900.778       -2298.392          43.000  
  21541028.177   113198853.225       -3485.233          43.000                  
                                                
  22316027.332   117271531.553        2659.380          37.000                  
                                                
  19241280.839   101113607.385       -2182.094          49.000    19241275.149  
  78789798.882       -1700.331          42.000  
  21963780.275   115420443.881        2777.026          38.000    21963775.760  
  89937997.885        2164.197          36.000  
  23669009.650   124381506.577        2618.569          35.000    23669004.034  
  96920626.178        2040.951          33.000  
                                                                  23679093.712  
              3      -2758.374          23.000  
                                                                  23828769.511  
              3      -1866.150          26.000  
 21  4 24 15 13 27.9940000  0 11G 4G 7G 8G 9G16G21G27G30G14G26G18
  21970610.648   115456328.865       -4071.912          42.000    21970607.162  
  89965973.527       -3172.864          40.000  
  19227772.368   101042626.806        1338.895          46.000    19227765.850  
  78734494.558        1043.234          39.000  
  18607026.047    97780569.610         357.542          48.000    18607021.604  
  76192642.861         278.409          42.000  
  20476102.034   107602642.333       -2950.279          45.000    20476098.075  
  83846199.474       -2298.791          43.000  
  21541691.409   113202338.687       -3485.417          43.000                  
                                                
  22315521.375   117268872.567        2658.876          37.000                  
                                                
  19241696.178   101115789.939       -2182.946          49.000    19241690.532  
  78791499.575       -1700.957          42.000  
  21963251.915   115417667.133        2776.727          38.000    21963247.322  
  89935834.170        2163.678          36.000  
  23668511.176   124378887.041        2619.365          35.000    23668505.524  
  96918585.030        2040.481          33.000  
                                                                  23679765.348  
              3      -2752.042          23.000  
                                                                  23829226.529  
              3      -1866.031          26.000  
 21  4 24 15 13 28.9940000  0 11G 4G 7G 8G 9G16G21G27G30G14G26G18
  21971385.602   115460401.183       -4072.540          43.000    21971382.036  
  89969146.760       -3173.425          40.000  
  19227517.692   101041288.420        1337.720          46.000    19227511.224  
  78733451.656        1042.445          39.000  
  18606958.188    97780212.555         356.548          48.000    18606953.674  
  76192364.635         277.758          42.000  
  20476663.608   107605593.061       -2951.127          45.000    20476659.594  
  83848498.748       -2299.863          43.000  
  21542354.623   113205824.518       -3486.055          42.000                  
                                                
  22315015.411   117266213.940        2658.252          37.000                  
                                                
  19242111.660   101117973.368       -2183.875          49.000    19242106.100  
  78793200.956       -1701.810          42.000  
  21962723.520   115414890.733        2776.031          38.000    21962718.991  
  89933670.775        2163.116          36.000  
  23668012.689   124376267.898        2618.864          35.000    23668007.086  
  96916544.110        2040.360          33.000  
                                                                  23680436.759  
              3      -2755.380          23.000  
                                                                  23829681.728  
              3      -1868.533          26.000  
 21  4 24 15 13 29.9940000  0 11G 4G 7G 8G 9G16G21G27G30G18G14G26
  21972160.799   115464474.024       -4073.138          43.000    21972157.141  
  89972320.391       -3173.657          40.000  
  19227263.250   101039950.805        1337.221          46.000    19227256.636  
  78732409.353        1041.974          39.000  
  18606890.438    97779856.570         355.399          48.000    18606885.818  
  76192087.228         277.216          42.000  
  20477225.345   107608544.645       -2952.177          45.000    20477221.351  
  83850798.671       -2300.163          42.000  
  21543017.922   113209310.834       -3486.438          42.000                  
                                                
  22314509.597   117263555.793        2658.034          37.000                  
                                                
  19242527.374   101120157.781       -2184.644          48.000    19242521.719  
  78794903.089       -1702.329          42.000  
  21962195.273   115412114.881        2775.354          38.000    21962190.728  
  89931507.756        2162.714          36.000  
  23830142.788                3      -2397.016          26.000    23830138.847  
              3      -1868.003          26.000  
  23667514.260   124373649.209        2618.409          35.000    23667508.794  
  96914503.573        2040.468          33.000  
                                                                  23681107.232  
              3      -2758.520          23.000  
 21  4 24 15 13 30.9940000  0 11G 4G 7G 8G 9G16G21G27G30G14G26G18
  21972935.991   115468547.278       -4073.676          43.000    21972932.275  
  89975494.357       -3174.256          40.000  
  19227008.871   101038613.825        1336.615          46.000    19227002.176  
  78731367.553        1041.644          39.000  
  18606822.821    97779501.510         354.446          48.000    18606818.227  
  76191810.564         276.180          42.000  
  20477787.255   107611496.938       -2952.746          45.000    20477783.180  
  83853099.183       -2300.821          42.000  
  21543681.287   113212797.513       -3486.795          42.000                  
                                                
  22314003.875   117260898.012        2657.573          38.000                  
                                                
  19242943.266   101122343.073       -2185.795          48.000    19242937.576  
  78796605.923       -1703.216          42.000  
  21961667.216   115409339.390        2775.220          38.000    21961662.677  
  89929345.045        2162.653          36.000  
  23667016.004   124371030.822        2617.696          34.000    23667010.429  
  96912463.271        2040.014          32.000  
                                                                  23681779.753  
              3      -2748.788          23.000  
                                                                  23830595.586  
              3      -1868.765          26.000  
 21  4 24 15 13 31.9940000  0 11G 4G 7G 8G 9G16G21G27G30G18G26G14
  21973711.219   115472620.821       -4074.029          43.000    21973707.416  
  89978668.537       -3174.274          40.000  
  19226754.555   101037277.369        1335.966          46.000    19226747.814  
  78730326.149        1041.220          39.000  
  18606755.356    97779147.270         353.610          48.000    18606750.740  
  76191534.540         275.424          42.000  
  20478349.266   107614449.860       -2953.479          44.000    20478345.103  
  83855400.152       -2301.465          42.000  
  21544344.773   113216284.408       -3487.238          42.000                  
                                                
  22313498.217   117258240.483        2657.126          38.000                  
                                                
  19243359.138   101124529.111       -2186.579          48.000    19243353.622  
  78798309.331       -1703.890          42.000  
  21961139.103   115406564.182        2774.853          38.000    21961134.666  
  89927182.552        2162.170          36.000  
  23831066.118                2      -2398.381          27.000    23831052.987  
                     -1869.523          27.000  
  23682445.351                3      -3524.249          23.000    23682451.055  
              3      -2757.276          22.000  
  23666517.702   124368412.665        2617.133          34.000    23666512.229  
                      2039.247          32.000  
 21  4 24 15 13 32.9940000  0 11G 4G 7G 8G 9G16G21G27G30G18G26G14
  21974486.455   115476694.692       -4074.225          43.000    21974482.657  
  89981842.984       -3174.683          40.000  
  19226500.412   101035941.479        1335.406          46.000    19226493.578  
  78729285.220        1040.410          39.000  
  18606688.120    97778793.870         352.787          48.000    18606683.474  
  76191259.153         274.875          42.000  
  20478911.284   107617403.433       -2954.061          45.000    20478907.219  
  83857701.648       -2302.034          42.000  
  21545008.394   113219771.580       -3487.304          42.000                  
                                                
  22312992.572   117255583.243        2656.970          38.000                  
                                                
  19243775.210   101126715.932       -2187.348          48.000    19243769.763  
  78800013.342       -1704.464          42.000  
  21960611.022   115403789.263        2774.829          38.000    21960606.597  
  89925020.274        2162.219          35.000  
  23831522.405                2      -2399.490          28.000    23831508.530  
                     -1870.090          27.000  
  23683114.075                3      -3524.249          22.000    23683123.133  
              3      -2753.256          20.000  
  23666019.417   124365794.740        2617.748          34.000    23666014.080  
  96908383.213        2039.855          32.000  
 21  4 24 15 13 33.9940000  0 11G 4G 7G 8G 9G16G21G27G30G18G26G14
  21975261.849   115480768.973       -4074.438          43.000    21975258.019  
  89985017.759       -3175.061          40.000  
  19226246.352   101034606.232        1335.019          46.000    19226239.414  
  78728244.750        1040.465          39.000  
  18606620.959    97778441.399         352.038          48.000    18606616.377  
  76190984.514         274.168          42.000  
  20479473.389   107620357.734       -2954.701          45.000    20479469.434  
  83860003.699       -2302.511          43.000  
  21545671.990   113223259.123       -3487.939          42.000                  
                                                
  22312486.987   117252926.352        2657.011          38.000                  
                                                
  19244191.627   101128903.631       -2188.291          48.000    19244186.153  
  78801718.032       -1704.909          42.000  
  21960082.965   115401014.742        2773.956          37.000    21960078.689  
  89922858.275        2162.189          36.000  
  23831981.198                2      -2400.898          28.000    23831965.434  
                     -1870.526          27.000  
  23683783.868                3      -3524.249          21.000    23683795.193  
              3      -2752.180          18.000  
  23665521.362   124363177.151        2617.487          34.000    23665515.888  
  96906343.546        2039.437          32.000  
 21  4 24 15 13 34.9940000  0 11G 4G 7G 8G 9G16G21G27G30G18G26G14
  21976037.378   115484843.619       -4074.890          43.000    21976033.442  
  89988192.802       -3175.299          40.000  
  19225992.391   101033271.595        1334.320          46.000    19225985.505  
  78727204.776        1039.755          39.000  
  18606554.049    97778089.806         351.157          48.000    18606549.408  
  76190710.544         273.428          42.000  
  20480035.774   107623312.705       -2955.215          45.000    20480031.770  
  83862306.279       -2303.081          43.000  
  21546335.724   113226746.932       -3487.904          42.000                  
                                                
  22311981.535   117250269.797        2656.588          38.000                  
                                                
  19244608.143   101131092.133       -2188.932          48.000    19244602.533  
  78803423.363       -1705.596          42.000  
  21959554.999   115398240.520        2774.164          37.000    21959550.724  
  89920696.589        2161.261          36.000  
  23832442.459                2      -2400.587          28.000    23832422.409  
                     -1870.706          27.000  
  23684451.432                3      -3524.249          21.000    23684467.645  
              3      -2756.659          17.000  
  23665023.103   124360559.863        2616.863          34.000    23665017.768  
  96904304.096        2039.683          32.000  
 21  4 24 15 13 35.9940000  0 11G 4G 7G 8G 9G16G21G27G30G18G14G26
  21976812.830   115488918.357       -4074.878          43.000    21976808.864  
  89991367.920       -3175.208          40.000  
  19225738.476   101031937.266        1334.210          46.000    19225731.672  
  78726165.056        1039.633          39.000  
  18606487.292    97777738.825         350.663          48.000    18606482.614  
  76190437.035         273.425          42.000  
  20480598.268   107626268.085       -2955.490          45.000    20480594.152  
  83864609.166       -2303.081          43.000  
  21546999.473   113230234.822       -3488.107          42.000                  
                                                
  22311476.054   117247613.301        2656.430          38.000                  
                                                
  19245024.703   101133281.186       -2189.260          48.000    19245019.097  
  78805129.116       -1706.066          42.000  
  21959027.096   115395466.413        2774.011          37.000    21959022.831  
  89918534.923        2161.621          36.000  
  23832896.996                2      -2401.234          28.000    23832879.859  
                     -1871.682          27.000  
  23664525.076   124357942.581        2617.211          34.000    23664519.862  
  96902264.642        2039.645          32.000  
                                                                  23685140.657  
              3      -2759.018          16.000  
 21  4 24 15 13 36.9940000  0 11G 4G 7G 8G 9G16G21G27G30G18G14G26
  21977588.269   115492993.148       -4075.091          43.000    21977584.296  
  89994543.068       -3175.098          40.000  
  19225484.750   101030603.237        1333.699          47.000    19225477.922  
  78725125.537        1039.455          39.000  
  18606420.620    97777388.437         349.999          48.000    18606416.030  
  76190164.016         272.723          42.000  
  20481160.730   107629223.853       -2955.927          45.000    20481156.501  
  83866912.363       -2303.316          43.000  
  21547663.107   113233722.694       -3488.132          42.000                  
                                                
  22310970.633   117244956.785        2656.288          38.000                  
                                                
  19245441.465   101135470.756       -2189.864          48.000    19245435.860  
  78806835.282       -1706.472          42.000  
  21958499.228   115392692.317        2773.956          37.000    21958494.952  
  89916373.297        2161.713          36.000  
  23833355.503                2      -2402.172          28.000    23833337.210  
                     -1871.531          28.000  
  23664026.944   124355325.254        2617.036          33.000    23664021.831  
  96900225.207        2039.075          32.000  
                                                                  23685811.538  
              3      -2756.610          16.000  
 21  4 24 15 13 37.9940000  0 11G 4G 7G 8G 9G16G21G27G30G18G14G26
  21978363.766   115497068.028       -4074.921          43.000    21978359.863  
  89997718.309       -3174.927          40.000  
  19225231.037   101029269.535        1333.575          47.000    19225224.121  
  78724086.302        1039.097          39.000  
  18606354.068    97777038.642         349.522          48.000    18606349.477  
  76189891.464         272.216          42.000  
  20481723.258   107632180.035       -2956.484          45.000    20481718.993  
  83869215.875       -2303.651          42.000  
  21548326.721   113237210.613       -3487.797          42.000                  
                                                
  22310465.160   117242300.340        2656.339          38.000                  
                                                
  19245858.333   101137660.889       -2190.398          48.000    19245852.628  
  78808541.880       -1706.986          42.000  
  21957971.416   115389918.306        2773.822          37.000    21957967.037  
  89914211.737        2161.163          36.000  
  23833814.200                       -2402.290          28.000    23833795.196  
                     -1871.648          28.000  
  23663528.821   124352707.978        2617.354          33.000    23663523.768  
                      2039.435          32.000  
                                                                  23686481.938  
              3      -2752.050          18.000  
 21  4 24 15 13 38.9940000  0 11G 4G 7G 8G 9G16G21G27G30G18G14G26
  21979139.263   115501143.027       -4074.872          43.000    21979135.410  
  90000893.632       -3175.067          40.000  
  19224977.421   101027936.185        1333.026          47.000    19224970.367  
  78723047.300        1039.013          39.000  
  18606287.686    97776689.492         348.920          48.000    18606282.952  
  76189619.380         271.864          42.000  
  20482285.911   107635136.645       -2956.809          45.000    20482281.676  
  83871519.734       -2303.967          42.000  
  21548990.373   113240698.583       -3487.953          42.000                  
                                                
  22309959.822   117239643.926        2656.359          39.000                  
                                                
  19246275.258   101139851.567       -2190.953          48.000    19246269.465  
  78810248.897       -1707.145          42.000  
  21957443.464   115387144.370        2773.852          36.000    21957439.183  
  89912050.219        2161.444          36.000  
  23834270.483                       -2402.484          27.000    23834253.867  
                     -1871.893          28.000  
  23663030.714   124350090.711        2617.298          33.000    23663025.698  
                      2039.334          31.000  
                                                                  23687154.025  
              3      -2755.415          19.000  
 21  4 24 15 13 39.9940000  0 11G 4G 7G 8G 9G16G21G27G30G18G26G14
  21979914.617   115505217.908       -4074.927          43.000    21979910.853  
  90004068.875       -3175.549          39.000  
  19224723.759   101026602.957        1332.853          47.000    19224716.820  
  78722008.444        1038.494          39.000  
  18606221.399    97776340.738         348.287          48.000    18606216.507  
  76189347.607         271.414          42.000  
  20482848.511   107638093.461       -2957.151          45.000    20482844.256  
  83873823.747       -2304.280          42.000  
  21549654.063   113244186.392       -3487.871          43.000                  
                                                
  22309454.357   117236987.392        2656.252          39.000                  
                                                
  19246692.274   101142042.595       -2191.460          49.000    19246686.417  
  78811956.187       -1707.607          42.000  
  21956915.480   115384370.299        2773.663          36.000    21956911.254  
  89909888.621        2161.371          36.000  
  23834722.619                       -2402.337          27.000    23834712.377  
                     -1872.563          28.000  
  23687823.950                3      -3537.734          22.000    23687825.993  
              3      -2754.272          19.000  
  23662532.438   124347473.267        2617.496          33.000    23662527.645  
  96894106.775        2039.571          32.000  
 21  4 24 15 13 40.9940000  0 11G 4G 7G 8G 9G16G21G27G30G18G26G14
  21980690.056   115509292.749       -4074.744          43.000    21980686.319  
  90007244.059       -3175.275          39.000  
  19224470.232   101025269.914        1332.907          47.000    19224463.065  
  78720969.700        1038.664          39.000  
  18606155.061    97775992.461         348.027          48.000    18606150.296  
  76189076.241         271.222          41.000  
  20483411.173   107641050.550       -2957.286          45.000    20483406.976  
  83876127.974       -2304.371          42.000  
  21550317.724   113247674.104       -3487.623          43.000                  
                                                
  22308948.834   117234330.734        2656.855          38.000                  
                                                
  19247109.204   101144234.028       -2191.613          49.000    19247103.407  
  78813663.798       -1707.870          42.000  
  21956387.512   115381596.155        2774.176          36.000    21956383.425  
  89907726.946        2161.523          36.000  
  23835174.751                       -2402.655          26.000    23835170.309  
                     -1872.253          28.000  
  23688500.552                3      -3537.734          21.000    23688496.777  
              3      -2758.774          19.000  
  23662034.231   124344855.693        2617.731          33.000    23662029.544  
  96892067.101        2039.882          32.000  
 21  4 24 15 13 41.9940000  0 11G 4G 7G 8G 9G16G21G27G30G18G26G14
  21981465.422   115513367.525       -4074.585          43.000    21981461.728  
  90010419.202       -3174.933          39.000  
  19224216.663   101023937.052        1332.860          47.000    19224209.452  
  78719931.081        1039.047          39.000  
  18606088.830    97775644.658         347.681          48.000    18606083.993  
  76188805.221         270.874          42.000  
  20483973.917   107644007.892       -2957.324          45.000    20483969.685  
  83878432.396       -2304.384          43.000  
  21550981.482   113251161.693       -3487.346          43.000                  
                                                
  22308443.373   117231673.978        2657.130          38.000                  
                                                
  19247526.286   101146425.863       -2191.916          49.000    19247520.505  
  78815371.716       -1707.908          42.000  
  21955859.556   115378821.932        2774.457          36.000    21955855.469  
  89905565.222        2161.450          36.000  
  23835630.623                       -2402.842          26.000    23835629.120  
                     -1873.267          28.000  
  23689172.017                3      -3537.734          22.000    23689168.859  
              3      -2762.322          19.000  
  23661535.982   124342237.993        2617.641          33.000    23661531.455  
  96890027.363        2039.672          32.000  
 21  4 24 15 13 42.9940000  0 11G 4G 7G 8G 9G16G21G27G30G18G14G26
  21982240.794   115517442.231       -4074.664          43.000    21982237.039  
  90013594.296       -3174.945          40.000  
  19223963.143   101022604.350        1332.589          47.000    19223955.775  
  78718892.625        1038.497          39.000  
  18606022.720    97775297.283         347.260          48.000    18606017.812  
  76188534.527         270.828          42.000  
  20484536.764   107646965.488       -2957.748          45.000    20484532.504  
  83880737.016       -2304.675          43.000  
  21551645.110   113254649.157       -3487.168          44.000                  
                                                
  22307937.895   117229017.135        2656.873          38.000                  
                                                
  19247943.521   101148618.085       -2192.443          48.000    19247937.708  
  78817079.950       -1708.617          42.000  
  21955331.495   115376047.586        2774.078          36.000    21955327.529  
  89903403.399        2161.762          36.000  
  23836085.360                       -2403.252          26.000    23836086.708  
                     -1873.356          28.000  
  23661037.603   124339620.144        2617.432          33.000    23661033.348  
                      2039.954          32.000  
                                                                  23689840.482  
              3      -2750.959          17.000  
 21  4 24 15 13 43.9940000  0 11G 4G 7G 8G 9G16G21G27G30G18G14G26
  21983016.180   115521516.739       -4074.622          43.000    21983012.456  
  90016769.254       -3174.933          40.000  
  19223709.620   101021271.694        1332.665          47.000    19223702.148  
  78717854.195        1038.648          39.000  
  18605956.734    97774950.226         346.860          48.000    18605951.766  
  76188264.095         270.229          42.000  
  20485099.600   107649923.191       -2957.566          45.000    20485095.371  
  83883041.721       -2304.509          43.000  
  21552308.751   113258136.393       -3487.136          44.000                  
                                                
  22307432.266   117226360.023        2657.248          38.000                  
                                                
  19248360.743   101150810.568       -2192.567          48.000    19248354.889  
  78818788.371       -1708.576          42.000  
  21954803.351   115373273.035        2774.493          36.000    21954799.498  
  89901241.392        2162.036          36.000  
  23836537.121                       -2404.459          26.000    23836546.597  
                     -1872.760          28.000  
  23660539.188   124337002.000        2617.812          33.000    23660535.150  
  96885947.369        2039.717          32.000  
                                                                  23690513.820  
              3      -2761.207          16.000  
 21  4 24 15 13 44.9940000  0 11G 4G 7G 8G 9G16G21G27G30G18G14G26
  21983791.495   115525591.013       -4074.207          43.000    21983787.657  
  90019943.999       -3174.652          39.000  
  19223456.080   101019939.037        1332.679          47.000    19223448.561  
  78716815.774        1038.014          39.000  
  18605890.722    97774603.444         346.500          48.000    18605885.811  
  76187993.872         269.962          42.000  
  20485662.451   107652880.986       -2957.659          45.000    20485658.203  
  83885346.505       -2304.601          43.000  
  21552972.375   113261623.307       -3486.749          44.000                  
                                                
  22306926.628   117223702.632        2657.590          38.000                  
                                                
  19248777.906   101153003.267       -2192.958          48.000    19248772.160  
  78820496.956       -1708.633          42.000  
  21954275.316   115370498.245        2774.750          36.000    21954271.550  
  89899079.228        2162.372          36.000  
  23836989.527                       -2402.891          26.000    23837005.419  
                     -1873.032          28.000  
  23660040.803   124334383.522        2618.489          33.000    23660036.941  
  96883906.997        2040.086          32.000  
                                                                  23691185.354  
              3      -2753.049          15.000  
 21  4 24 15 13 45.9940000  0 11G 4G 7G 8G 9G16G21G27G30G18G14G26
  21984566.812   115529665.305       -4074.676          43.000    21984562.954  
  90023118.770       -3174.860          39.000  
  19223202.644   101018606.640        1332.040          47.000    19223194.991  
  78715777.540        1037.718          39.000  
  18605824.960    97774257.210         345.811          48.000    18605819.936  
  76187724.079         269.531          42.000  
  20486225.435   107655839.133       -2958.396          45.000    20486221.227  
  83887651.549       -2305.233          43.000  
  21553636.011   113265110.203       -3487.020          44.000                  
                                                
  22306420.910   117221045.190        2657.555          38.000                  
                                                
  19249195.338   101155196.429       -2193.589          48.000    19249189.549  
  78822205.922       -1709.235          42.000  
  21953747.241   115367723.459        2774.261          35.000    21953743.485  
  89896917.008        2162.384          36.000  
  23837447.232                       -2404.233          25.000    23837463.236  
                     -1873.487          28.000  
  23659542.239   124331765.036        2617.367          33.000    23659538.781  
                      2039.808          32.000  
                                                                  23691856.800  
              3      -2754.250          15.000  
 21  4 24 15 13 46.9940000  0 11G 4G 7G 8G 9G16G21G27G30G18G14G26
  21985342.209   115533739.600       -4074.194          43.000    21985338.240  
  90026293.559       -3174.951          39.000  
  19222949.153   101017274.499        1331.842          47.000    19222941.489  
  78714739.494        1038.009          39.000  
  18605759.066    97773911.530         345.385          48.000    18605754.161  
  76187454.714         269.356          42.000  
  20486788.456   107658797.612       -2958.715          45.000    20486784.231  
  83889956.852       -2305.425          43.000  
  21554299.557   113268597.070       -3486.948          44.000                  
                                                
  22305915.292   117218387.781        2657.353          38.000                  
                                                
  19249612.769   101157390.071       -2193.782          48.000    19249606.966  
  78823915.256       -1709.613          42.000  
  21953219.164   115364948.601        2774.908          35.000    21953215.461  
  89894754.844        2162.170          36.000  
  23837904.996                       -2404.398          25.000    23837921.553  
                     -1873.645          28.000  
  23659043.808   124329146.457        2618.297          33.000    23659040.391  
                      2040.620          32.000  
                                                                  23692530.129  
              3      -2753.253          15.000  
 21  4 24 15 13 47.9940000  0 11G 4G 7G 8G 9G16G21G27G30G18G14G26
  21986117.499   115537813.794       -4074.139          43.000    21986113.512  
  90029468.243       -3174.463          39.000  
  19222695.677   101015942.468        1332.242          47.000    19222688.032  
  78713701.548        1038.232          39.000  
  18605693.403    97773566.242         345.382          48.000    18605688.412  
  76187185.665         268.926          42.000  
  20487351.442   107661756.281       -2958.642          45.000    20487347.301  
  83892262.314       -2305.259          43.000  
  21554963.111   113272083.760       -3486.541          44.000                  
                                                
  22305409.649   117215730.163        2657.896          38.000                  
                                                
  19250030.203   101159584.069       -2194.148          48.000    19250024.434  
  78825624.858       -1709.711          42.000  
  21952691.100   115362173.600        2775.360          35.000    21952687.303  
  89892592.524        2162.347          35.000  
  23838361.512                       -2405.955          25.000    23838378.894  
                     -1873.749          28.000  
  23658545.342   124326527.701        2618.562          33.000    23658542.166  
  96877785.619        2039.818          32.000  
                                                                  23693200.442  
              3      -2749.535          16.000  
 21  4 24 15 13 48.9940000  0 11G 4G 7G 8G 9G16G21G27G30G18G14G26
  21986892.814   115541887.946       -4074.420          43.000    21986888.738  
  90032642.895       -3174.615          39.000  
  19222442.225   101014610.640        1331.687          47.000    19222434.573  
  78712663.775        1037.477          39.000  
  18605627.649    97773221.448         344.271          48.000    18605622.808  
  76186916.986         268.400          42.000  
  20487914.403   107664715.239       -2959.184          46.000    20487910.412  
  83894568.012       -2306.061          43.000  
  21555626.645   113275570.350       -3486.766          45.000                  
                                                
  22304903.844   117213072.504        2657.394          38.000                  
                                                
  19250447.798   101161778.464       -2194.704          48.000    19250441.962  
  78827334.775       -1710.078          42.000  
  21952162.957   115359398.586        2774.963          36.000    21952159.237  
  89890430.167        2162.250          36.000  
  23838822.040                3      -2405.646          24.000    23838835.812  
                     -1874.128          28.000  
  23658046.971   124323908.800        2618.970          33.000    23658043.786  
                      2041.050          31.000  
                                                                  23693871.009  
              3      -2751.963          17.000  
 21  4 24 15 13 49.9940000  0 11G 4G 7G 8G 9G16G21G27G30G18G14G26
  21987668.054   115545962.006       -4074.255          43.000    21987663.929  
  90035817.472       -3174.420          39.000  
  19222188.857   101013278.963        1331.393          47.000    19222181.131  
  78711626.098        1037.231          39.000  
  18605562.056    97772877.058         344.115          48.000    18605557.286  
  76186648.636         268.150          42.000  
  20488477.518   107667674.409       -2959.274          46.000    20488473.434  
  83896873.851       -2306.065          43.000  
  21556290.307   113279056.798       -3486.566          45.000                  
                                                
  22304398.126   117210414.681        2657.675          38.000                  
                                                
  19250865.491   101163973.222       -2194.955          48.000    19250859.566  
  78829044.979       -1710.530          42.000  
  21951634.740   115356623.431        2775.049          37.000    21951631.063  
  89888267.751        2162.110          36.000  
  23839281.105                3      -2405.802          24.000    23839292.953  
                     -1874.613          28.000  
  23657548.509                        2618.157          33.000    23657545.347  
                      2041.069          31.000  
                                                                  23694541.989  
              3      -2748.484          18.000  
 21  4 24 15 13 50.9940000  0 11G 4G 7G 8G 9G16G21G27G30G18G14G26
  21988443.280   115550035.875       -4073.987          43.000    21988439.215  
  90038991.938       -3174.426          39.000  
  19221935.521   101011947.335        1331.494          47.000    19221927.787  
  78710588.449        1037.879          39.000  
  18605496.540    97772533.028         343.761          48.000    18605491.816  
  76186380.567         267.870          42.000  
  20489040.575   107670633.739       -2959.531          46.000    20489036.680  
  83899179.818       -2306.182          43.000  
  21556953.783   113282543.008       -3486.152          45.000                  
                                                
  22303892.330   117207756.639        2658.162          38.000                  
                                                
  19251283.178   101166168.263       -2195.262          48.000    19251277.278  
  78830755.386       -1710.482          42.000  
  21951106.612   115353848.113        2775.140          37.000    21951102.875  
  89886105.148        2162.201          36.000  
  23839739.778                3      -2406.060          24.000    23839750.346  
                     -1874.883          27.000  
  23657049.976   124318670.425        2619.889          33.000    23657047.008  
                      2041.426          31.000  
                                                                  23695210.199  
              3      -2721.924          16.000  
 21  4 24 15 13 51.9940000  0 11G 4G 7G 8G 9G16G21G27G30G18G14G26
  21989218.499   115554109.668       -4073.938          43.000    21989214.347  
  90042166.315       -3174.481          39.000  
  19221682.186   101010615.867        1331.227          47.000    19221674.393  
  78709550.959        1037.277          39.000  
  18605431.113    97772189.428         343.192          48.000    18605426.400  
  76186112.834         267.411          42.000  
  20489603.744   107673593.281       -2959.727          46.000    20489599.834  
  83901485.962       -2306.178          43.000  
  21557617.150   113286029.092       -3486.283          45.000                  
                                                
  22303386.563   117205098.473        2658.131          38.000                  
                                                
  19251700.856   101168363.674       -2195.766          48.000    19251695.007  
  78832466.111       -1711.089          42.000  
  21950578.377   115351072.680        2774.878          37.000    21950574.751  
  89883942.458        2162.286          36.000  
  23840199.666                3      -2405.080          25.000    23840207.217  
                     -1874.867          28.000  
  23656551.355   124316051.006        2618.827          33.000    23656548.514  
  96869621.987        2040.397          31.000  
                                                                  23695880.649  
              3      -2752.958          16.000  
 21  4 24 15 13 52.9940000  0 11G 4G 7G 8G 9G16G21G27G30G18G14G26
  21989993.607   115558183.400       -4073.694          43.000    21989989.543  
  90045340.664       -3174.609          39.000  
  19221428.833   101009284.596        1330.997          47.000    19221421.060  
  78708513.607        1037.019          39.000  
  18605365.849    97771846.300         342.808          48.000    18605361.173  
  76185845.464         267.243          42.000  
  20490166.963   107676553.121       -2960.073          46.000    20490163.126  
  83903792.336       -2306.619          43.000  
  21558280.506   113289515.068       -3485.926          45.000                  
                                                
  22302880.776   117202440.222        2658.244          38.000                  
                                                
  19252118.700   101170559.503       -2196.115          48.000    19252112.861  
  78834177.145       -1711.176          42.000  
  21950050.286   115348297.116        2775.604          37.000    21950046.504  
  89881779.707        2162.689          35.000  
  23840658.369                3      -2405.394          26.000    23840665.720  
                     -1874.763          28.000  
  23656052.860   124313431.404        2619.267          33.000    23656050.218  
  96867580.728        2041.158          31.000  
                                                                  23696551.210  
              3      -2745.821          18.000  
 21  4 24 15 13 53.9940000  0 11G 4G 7G 8G 9G16G21G27G30G18G14G26
  21990768.770   115562257.185       -4073.688          43.000    21990764.748  
  90048515.032       -3174.432          39.000  
  19221175.616   101007953.600        1330.862          47.000    19221167.842  
  78707476.454        1037.073          39.000  
  18605300.684    97771503.747         342.320          48.000    18605296.069  
  76185578.543         266.463          42.000  
  20490730.189   107679513.314       -2960.355          45.000    20490726.441  
  83906098.967       -2306.855          43.000  
  21558943.926   113293001.037       -3485.822          44.000                  
                                                
  22302374.933   117199781.975        2658.488          38.000                  
                                                
  19252536.623   101172755.824       -2196.533          47.000    19252530.788  
  78835888.573       -1711.902          42.000  
  21949522.113   115345521.642        2775.433          37.000    21949518.316  
  89879617.008        2162.342          35.000  
  23841116.801                3      -2404.691          25.000    23841122.856  
                     -1875.097          27.000  
  23655554.333   124310811.789        2619.325          33.000    23655551.859  
                      2041.710          31.000  
                                                                  23697221.502  
              3      -2749.326          19.000  
 21  4 24 15 13 54.9940000  0 11G 4G 7G 8G 9G16G21G27G30G18G14G26
  21991544.109   115566331.154       -4073.944          43.000    21991539.936  
  90051689.559       -3174.933          38.000  
  19220922.338   101006623.014        1330.493          47.000    19220914.690  
  78706439.655        1036.322          39.000  
  18605235.610    97771161.902         341.608          48.000    18605230.969  
  76185312.155         266.279          42.000  
  20491293.473   107682473.992       -2960.881          46.000    20491289.856  
  83908405.990       -2307.098          43.000  
  21559607.397   113296487.126       -3486.014          44.000                  
                                                
  22301869.163   117197123.848        2658.320          38.000                  
                                                
  19252954.678   101174952.776       -2197.101          47.000    19252948.768  
  78837600.476       -1712.073          42.000  
  21948993.904   115342746.298        2775.299          37.000    21948990.138  
  89877454.373        2162.671          35.000  
  23841577.589                2      -2407.501          25.000    23841580.030  
                     -1875.508          27.000  
  23655055.813   124308192.206        2620.362          33.000    23655053.406  
                      2041.338          31.000  
                                                                  23697893.493  
              3      -2753.407          20.000  
 21  4 24 15 13 55.9940000  0 11G 4G 7G 8G 9G16G21G27G30G18G14G26
  21992319.428   115570405.350       -4074.481          43.000    21992315.174  
  90054864.243       -3175.000          38.000  
  19220669.223   101005292.904        1329.666          47.000    19220661.553  
  78705403.167        1036.255          39.000  
  18605170.687    97770820.828         340.470          48.000    18605165.993  
  76185046.386         265.349          42.000  
  20491856.996   107685435.233       -2961.812          46.000    20491853.481  
  83910713.457       -2307.969          43.000  
  21560270.975   113299973.410       -3486.525          45.000                  
                                                
  22301363.351   117194465.956        2657.317          38.000                  
                                                
  19253372.942   101177150.421       -2198.143          47.000    19253366.976  
  78839312.920       -1712.892          42.000  
  21948465.871   115339971.174        2774.933          37.000    21948462.037  
  89875291.917        2162.628          35.000  
  23842038.425                3      -2408.842          25.000    23842037.879  
                     -1875.703          27.000  
  23654557.237   124305572.882        2619.498          34.000    23654554.985  
                      2040.831          31.000  
                                                                  23698565.694  
              3      -2752.246          21.000  
 21  4 24 15 13 56.9940000  0 11G 4G 7G 8G 9G16G21G27G30G18G14G26
  21993094.824   115574479.768       -4074.811          43.000    21993090.465  
  90058039.123       -3175.085          38.000  
  19220416.282   101003963.256        1329.138          47.000    19220408.468  
  78704367.084        1035.802          39.000  
  18605105.895    97770480.500         339.799          48.000    18605101.241  
  76184781.205         264.602          41.000  
  20492420.584   107688397.010       -2962.224          46.000    20492416.999  
  83913021.341       -2308.408          43.000  
  21560934.619   113303459.847       -3486.573          44.000                  
                                                
  22300857.669   117191808.208        2657.410          38.000                  
                                                
  19253791.166   101179348.761       -2198.919          47.000    19253785.299  
  78841025.907       -1713.225          42.000  
  21947937.796   115337196.242        2774.432          37.000    21947933.967  
  89873129.651        2162.006          35.000  
  23842494.634                2      -2409.141          24.000    23842494.348  
                     -1876.877          26.000  
  23654058.840   124302953.673        2618.651          34.000    23654056.616  
                      2041.186          31.000  
                                                                  23699238.446  
              3      -2747.303          21.000  
 21  4 24 15 13 57.9940000  0 11G 4G 7G 8G 9G16G21G27G30G18G14G26
  21993870.316   115578554.545       -4075.274          43.000    21993865.782  
  90061214.281       -3175.519          38.000  
  19220163.376   101002634.210        1328.678          47.000    19220155.517  
  78703331.482        1035.116          40.000  
  18605041.282    97770141.065         338.797          48.000    18605036.664  
  76184516.710         263.969          41.000  
  20492984.319   107691359.485       -2962.982          46.000    20492980.770  
  83915329.755       -2308.904          43.000  
  21561598.194   113306946.610       -3487.020          44.000                  
                                                
  22300351.946   117189150.798        2656.882          38.000                  
                                                
  19254209.574   101181547.912       -2199.796          47.000    19254203.631  
  78842739.536       -1714.141          43.000  
  21947409.784   115334421.652        2774.304          36.000    21947405.949  
  89870967.627        2162.354          35.000  
  23842949.647                3      -2409.013          23.000    23842950.843  
                     -1877.337          26.000  
  23653560.613   124300334.748        2618.843          34.000    23653558.367  
                      2040.062          31.000  
                                                                  23699910.450  
              3      -2748.848          22.000  
 21  4 24 15 13 58.9940000  0 11G 4G 7G 8G 9G16G21G27G30G18G14G26
  21994645.753   115582629.789       -4075.281          43.000    21994641.176  
  90064389.788       -3175.623          38.000  
  19219910.578   101001305.860        1328.135          47.000    19219902.661  
  78702296.403        1034.767          40.000  
  18604976.899    97769802.608         338.065          48.000    18604972.207  
  76184252.980         263.308          41.000  
  20493548.231   107694322.729       -2963.501          46.000    20493544.706  
  83917638.774       -2309.243          43.000  
  21562261.799   113310433.766       -3487.203          44.000                  
                                                
  22299846.381   117186493.757        2657.217          38.000                  
                                                
  19254628.168   101183747.964       -2200.333          47.000    19254622.412  
  78844453.875       -1714.734          42.000  
  21946881.880   115331647.500        2774.530          37.000    21946877.934  
  89868805.996        2160.950          35.000  
  23843405.957                3      -2409.183          22.000    23843409.025  
                     -1878.141          26.000  
  23653062.306   124297716.203        2618.766          34.000    23653060.097  
                      2040.024          31.000  
                                                                  23700581.518  
              3      -2750.709          23.000  
 21  4 24 15 13 59.9940000  0 11G 4G 7G 8G 9G16G21G27G30G18G14G26
  21995421.289   115586704.883       -4074.963          43.000    21995416.597  
  90067565.157       -3175.244          38.000  
  19219657.837   100999977.599        1328.486          47.000    19219649.851  
  78701261.390        1034.747          39.000  
  18604912.568    97769464.515         337.956          48.000    18604907.864  
  76183989.526         263.310          41.000  
  20494112.116   107697286.138       -2963.344          46.000    20494108.641  
  83919947.918       -2309.028          43.000  
  21562925.376   113313920.721       -3486.845          44.000                  
                                                
  22299340.710   117183836.555        2657.673          38.000                  
                                                
  19255046.785   101185948.331       -2200.472          47.000    19255041.032  
  78846168.448       -1714.994          43.000  
  21946353.898   115328873.177        2774.420          37.000    21946350.031  
  89866644.145        2161.780          35.000  
  23843864.314                3      -2412.691          21.000    23843866.685  
                     -1878.175          26.000  
  23652564.055   124295097.432        2619.017          35.000    23652561.791  
                      2040.303          31.000  
                                                                  23701252.428  
              3      -2753.062          24.000  
 21  4 24 15 14  0.9940000  0 11G 4G 7G 8G 9G16G21G27G30G18G14G26
  21996196.763   115590779.545       -4074.744          43.000    21996191.952  
  90070740.237       -3174.994          37.000  
  19219405.106   100998649.163        1328.262          47.000    19219397.058  
  78700226.228        1035.128          39.000  
  18604848.230    97769126.518         337.779          48.000    18604843.520  
  76183726.154         263.219          41.000  
  20494676.037   107700249.439       -2963.514          46.000    20494672.643  
  83922256.978       -2309.285          43.000  
  21563588.974   113317407.201       -3486.554          44.000                  
                                                
  22298834.934   117181178.899        2657.602          38.000                  
                                                
  19255465.498   101188148.732       -2200.840          47.000    19255459.798  
  78847883.024       -1714.814          43.000  
  21945825.792   115326098.397        2774.847          37.000    21945821.969  
  89864482.016        2161.652          35.000  
  23844321.291                3      -2405.418          21.000    23844325.142  
                     -1877.889          26.000  
  23652065.651   124292478.166        2618.920          35.000    23652063.239  
                      2040.352          31.000  
                                                                  23701923.850  
              3      -2756.874          24.000  
 21  4 24 15 14  1.9940000  0 11G 4G 7G 8G 9G16G21G27G30G18G14G26
  21996971.966   115594853.866       -4074.121          43.000    21996967.233  
  90073915.032       -3174.658          37.000  
  19219152.239   100997320.624        1328.624          47.000    19219144.200  
  78699190.989        1035.637          39.000  
  18604784.039    97768788.721         337.744          48.000    18604779.204  
  76183462.929         263.215          41.000  
  20495239.861   107703212.710       -2963.082          46.000    20495236.586  
  83924566.029       -2308.891          43.000  
  21564252.391   113320893.280       -3485.851          44.000                  
                                                
  22298329.123   117178520.862        2658.024          38.000                  
                                                
  19255884.232   101190349.241       -2200.496          47.000    19255878.480  
  78849597.714       -1714.680          43.000  
  21945297.642   115323323.285        2775.433          37.000    21945293.782  
  89862319.560        2162.769          35.000  
  23844778.722                3      -2408.882          20.000    23844782.781  
                     -1877.649          26.000  
  23651567.171   124289858.453        2620.156          34.000    23651564.671  
                      2040.984          31.000  
                                                                  23702596.538  
              3      -2750.855          24.000  
 21  4 24 15 14  2.9940000  0 11G 4G 7G 8G 9G16G21G27G30G18G14G26
  21997747.299   115598927.913       -4074.384          43.000    21997742.567  
  90077089.619       -3174.762          37.000  
  19218899.500   100995992.026        1328.471          47.000    19218891.399  
  78698155.746        1034.973          39.000  
  18604719.798    97768451.180         337.205          48.000    18604714.982  
  76183199.907         262.798          41.000  
  20495803.750   107706176.045       -2963.469          46.000    20495800.515  
  83926875.116       -2309.190          43.000  
  21564915.762   113324379.034       -3485.849          44.000                  
                                                
  22297823.237   117175862.500        2657.930          38.000                  
                                                
  19256303.106   101192549.935       -2201.043          47.000    19256297.193  
  78851312.534       -1715.047          43.000  
  21944769.503   115320547.850        2775.336          37.000    21944765.645  
  89860156.903        2162.659          34.000  
  23845235.829                3      -2405.604          19.000    23845240.575  
                     -1877.696          26.000  
  23651068.621   124287238.445        2619.607          35.000    23651066.079  
  96847170.649        2041.651          31.000  
                                                                  23703268.573  
              3      -2747.750          24.000  
 21  4 24 15 14  3.9940000  0 11G 4G 7G 8G 9G16G21G27G30G18G14G26
  21998522.567   115603001.761       -4073.883          43.000    21998517.758  
  90080264.047       -3174.530          37.000  
  19218646.635   100994663.498        1328.439          47.000    19218638.610  
  78697120.517        1035.164          39.000  
  18604655.624    97768113.949         337.036          48.000    18604650.783  
  76182937.129         262.752          41.000  
  20496367.740   107709139.487       -2963.564          46.000    20496364.322  
  83929184.278       -2309.011          43.000  
  21565579.025   113327864.535       -3485.379          44.000                  
                                                
  22297317.221   117173203.885        2658.917          38.000                  
                                                
  19256721.931   101194750.885       -2201.066          47.000    19256716.023  
  78853027.559       -1714.891          43.000  
  21944241.273   115317772.190        2775.903          37.000    21944237.428  
  89857994.048        2163.086          34.000  
  23845693.358                3      -2406.972          20.000    23845698.460  
                     -1877.962          26.000  
  23650570.097   124284618.106        2620.521          35.000    23650567.450  
  96845128.848        2041.541          32.000  
                                                                  23703939.585  
              3      -2748.289          24.000  
 21  4 24 15 14  4.9940000  0 11G 4G 7G 8G 9G16G21G27G30G18G14G26
  21999297.754   115607075.562       -4073.889          43.000    21999292.890  
  90083438.409       -3174.115          37.000  
  19218393.786   100993335.142        1328.480          47.000    19218385.884  
  78696085.452        1034.673          39.000  
  18604591.686    97767777.190         336.509          48.000    18604586.710  
  76182674.713         262.421          41.000  
  20496931.717   107712103.198       -2963.802          46.000    20496928.331  
  83931493.672       -2309.559          43.000  
  21566242.292   113331349.929       -3485.185          44.000                  
                                                
  22296811.213   117170545.196        2658.680          38.000                  
                                                
  19257140.794   101196952.248       -2201.523          47.000    19257134.918  
  78854742.918       -1715.503          43.000  
  21943713.087   115314996.471        2776.019          37.000    21943709.178  
  89855831.161        2162.872          34.000  
  23846148.043                3      -2407.501          20.000    23846156.927  
                     -1878.348          26.000  
  23650071.509   124281997.686        2620.391          35.000    23650068.820  
  96843086.928        2042.619          31.000  
                                                                  23704611.722  
              3      -2747.518          24.000  
 21  4 24 15 14  5.9940000  0 11G 4G 7G 8G 9G16G21G27G30G18G14G26
  22000072.905   115611149.437       -4073.901          43.000    22000068.094  
  90086612.884       -3174.689          37.000  
  19218141.110   100992007.134        1327.756          47.000    19218133.121  
  78695050.628        1034.381          39.000  
  18604527.700    97767441.062         335.802          48.000    18604522.704  
  76182412.802         261.750          41.000  
  20497495.737   107715067.340       -2964.436          46.000    20497492.420  
  83933803.384       -2309.749          43.000  
  21566905.655   113334835.375       -3485.562          44.000                  
                                                
  22296305.248   117167886.552        2658.658          38.000                  
                                                
  19257559.696   101199154.158       -2202.112          46.000    19257553.973  
  78856458.689       -1716.021          43.000  
  21943184.941   115312220.833        2775.531          37.000    21943181.005  
  89853668.328        2162.342          34.000  
  23846605.769                3      -2407.868          19.000    23846614.993  
                     -1878.622          26.000  
  23649572.778   124279377.275        2620.157          35.000    23649570.239  
                      2041.463          31.000  
                                                                  23705283.382  
              3      -2740.986          25.000  
 21  4 24 15 14  6.9940000  0 11G 4G 7G 8G 9G16G21G27G30G18G14G26
  22000848.206   115615223.619       -4074.261          43.000    22000843.346  
  90089787.566       -3174.780          37.000  
  19217888.480   100990679.666        1327.030          47.000    19217880.477  
  78694016.216        1034.327          39.000  
  18604463.980    97767105.761         334.769          48.000    18604458.797  
  76182151.532         260.881          41.000  
  20498059.902   107718032.086       -2965.112          46.000    20498056.659  
  83936113.576       -2310.555          43.000  
  21567568.942   113338321.073       -3486.170          44.000                  
                                                
  22295799.383   117165228.182        2657.945          38.000                  
                                                
  19257978.830   101201356.829       -2203.146          46.000    19257973.063  
  78858175.058       -1716.846          42.000  
  21942656.680   115309445.441        2775.476          37.000    21942652.790  
  89851505.680        2162.628          34.000  
  23847061.385                3      -2423.167          19.000    23847072.638  
                     -1879.642          26.000  
  23649074.231   124276757.047        2620.553          35.000    23649071.526  
                      2041.941          31.000  
                                                                  23705955.850  
              3      -2749.140          25.000  
 21  4 24 15 14  7.9940000  0 11G 4G 7G 8G 9G16G21G27G30G18G14G26
  22001623.599   115619297.943       -4074.341          43.000    22001618.600  
  90092962.346       -3174.707          37.000  
  19217635.959   100989352.559        1326.959          47.000    19217627.927  
  78692982.115        1034.145          39.000  
  18604400.356    97766771.104         334.299          48.000    18604395.132  
  76181890.754         260.508          41.000  
  20498624.202   107720997.281       -2965.426          46.000    20498620.966  
  83938424.113       -2310.700          43.000  
  21568232.344   113341806.825       -3485.944          44.000                  
                                                
  22295293.534   117162569.879        2658.365          38.000                  
                                                
  19258397.977   101203560.082       -2203.562          46.000    19258392.252  
  78859891.870       -1716.999          42.000  
  21942128.588   115306670.193        2775.348          37.000    21942124.700  
  89849343.150        2162.256          35.000  
  23847520.091                3      -2411.017          20.000    23847531.449  
                     -1879.332          26.000  
  23648575.667   124274136.914        2620.081          35.000    23648572.888  
                      2040.906          31.000  
                                                                  23706626.967  
              3      -2756.073          25.000  
 21  4 24 15 14  8.9940000  0 11G 4G 7G 8G 9G16G21G27G30G18G14G26
  22002398.921   115623372.224       -4074.219          43.000    22002393.854  
  90096137.115       -3174.615          36.000  
  19217383.475   100988025.657        1326.849          47.000    19217375.458  
  78691948.161        1034.037          39.000  
  18604336.668    97766436.939         333.825          48.000    18604331.505  
  76181630.372         260.138          41.000  
  20499188.535   107723962.762       -2965.744          46.000    20499185.192  
  83940734.878       -2310.944          43.000  
  21568895.707   113345292.501       -3485.724          44.000                  
                                                
  22294787.614   117159911.513        2658.561          38.000                  
                                                
  19258817.142   101205763.751       -2203.985          46.000    19258811.596  
  78861609.026       -1717.397          42.000  
  21941600.423   115303894.875        2776.056          37.000    21941596.449  
  89847180.579        2162.646          35.000  
  23847980.999                3      -2414.787          19.000    23847990.025  
                     -1880.175          26.000  
  23648077.147   124271516.694        2619.599          35.000    23648074.344  
  96834919.927        2041.814          32.000  
                                                                  23707297.953  
              3      -2745.153          25.000  
 21  4 24 15 14  9.9940000  0 11G 4G 7G 8G 9G16G21G27G30G18G14G26
  22003174.115   115627446.291       -4073.969          43.000    22003169.047  
  90099311.696       -3174.432          36.000  
  19217130.898   100986698.780        1326.884          47.000    19217122.958  
  78690914.241        1033.826          39.000  
  18604273.140    97766103.069         333.806          48.000    18604268.002  
  76181370.201         260.056          41.000  
  20499752.925   107726928.329       -2965.573          46.000    20499749.492  
  83943045.703       -2310.671          43.000  
  21569558.981   113348777.895       -3485.145          43.000                  
                                                
  22294281.683   117157252.888        2658.977          38.000                  
                                                
  19259236.489   101207967.648       -2203.972          46.000    19259231.052  
  78863326.353       -1717.571          42.000  
  21941072.307   115301119.336        2775.757          37.000    21941068.291  
  89845017.792        2162.592          34.000  
  23848438.921                3      -2418.968          19.000    23848450.005  
                     -1880.366          26.000  
  23647578.462   124268896.137        2620.733          35.000    23647575.715  
  96832877.935        2042.004          32.000  
                                                                  23707969.786  
              3      -2747.458          25.000  
 21  4 24 15 14 10.9940000  0 11G 4G 7G 8G 9G16G21G27G30G18G14G26
  22003949.232   115631519.741       -4073.071          43.000    22003944.130  
  90102485.826       -3173.877          36.000  
  19216878.310   100985371.550        1327.521          47.000    19216870.332  
  78689880.026        1034.419          39.000  
  18604209.530    97765769.098         334.291          48.000    18604204.438  
  76181109.975         260.555          41.000  
  20500317.286   107729893.624       -2965.003          46.000    20500313.780  
  83945356.316       -2310.485          43.000  
  21570222.140   113352262.647       -3484.345          43.000                  
                                                
  22293775.655   117154593.639        2659.767          38.000                  
                                                
  19259655.746   101210171.409       -2203.445          46.000    19259650.445  
  78865043.577       -1717.302          42.000  
  21940543.907   115298343.160        2776.807          37.000    21940539.990  
  89842854.540        2163.684          34.000  
  23848897.690                3      -2405.470          18.000    23848909.130  
              3      -1879.061          26.000  
  23647079.778   124266274.909        2621.712          35.000    23647077.001  
                      2042.919          31.000  
                                                                  23708640.905  
              3      -2749.144          26.000  
 21  4 24 15 14 11.9940000  0 11G 4G 7G 8G 9G16G21G27G30G18G14G26
  22004724.124   115635592.324       -4072.540          43.000    22004719.097  
  90105659.251       -3173.151          36.000  
  19216625.626   100984043.675        1328.068          47.000    19216617.677  
  78688845.337        1034.521          39.000  
  18604145.896    97765434.785         334.220          48.000    18604140.853  
  76180849.457         260.676          41.000  
  20500881.464   107732858.350       -2964.613          46.000    20500878.058  
  83947666.499       -2310.110          44.000  
  21570885.049   113355746.463       -3483.558          43.000                  
                                                
  22293269.547   117151933.463        2660.352          38.000                  
                                                
  19260074.955   101212374.756       -2203.385          46.000    19260069.727  
  78866760.452       -1716.850          42.000  
  21940015.423   115295566.112        2777.032          37.000    21940011.354  
  89840690.578        2164.618          34.000  
  23849356.936                3      -2403.502          20.000    23849367.715  
              3      -1879.142          26.000  
  23646580.803   124263652.726        2622.681          35.000    23646577.982  
  96828792.150        2044.151          31.000  
                                                                  23709310.959  
              3      -2747.824          25.000  
 21  4 24 15 14 12.9940000  0 11G 4G 7G 8G 9G16G21G27G30G18G14G26
  22005499.031   115639664.398       -4072.217          43.000    22005493.848  
  90108832.307       -3172.931          36.000  
  19216372.766   100982715.549        1328.008          47.000    19216364.831  
  78687810.414        1034.686          39.000  
  18604082.269    97765100.490         333.995          48.000    18604077.231  
  76180588.973         260.395          41.000  
  20501445.690   107735822.905       -2964.778          46.000    20501442.269  
  83949976.548       -2310.287          43.000  
  21571547.925   113359229.740       -3483.520          43.000                  
                                                
  22292763.233   117149272.742        2660.530          38.000                  
                                                
  19260494.268   101214578.051       -2203.572          46.000    19260489.011  
  78868477.321       -1717.455          42.000  
  21939486.775   115292788.496        2777.569          36.000    21939482.726  
  89838526.260        2163.965          35.000  
  23849817.598                3      -2411.636          20.000    23849825.718  
              3      -1879.530          26.000  
  23646081.709   124261029.994        2622.948          35.000    23646078.975  
  96826748.466        2044.182          32.000  
                                                                  23709981.520  
              3      -2748.231          25.000  
 21  4 24 15 14 13.9940000  0 11G 4G 7G 8G 9G16G21G27G30G18G14G26
  22006274.007   115643736.437       -4071.942          43.000    22006268.688  
  90112005.320       -3173.187          36.000  
  19216120.044   100981387.617        1328.036          47.000    19216112.044  
  78686775.662        1034.924          39.000  
  18604018.765    97764766.661         333.799          48.000    18604013.630  
  76180328.844         260.303          41.000  
  20502009.915   107738787.735       -2964.778          46.000    20502006.434  
  83952286.801       -2310.315          43.000  
  21572210.851   113362712.893       -3482.855          43.000                  
                                                
  22292256.840   117146611.930        2661.277          38.000                  
                                                
  19260913.589   101216781.762       -2203.671          46.000    19260908.345  
  78870194.488       -1717.215          42.000  
  21938958.096   115290010.833        2777.881          37.000    21938954.040  
  89836361.824        2164.764          34.000  
  23850276.505                3      -2410.562          20.000    23850285.895  
              3      -1879.412          26.000  
  23645582.620   124258407.119        2623.016          35.000    23645579.920  
  96824704.741        2043.191          32.000  
                                                                  23710652.445  
              3      -2748.575          25.000  
 21  4 24 15 14 14.9940000  0 11G 4G 7G 8G 9G16G21G27G30G18G14G26
  22007048.761   115647808.027       -4071.655          43.000    22007043.464  
  90115177.974       -3172.296          36.000  
  19215867.309   100980059.486        1328.098          47.000    19215859.241  
  78685740.767        1034.523          39.000  
  18603955.292    97764432.916         333.568          48.000    18603950.074  
  76180068.780         259.948          41.000  
  20502573.964   107741752.433       -2964.808          46.000    20502570.506  
  83954596.952       -2310.186          43.000  
  21572873.625   113366195.549       -3482.340          43.000                  
                                                
  22291750.357   117143950.664        2661.763          38.000                  
                                                
  19261332.955   101218985.481       -2203.743          46.000    19261327.642  
  78871911.660       -1717.058          42.000  
  21938429.397   115287232.737        2778.326          37.000    21938425.428  
  89834197.059        2164.581          35.000  
  23850733.463                3      -2426.779          20.000    23850744.972  
              3      -1879.678          26.000  
  23645083.464   124255783.713        2623.919          35.000    23645080.631  
  96822660.500        2044.272          32.000  
                                                                  23711322.866  
              3      -2748.001          25.000  
 21  4 24 15 14 15.9940000  0 11G 4G 7G 8G 9G16G21G27G30G18G14G26
  22007823.575   115651879.375       -4071.136          43.000    22007818.171  
  90118350.486       -3173.187          36.000  
  19215614.482   100978731.365        1328.177          47.000    19215606.481  
  78684705.845        1034.921          39.000  
  18603891.787    97764099.450         333.380          48.000    18603886.618  
  76179808.942         259.833          41.000  
  20503138.157   107744717.224       -2964.826          46.000    20503134.632  
  83956907.174       -2310.198          43.000  
  21573536.205   113369677.945       -3482.195          43.000                  
                                                
  22291243.895   117141289.126        2661.592          38.000                  
                                                
  19261752.293   101221189.424       -2204.089          46.000    19261746.918  
  78873629.027       -1717.392          42.000  
  21937900.625   115284454.350        2778.577          37.000    21937896.823  
  89832032.080        2165.448          35.000  
  23851193.242                3      -2419.233          20.000    23851204.665  
              3      -1880.063          26.000  
  23644584.274   124253160.030        2624.261          35.000    23644581.396  
  96820616.049        2044.881          32.000  
                                                                  23711994.337  
              3      -2746.642          24.000  
 21  4 24 15 14 16.9940000  0 11G 4G 7G 8G 9G16G21G27G30G18G14G26
  22008598.383   115655950.701       -4071.142          43.000    22008592.892  
  90121522.934       -3172.394          36.000  
  19215361.815   100977403.452        1327.815          47.000    19215353.847  
  78683671.129        1034.395          39.000  
  18603828.424    97763766.476         332.898          48.000    18603823.222  
  76179549.501         259.215          41.000  
  20503702.370   107747682.304       -2965.135          46.000    20503699.053  
  83959217.627       -2310.466          44.000  
  21574198.952   113373160.246       -3482.077          43.000                  
                                                
  22290737.503   117138627.505        2662.083          38.000                  
                                                
  19262171.690   101223393.807       -2204.539          46.000    19262166.411  
  78875346.729       -1717.894          42.000  
  21937371.934   115281675.933        2778.534          37.000    21937368.021  
  89829867.103        2165.027          35.000  
  23851655.175                3      -2407.821          22.000    23851665.332  
              3      -1879.793          26.000  
  23644084.950   124250536.255        2623.902          35.000    23644082.166  
  96818571.523        2044.849          32.000  
                                                                  23712663.622  
              3      -2746.844          24.000  
 21  4 24 15 14 17.9940000  0 11G 4G 7G 8G 9G16G21G27G30G18G14G26
  22009373.043   115660021.748       -4070.856          43.000    22009367.638  
  90124695.152       -3171.686          36.000  
  19215109.032   100976075.514        1327.879          47.000    19215101.173  
  78682636.347        1034.799          39.000  
  18603765.068    97763433.759         332.481          48.000    18603759.958  
  76179290.242         258.921          41.000  
  20504266.583   107750647.428       -2965.398          46.000    20504263.320  
  83961528.114       -2310.597          43.000  
  21574861.480   113376642.232       -3482.104          43.000                  
                                                
  22290230.962   117135965.584        2662.297          38.000                  
                                                
  19262591.255   101225598.360       -2204.822          46.000    19262585.960  
  78877064.557       -1717.770          42.000  
  21936843.152   115278897.220        2779.291          37.000    21936839.330  
  89827701.886        2165.179          35.000  
  23852114.600                3      -2410.171          23.000    23852126.175  
              3      -1879.738          26.000  
  23643585.458   124247912.120        2623.828          35.000    23643582.779  
  96816526.754        2044.957          32.000  
                                                                  23713334.344  
              3      -2746.271          24.000  
 21  4 24 15 14 18.9940000  0 11G 4G 7G 8G 9G16G21G27G30G14G26G18
  22010147.708   115664092.545       -4070.837          43.000    22010142.193  
  90127867.189       -3171.564          36.000  
  19214856.214   100974747.533        1328.075          47.000    19214848.535  
  78681601.601        1034.070          39.000  
  18603701.882    97763101.299         332.196          48.000    18603696.621  
  76179031.171         258.968          41.000  
  20504830.802   107753612.601       -2965.405          46.000    20504827.578  
  83963838.650       -2310.841          43.000  
  21575523.959   113380123.887       -3481.528          43.000                  
                                                
  22289724.270   117133303.377        2662.227          38.000                  
                                                
  19263010.779   101227803.090       -2204.827          46.000    19263005.446  
  78878782.559       -1718.254          42.000  
  21936314.311   115276118.230        2779.138          37.000    21936310.507  
  89825536.411        2165.869          35.000  
  23643086.031   124245287.637        2624.818          35.000    23643083.319  
  96814481.694        2045.130          32.000  
                                                                  23714003.975  
              3      -2746.861          25.000  
                                                                  23852586.182  
              3      -1879.870          27.000  
 21  4 24 15 14 19.9940000  0 11G 4G 7G 8G 9G16G21G27G30G14G26G18
  22010922.313   115668163.288       -4071.228          43.000    22010916.779  
  90131039.229       -3172.333          36.000  
  19214603.520   100973419.771        1327.530          47.000    19214595.824  
  78680566.955        1034.249          39.000  
  18603638.746    97762769.342         331.222          48.000    18603633.551  
  76178772.514         258.091          41.000  
  20505395.111   107756578.047       -2965.993          46.000    20505391.904  
  83966149.384       -2311.112          44.000  
  21576186.512   113383605.459       -3481.887          43.000                  
                                                
  22289217.692   117130641.090        2661.448          38.000                  
                                                
  19263430.351   101230008.258       -2205.794          46.000    19263425.098  
  78880500.859       -1718.775          42.000  
  21935785.373   115273339.202        2778.424          37.000    21935781.713  
  89823370.936        2165.405          35.000  
  23642586.402   124242663.047        2624.144          35.000    23642583.805  
  96812436.620        2043.907          32.000  
                                                                  23714675.790  
              3      -2745.869          25.000  
                                                                  23853046.515  
              3      -1881.237          27.000  
 21  4 24 15 14 20.9940000  0 11G 4G 7G 8G 9G16G21G27G30G14G26G18
  22011697.031   115672234.216       -4070.563          43.000    22011691.503  
  90134211.391       -3171.954          36.000  
  19214350.935   100972092.452        1327.242          47.000    19214343.353  
  78679532.670        1034.210          39.000  
  18603575.693    97762438.099         331.356          48.000    18603570.599  
  76178514.406         257.872          41.000  
  20505959.352   107759544.011       -2965.853          46.000    20505956.260  
  83968460.525       -2310.988          43.000  
  21576849.117   113387087.173       -3481.543          43.000                  
                                                
  22288711.038   117127978.928        2662.605          39.000                  
                                                
  19263850.066   101232214.066       -2205.887          46.000    19263844.701  
  78882219.684       -1718.831          42.000  
  21935256.462   115270560.322        2778.900          37.000    21935252.903  
  89821205.573        2165.314          36.000  
  23642086.779   124240038.576        2624.681          35.000    23642084.367  
  96810391.526        2045.300          32.000  
                                                                  23715347.347  
              3      -2746.391          25.000  
                                                                  23853506.225  
              3      -1879.932          26.000  
 21  4 24 15 14 21.9940000  0 11G 4G 7G 8G 9G16G21G27G30G18G14G26
  22012471.685   115676304.706       -4070.263          43.000    22012466.082  
  90137383.174       -3171.417          36.000  
  19214098.354   100970764.929        1327.612          47.000    19214090.701  
  78678498.236        1034.563          39.000  
  18603512.674    97762106.958         331.134          48.000    18603507.507  
  76178256.364         257.984          41.000  
  20506523.741   107762509.870       -2965.793          46.000    20506520.641  
  83970771.579       -2311.156          43.000  
  21577511.607   113390568.373       -3480.951          43.000                  
                                                
  22288204.282   117125316.297        2663.123          39.000                  
                                                
  19264269.738   101234419.893       -2205.971          46.000    19264264.404  
  78883938.487       -1718.660          42.000  
  21934727.607   115267780.967        2779.651          37.000    21934724.060  
  89819039.860        2166.162          36.000  
  23853970.593                3      -2408.938          23.000    23853965.541  
              3      -1880.793          26.000  
  23641587.047   124237413.569        2624.991          35.000    23641584.761  
  96808346.044        2046.557          32.000  
                                                                  23716017.780  
              3      -2745.960          26.000  
 21  4 24 15 14 22.9940000  0 11G 4G 7G 8G 9G16G21G27G30G14G26G18
  22013246.202   115680375.001       -4069.934          43.000    22013240.547  
  90140554.823       -3171.149          36.000  
  19213845.665   100969437.449        1327.579          47.000    19213838.191  
  78677463.831        1034.659          39.000  
  18603449.693    97761776.140         330.860          48.000    18603444.521  
  76177998.594         257.745          41.000  
  20507088.177   107765475.826       -2965.830          46.000    20507085.098  
  83973082.704       -2310.917          43.000  
  21578174.082   113394049.354       -3480.772          43.000                  
                                                
  22287697.584   117122653.455        2663.434          39.000                  
                                                
  19264689.536   101236625.977       -2206.060          46.000    19264684.275  
  78885657.527       -1718.875          42.000  
  21934198.741   115265001.400        2779.730          37.000    21934195.222  
  89816873.975        2166.144          36.000  
  23641087.437   124234788.301        2625.436          35.000    23641085.136  
  96806300.434        2044.865          32.000  
                                                                  23716687.720  
              3      -2746.137          26.000  
                                                                  23854425.753  
                     -1880.537          26.000  
 21  4 24 15 14 23.9940000  0 11G 4G 7G 8G 9G16G21G27G30G14G26G18
  22014020.652   115684444.975       -4069.812          43.000    22014015.053  
  90143726.242       -3171.320          36.000  
  19213592.997   100968109.885        1327.524          47.000    19213585.611  
  78676429.355        1034.931          39.000  
  18603386.813    97761445.514         330.614          48.000    18603381.648  
  76177740.964         257.412          41.000  
  20507652.568   107768441.781       -2965.816          46.000    20507649.534  
  83975393.852       -2311.214          43.000  
  21578836.478   113397529.945       -3480.336          43.000                  
                                                
  22287190.834   117119990.235        2663.419          39.000                  
                                                
  19265109.369   101238832.185       -2206.203          46.000    19265104.103  
  78887376.655       -1719.000          42.000  
  21933669.775   115262221.523        2779.864          38.000    21933666.247  
  89814707.836        2166.083          36.000  
  23640587.537   124232162.640        2625.645          35.000    23640585.355  
  96804254.425        2046.144          32.000  
                                                                  23717358.959  
              3      -2743.284          25.000  
                                                                  23854885.890  
                     -1880.296          26.000  
 21  4 24 15 14 24.9940000  0 11G 4G 7G 8G 9G16G21G27G30G14G26G18
  22014795.034   115688514.175       -4069.147          43.000    22014789.414  
  90146897.047       -3171.100          36.000  
  19213340.269   100966781.802        1327.908          47.000    19213332.811  
  78675394.505        1034.926          39.000  
  18603323.815    97761114.669         330.699          48.000    18603318.703  
  76177483.145         257.720          41.000  
  20508216.808   107771407.303       -2965.646          46.000    20508213.762  
  83977704.640       -2310.815          43.000  
  21579498.690   113401009.728       -3479.697          42.000                  
                                                
  22286683.920   117117326.234        2663.762          39.000                  
                                                
  19265529.124   101241038.102       -2206.132          46.000    19265523.823  
  78889095.562       -1719.129          42.000  
  21933140.587   115259440.828        2781.317          38.000    21933137.072  
  89812541.063        2166.901          36.000  
  23640087.731   124229536.139        2626.562          35.000    23640085.604  
  96802207.813        2046.500          32.000  
                                                                  23718028.006  
              3      -2744.165          25.000  
                                                                  23855346.514  
                     -1879.918          26.000  
 21  4 24 15 14 25.9940000  0 11G 4G 7G 8G 9G16G21G27G30G14G26G18
  22015569.231   115692582.807       -4068.274          43.000    22015563.636  
  90150067.409       -3170.215          36.000  
  19213087.448   100965453.383        1328.617          47.000    19213080.019  
  78674359.376        1035.119          39.000  
  18603260.807    97760783.764         331.099          48.000    18603255.715  
  76177225.307         257.966          41.000  
  20508781.101   107774372.560       -2964.983          46.000    20508778.035  
  83980015.229       -2310.464          44.000  
  21580160.852   113404488.888       -3478.795          42.000                  
                                                
  22286176.895   117114661.602        2665.166          39.000                  
                                                
  19265948.778   101243243.887       -2205.515          46.000    19265943.519  
  78890814.353       -1718.629          42.000  
  21932611.293   115256659.569        2781.744          38.000    21932607.862  
  89810373.819        2168.036          37.000  
  23639587.717   124226908.987        2627.548          36.000    23639585.605  
  96800160.665        2047.658          32.000  
                                                                  23718698.074  
              3      -2742.293          25.000  
                                                                  23855805.418  
                     -1880.009          26.000  
 21  4 24 15 14 26.9940000  0 11G 4G 7G 8G 9G16G21G27G30G14G26G18
  22016343.317   115696650.489       -4067.261          43.000    22016337.697  
  90153236.997       -3168.952          36.000  
  19212834.559   100964124.256        1329.514          47.000    19212827.049  
  78673323.686        1036.136          39.000  
  18603197.717    97760452.451         331.348          48.000    18603192.585  
  76176967.133         258.240          41.000  
  20509345.263   107777337.188       -2964.470          45.000    20509342.137  
  83982325.328       -2309.953          44.000  
  21580822.746   113407967.041       -3477.907          42.000                  
                                                
  22285669.614   117111995.978        2666.050          39.000                  
                                                
  19266368.366   101245449.189       -2205.037          45.000    19266363.109  
  78892532.778       -1718.232          41.000  
  21932081.870   115253877.336        2782.452          38.000    21932078.503  
  89808205.873        2168.256          37.000  
  23639087.540   124224280.815        2628.520          36.000    23639085.545  
  96798112.762        2048.753          32.000  
                                                                  23719367.932  
              3      -2742.799          25.000  
                                                                  23856264.809  
                     -1879.304          26.000  
 21  4 24 15 14 27.9940000  0 11G 4G 7G 8G 9G16G21G27G30G14G26G18
  22017117.337   115700717.638       -4067.133          43.000    22017111.581  
  90156406.227       -3169.458          37.000  
  19212581.554   100962794.835        1329.592          47.000    19212574.063  
  78672287.756        1036.292          39.000  
  18603134.680    97760121.105         331.392          48.000    18603129.490  
  76176708.939         258.452          41.000  
  20509909.342   107780301.591       -2964.269          45.000    20509906.213  
  83984635.249       -2309.757          44.000  
  21581484.601   113411444.597       -3477.336          42.000                  
                                                
  22285162.248   117109329.791        2666.339          39.000                  
                                                
  19266788.053   101247654.407       -2205.282          45.000    19266782.736  
  78894251.108       -1718.165          42.000  
  21931552.433   115251094.536        2783.270          38.000    21931548.950  
  89806037.462        2168.524          37.000  
  23638587.278   124221652.038        2629.113          36.000    23638585.304  
  96796064.358        2048.922          32.000  
                                                                  23720039.331  
              3      -2743.087          25.000  
                                                                  23856723.269  
                     -1879.006          26.000  
 21  4 24 15 14 28.9940000  0 11G 4G 7G 8G 9G16G21G27G30G14G26G18
  22017891.326   115704784.639       -4067.340          43.000    22017885.483  
  90159575.294       -3168.787          36.000  
  19212328.523   100961465.533        1329.074          47.000    19212321.089  
  78671251.964        1035.653          39.000  
  18603071.776    97759790.167         330.537          48.000    18603066.494  
  76176451.064         257.531          41.000  
  20510473.459   107783266.192       -2964.916          45.000    20510470.343  
  83986945.329       -2310.493          44.000  
  21582146.257   113414921.977       -3477.550          42.000                  
                                                
  22284654.857   117106663.440        2666.265          39.000                  
                                                
  19267207.799   101249859.945       -2205.968          45.000    19267202.427  
  78895969.729       -1718.860          41.000  
  21931022.976   115248311.612        2782.727          38.000    21931019.489  
  89803868.941        2168.634          37.000  
  23638087.012   124219023.070        2628.738          36.000    23638085.030  
  96794015.779        2048.979          32.000  
                                                                  23720709.956  
              3      -2742.850          25.000  
                                                                  23857182.922  
                     -1880.089          25.000  
 21  4 24 15 14 29.9940000  0 11G 4G 7G 8G 9G16G21G27G30G14G26G18
  22018665.292   115708851.717       -4066.669          43.000    22018659.388  
  90162744.476       -3169.116          36.000  
  19212075.634   100960136.544        1329.412          47.000    19212068.254  
  78670216.397        1035.733          39.000  
  18603008.879    97759459.833         330.476          48.000    18603003.540  
  76176193.662         257.582          41.000  
  20511037.564   107786231.188       -2964.739          45.000    20511034.573  
  83989255.707       -2310.078          44.000  
  21582807.934   113418399.364       -3476.726          42.000                  
                                                
  22284147.453   117103997.118        2667.141          39.000                  
                                                
  19267627.603   101252066.030       -2205.991          45.000    19267622.220  
  78897688.745       -1718.763          41.000  
  21930493.455   115245528.745        2783.282          38.000    21930490.080  
  89801700.472        2169.147          37.000  
  23637586.661   124216394.104        2629.384          36.000    23637584.733  
  96791967.229        2049.595          33.000  
                                                                  23721381.941  
              3      -2741.707          25.000  
                                                                  23857641.352  
                     -1880.033          25.000  
 21  4 24 15 14 30.9940000  0 11G 4G 7G 8G 9G16G21G27G30G14G26G18
  22019439.073   115712917.546       -4065.033          43.000    22019433.154  
  90165912.642       -3167.493          36.000  
  19211822.579   100958806.554        1330.625          47.000    19211815.118  
  78669180.013        1037.072          39.000  
  18602945.911    97759128.773         331.636          48.000    18602940.509  
  76175935.685         258.348          41.000  
  20511601.618   107789195.252       -2963.513          45.000    20511598.640  
  83991565.371       -2309.365          44.000  
  21583469.334   113421875.469       -3475.406          42.000                  
                                                
  22283639.848   117101329.526        2668.574          38.000                  
                                                
  19268047.171   101254271.298       -2204.633          45.000    19268041.823  
  78899407.150       -1718.103          41.000  
  21929963.612   115242744.601        2784.552          39.000    21929960.324  
  89799531.013        2169.965          37.000  
  23637086.217   124213763.794        2631.209          36.000    23637084.180  
  96789917.686        2050.255          33.000  
                                                                  23722052.338  
              3      -2741.338          25.000  
                                                                  23858100.091  
                     -1878.875          25.000  
 21  4 24 15 14 31.9940000  0 11G 4G 7G 8G 9G16G21G27G30G14G26G18
  22020212.663   115716982.158       -4064.343          43.000    22020206.641  
  90169079.889       -3167.126          36.000  
  19211569.288   100957475.587        1331.123          47.000    19211561.836  
  78668142.917        1037.214          39.000  
  18602882.794    97758797.029         331.773          48.000    18602877.374  
  76175677.181         258.537          41.000  
  20512165.571   107792158.408       -2963.127          46.000    20512162.500  
  83993874.313       -2308.673          44.000  
  21584130.618   113425350.297       -3474.332          42.000                  
                                                
  22283131.909   117098660.703        2669.016          39.000                  
                                                
  19268466.663   101256475.832       -2204.570          46.000    19268461.258  
  78901124.967       -1717.900          41.000  
  21929433.621   115239959.224        2785.492          39.000    21929430.384  
  89797360.593        2170.709          37.000  
  23636585.550   124211132.218        2631.393          36.000    23636583.379  
  96787867.132        2049.958          33.000  
                                                                  23722721.890  
              3      -2739.397          25.000  
                                                                  23858559.116  
                     -1878.145          25.000  
 21  4 24 15 14 32.9940000  0 11G 4G 7G 8G 9G16G21G27G30G14G26G18
  22020986.029   115721045.939       -4063.470          43.000    22020979.864  
  90172246.451       -3166.010          36.000  
  19211315.930   100956144.031        1331.840          48.000    19211308.478  
  78667105.340        1037.728          39.000  
  18602819.543    97758464.972         332.264          48.000    18602814.229  
  76175418.434         259.079          41.000  
  20512729.334   107795121.049       -2962.285          45.000    20512726.205  
  83996182.884       -2308.621          44.000  
  21584791.725   113428824.243       -3473.440          42.000                  
                                                
  22282623.886   117095990.978        2669.945          39.000                  
                                                
  19268886.017   101258679.965       -2203.965          46.000    19268880.667  
  78902842.487       -1717.756          41.000  
  21928903.431   115237172.999        2786.743          39.000    21928900.309  
  89795189.506        2171.716          37.000  
  23636084.653   124208499.708        2632.997          37.000    23636082.370  
  96785815.768        2051.735          33.000  
                                                                  23723390.130  
              3      -2739.415          25.000  
                                                                  23859017.133  
                     -1877.964          25.000  
 21  4 24 15 14 33.9940000  0 11G 4G 7G 8G 9G16G21G27G30G14G26G18
  22021759.168   115725108.925       -4062.628          44.000    22021753.022  
  90175412.424       -3165.479          36.000  
  19211062.376   100954811.939        1332.190          48.000    19211054.983  
  78666067.333        1038.099          39.000  
  18602756.384    97758132.659         332.349          48.000    18602750.995  
  76175159.488         259.151          41.000  
  20513292.911   107798083.235       -2962.053          45.000    20513289.973  
  83998491.063       -2307.972          44.000  
  21585452.631   113432297.357       -3472.703          42.000                  
                                                
  22282115.714   117093320.429        2670.893          39.000                  
                                                
  19269305.430   101260883.790       -2203.907          46.000    19269300.099  
  78904559.747       -1717.404          41.000  
  21928373.081   115234385.980        2787.103          39.000    21928370.020  
  89793017.825        2171.783          37.000  
  23635583.580   124205866.341        2633.872          37.000    23635581.044  
  96783763.817        2052.064          33.000  
                                                                  23724059.464  
              3      -2739.257          26.000  
                                                                  23859474.687  
                     -1878.124          25.000  
 21  4 24 15 14 34.9940000  0 11G 4G 7G 8G 9G16G21G27G30G14G26G18
  22022532.273   115729171.520       -4062.573          43.000    22022525.970  
  90178578.068       -3165.790          36.000  
  19210808.843   100953479.687        1332.310          48.000    19210801.494  
  78665029.219        1038.319          39.000  
  18602693.133    97757800.467         332.153          48.000    18602687.708  
  76174900.654         258.528          41.000  
  20513856.662   107801045.318       -2962.010          45.000    20513853.755  
  84000799.182       -2308.022          44.000  
  21586113.336   113435769.994       -3472.092          41.000                  
                                                
  22281607.373   117090649.446        2671.307          39.000                  
                                                
  19269724.833   101263087.654       -2203.942          46.000    19269719.438  
  78906277.028       -1717.168          41.000  
  21927842.702   115231598.517        2787.610          39.000    21927839.643  
  89790845.783        2172.290          37.000  
  23635082.274   124203232.528        2633.993          37.000    23635079.813  
  96781711.473        2052.602          33.000  
                                                                  23724728.414  
              3      -2737.383          26.000  
                                                                  23859933.634  
                     -1877.819          24.000  
 21  4 24 15 14 35.9940000  0 11G 4G 7G 8G 9G16G21G27G30G14G26G18
  22023305.296   115733233.728       -4062.311          43.000    22023299.010  
  90181743.455       -3165.644          36.000  
  19210555.325   100952147.325        1331.951          48.000    19210547.903  
  78663991.016        1038.001          39.000  
  18602629.859    97757468.428         331.688          48.000    18602624.486  
  76174641.914         258.465          41.000  
  20514420.361   107804007.362       -2962.158          45.000    20514417.491  
  84003107.274       -2308.177          44.000  
  21586774.047   113439242.247       -3472.464          41.000                  
                                                
  22281099.038   117087978.070        2671.378          39.000                  
                                                
  19270144.287   101265291.613       -2204.336          46.000    19270138.885  
  78907994.404       -1717.589          42.000  
  21927312.328   115228810.686        2787.653          39.000    21927309.151  
  89788673.445        2172.327          38.000  
  23634581.227   124200598.274        2633.595          37.000    23634578.554  
  96779658.825        2052.785          33.000  
                                                                  23725398.203  
              3      -2737.824          26.000  
                                                                  23860392.233  
                     -1878.094          24.000  
 21  4 24 15 14 36.9940000  0 11G 4G 7G 8G 9G16G21G27G30G26G14G18
  22024078.179   115737295.777       -4062.067          44.000    22024071.997  
  90184908.663       -3165.064          36.000  
  19210301.788   100950815.021        1332.348          48.000    19210294.325  
  78662952.853        1038.220          39.000  
  18602566.857    97757136.746         331.413          48.000    18602561.346  
  76174383.458         258.349          41.000  
  20514984.028   107806969.567       -2962.425          45.000    20514981.278  
  84005415.474       -2308.331          44.000  
  21587434.672   113442714.274       -3472.146          41.000                  
                                                
  22280590.540   117085306.505        2671.382          39.000                  
                                                
  19270563.665   101267495.853       -2204.474          46.000    19270558.316  
  78909712.000       -1717.948          41.000  
  21926781.787   115226022.677        2788.019          39.000    21926778.715  
  89786500.943        2172.870          38.000  
  23726115.503                3      -3513.398          19.000    23726066.862  
              3      -2738.129          26.000  
  23634079.948   124197963.754        2634.649          37.000    23634077.247  
  96777605.977        2052.284          33.000  
                                                                  23860850.282  
                     -1878.077          24.000  
 21  4 24 15 14 37.9940000  0 11G 4G 7G 8G 9G16G21G27G30G26G14G18
  22024851.194   115741357.847       -4062.140          44.000    22024844.977  
  90188073.935       -3165.533          36.000  
  19210048.324   100949483.005        1331.700          48.000    19210040.812  
  78661914.929        1037.572          39.000  
  18602503.799    97756805.620         330.786          48.000    18602498.399  
  76174125.447         257.695          41.000  
  20515547.745   107809932.107       -2962.736          45.000    20515545.099  
  84007723.948       -2308.792          44.000  
  21588095.319   113446186.263       -3472.139          41.000                  
                                                
  22280082.170   117082634.923        2671.545          38.000                  
                                                
  19270983.142   101269700.588       -2205.070          46.000    19270977.901  
  78911429.986       -1718.580          41.000  
  21926251.302   115223234.668        2787.805          39.000    21926248.285  
  89784328.499        2172.485          38.000  
  23726775.291                3      -3513.398          19.000    23726736.983  
              3      -2737.057          26.000  
  23633578.528   124195329.187        2634.513          37.000    23633575.902  
  96775553.060        2052.786          33.000  
                                                                  23861308.330  
              3      -1879.342          24.000  
 21  4 24 15 14 38.9940000  0 11G 4G 7G 8G 9G16G21G27G30G26G14G18
  22025624.245   115745419.919       -4062.366          44.000    22025617.882  
  90191239.161       -3165.344          36.000  
  19209794.821   100948151.212        1331.578          48.000    19209787.285  
  78660877.161        1037.496          39.000  
  18602440.958    97756475.013         330.082          48.000    18602435.472  
  76173867.817         257.495          41.000  
  20516111.495   107812894.954       -2963.277          45.000    20516108.881  
  84010032.655       -2308.898          44.000  
  21588755.977   113449658.192       -3472.245          41.000                  
                                                
  22279573.805   117079963.286        2671.596          38.000                  
                                                
  19271402.804   101271905.765       -2205.742          46.000    19271397.510  
  78913148.290       -1718.790          41.000  
  21925720.813   115220446.642        2787.854          39.000    21925717.701  
  89782156.006        2172.388          38.000  
  23727440.207                3      -3513.398          20.000    23727406.291  
              3      -2737.973          26.000  
  23633077.362   124192694.577        2633.955          37.000    23633074.506  
  96773500.096        2052.901          33.000  
                                                                  23861766.293  
              3      -1879.868          25.000  
 21  4 24 15 14 39.9940000  0 11G 4G 7G 8G 9G16G21G27G30G26G14G18
  22026397.289   115749482.160       -4062.408          44.000    22026390.836  
  90194404.553       -3165.302          36.000  
  19209541.494   100946819.869        1331.204          48.000    19209533.966  
  78659839.740        1037.370          39.000  
  18602378.279    97756145.116         329.522          48.000    18602372.721  
  76173610.750         257.014          41.000  
  20516675.420   107815858.318       -2963.617          45.000    20516672.854  
  84012341.768       -2309.178          44.000  
  21589416.556   113453130.277       -3472.322          41.000                  
                                                
  22279065.301   117077291.837        2671.122          38.000                  
                                                
  19271822.543   101274111.594       -2206.284          46.000    19271817.251  
  78914867.127       -1719.510          41.000  
  21925190.346   115217658.788        2787.951          40.000    21925187.249  
  89779983.647        2172.431          38.000  
  23728104.873                3      -3513.398          20.000    23728074.606  
              3      -2737.348          26.000  
  23632576.128   124190060.058        2634.541          37.000    23632573.224  
  96771447.236        2052.739          33.000  
                                                                  23862225.767  
              3      -1878.563          24.000  
 21  4 24 15 14 40.9940000  0 11G 4G 7G 8G 9G16G21G27G30G14G26G18
  22027170.370   115753544.711       -4062.671          44.000    22027163.934  
  90197570.183       -3165.784          36.000  
  19209288.333   100945489.067        1330.635          48.000    19209280.630  
  78658802.759        1036.805          39.000  
  18602315.697    97755816.040         328.667          48.000    18602310.058  
  76173354.333         256.363          41.000  
  20517239.522   107818822.295       -2964.364          45.000    20517236.954  
  84014651.369       -2309.963          44.000  
  21590077.212   113456602.572       -3472.198          41.000                  
                                                
  22278556.920   117074620.626        2670.857          39.000                  
                                                
  19272242.440   101276318.166       -2206.885          46.000    19272237.050  
  78916586.522       -1719.719          41.000  
  21924659.996   115214871.234        2787.384          40.000    21924656.780  
  89777811.520        2172.040          38.000  
  23632074.967   124187425.736        2634.813          38.000    23632071.998  
  96769394.547        2052.222          33.000  
                                                                  23728743.220  
              3      -2738.719          26.000  
                                                                  23862683.995  
              3      -1880.125          23.000  
 21  4 24 15 14 41.9940000  0 11G 4G 7G 8G 9G16G21G27G30G14G26G18
  22027943.394   115757607.550       -4062.835          44.000    22027937.060  
  90200736.021       -3165.949          37.000  
  19209035.170   100944158.814        1329.896          48.000    19209027.553  
  78657766.200        1036.111          39.000  
  18602253.370    97755487.789         327.979          48.000    18602247.524  
  76173098.573         255.388          41.000  
  20517803.600   107821786.885       -2964.967          45.000    20517801.058  
  84016961.426       -2310.250          44.000  
  21590738.004   113460075.149       -3472.551          41.000                  
                                                
  22278048.660   117071949.673        2670.740          39.000                  
                                                
  19272662.510   101278525.495       -2207.604          47.000    19272657.141  
  78918306.523       -1720.494          41.000  
  21924129.600   115212083.951        2786.987          40.000    21924126.468  
  89775639.636        2171.606          38.000  
  23631573.710   124184791.682        2634.489          37.000    23631570.816  
  96767342.001        2052.910          33.000  
                                                                  23729411.882  
              3      -2737.219          26.000  
                                                                  23863142.668  
              3      -1879.545          23.000  
 21  4 24 15 14 42.9940000  0 11G 4G 7G 8G 9G16G21G27G30G14G26G18
  22028716.562   115761670.785       -4063.306          44.000    22028710.374  
  90203902.192       -3166.748          37.000  
  19208782.232   100942829.179        1329.397          48.000    19208774.620  
  78656730.113        1035.872          39.000  
  18602191.101    97755160.463         326.922          48.000    18602185.308  
  76172843.504         254.698          41.000  
  20518367.954   107824752.169       -2965.512          45.000    20518365.413  
  84019272.049       -2310.930          44.000  
  21591398.799   113463548.053       -3472.899          41.000                  
                                                
  22277540.409   117069279.093        2670.278          39.000                  
                                                
  19273082.746   101280733.676       -2208.557          47.000    19273077.347  
  78920027.189       -1721.191          41.000  
  21923599.310   115209297.021        2786.981          40.000    21923596.114  
  89773468.004        2171.350          38.000  
  23631072.501   124182157.969        2633.444          38.000    23631069.714  
  96765289.756        2051.962          33.000  
                                                                  23730080.398  
              3      -2738.008          26.000  
                                                                  23863601.871  
              3      -1875.200          22.000  
 21  4 24 15 14 43.9940000  0 11G 4G 7G 8G 9G16G21G27G30G14G26G18
  22029489.882   115765734.339       -4063.659          44.000    22029483.610  
  90207068.580       -3166.467          37.000  
  19208529.339   100941500.148        1328.444          48.000    19208521.662  
  78655694.479        1035.558          39.000  
  18602128.928    97754834.000         326.067          48.000    18602123.142  
  76172589.108         254.175          41.000  
  20518932.395   107827718.125       -2966.321          45.000    20518929.861  
  84021583.174       -2311.546          44.000  
  21592059.714   113467021.241       -3473.341          41.000                  
                                                
  22277032.308   117066608.809        2669.926          39.000                  
                                                
  19273503.120   101282942.649       -2209.620          46.000    19273497.697  
  78921748.451       -1721.646          41.000  
  21923069.067   115206510.437        2786.285          41.000    21923065.952  
  89771296.639        2171.149          38.000  
  23630571.525   124179524.468        2633.472          38.000    23630568.566  
  96763237.704        2051.434          33.000  
                                                                  23730748.371  
              3      -2737.777          26.000  
                                                                  23864060.261  
              3      -1880.802          22.000  
 21  4 24 15 14 44.9940000  0 11G 4G 7G 8G 9G16G21G27G30G14G26G18
  22030263.245   115769798.295       -4064.172          44.000    22030256.964  
  90210235.316       -3167.401          37.000  
  19208276.538   100940171.744        1327.805          48.000    19208268.693  
  78654659.369        1034.911          39.000  
  18602067.018    97754508.479         324.963          48.000    18602061.275  
  76172335.461         253.241          41.000  
  20519496.928   107830684.792       -2967.035          45.000    20519494.275  
  84023894.867       -2312.141          44.000  
  21592720.709   113470494.764       -3473.570          41.000                  
                                                
  22276524.307   117063938.889        2669.786          38.000                  
                                                
  19273923.668   101285152.461       -2210.367          47.000    19273918.224  
  78923470.385       -1722.432          41.000  
  21922538.862   115203724.213        2786.188          41.000    21922535.717  
  89769125.557        2170.648          38.000  
  23630070.364   124176891.309        2632.933          38.000    23630067.447  
  96761185.872        2051.500          33.000  
                                                                  23731415.883  
              3      -2738.328          26.000  
                                                                  23864517.996  
              3      -1883.561          22.000  
 21  4 24 15 14 45.9940000  0 11G 4G 7G 8G 9G16G21G27G30G14G26G18
  22031036.678   115773862.706       -4064.636          44.000    22031030.378  
  90213402.385       -3167.621          37.000  
  19208023.856   100938844.042        1327.313          48.000    19208016.071  
  78653624.814        1034.037          39.000  
  18602005.228    97754183.918         324.070          48.000    18601999.497  
  76172082.558         252.599          41.000  
  20520061.680   107833652.226       -2967.880          44.000    20520059.081  
  84026207.148       -2312.524          44.000  
  21593381.712   113473968.702       -3473.937          41.000                  
                                                
  22276016.341   117061269.384        2669.104          38.000                  
                                                
  19274344.348   101287363.181       -2211.204          47.000    19274338.841  
  78925193.034       -1723.256          42.000  
  21922008.798   115200938.433        2785.956          41.000    21922005.592  
  89766954.812        2170.654          38.000  
  23629569.438   124174258.547        2632.353          38.000    23629566.486  
  96759134.353        2051.776          33.000  
                                                                  23732083.618  
              3      -2737.756          26.000  
                                                                  23864976.402  
              3      -1881.632          22.000  
 21  4 24 15 14 46.9940000  0 11G 4G 7G 8G 9G16G21G27G30G18G14G26
  22031810.217   115777927.603       -4065.326          44.000    22031803.900  
  90216569.831       -3167.938          37.000  
  19207771.367   100937517.077        1326.342          48.000    19207763.593  
  78652590.803        1033.763          39.000  
  18601943.573    97753860.374         322.996          48.000    18601937.966  
  76171830.448         251.752          41.000  
  20520626.564   107836620.460       -2968.547          44.000    20520623.925  
  84028520.057       -2313.265          44.000  
  21594042.889   113477443.078       -3474.770          41.000                  
                                                
  22275508.375   117058600.321        2668.948          38.000                  
                                                
  19274765.177   101289574.844       -2212.267          47.000    19274759.691  
  78926916.402       -1723.623          42.000  
  21921478.858   115198153.161        2784.833          41.000    21921475.583  
  89764784.468        2170.032          37.000  
  23865457.487                3      -2415.833          25.000    23865435.416  
              3      -1882.650          23.000  
  23629068.410   124171626.187        2632.062          38.000    23629065.554  
  96757083.180        2050.940          33.000  
                                                                  23732750.526  
              3      -2738.386          26.000  
 21  4 24 15 14 47.9940000  0 11G 4G 7G 8G 9G16G21G27G30G18G14G26
  22032583.844   115781992.989       -4065.674          44.000    22032577.465  
  90219737.652       -3168.011          38.000  
  19207519.062   100936190.848        1325.873          48.000    19207511.302  
  78651557.391        1032.827          39.000  
  18601882.177    97753537.878         322.003          48.000    18601876.631  
  76171579.141         251.241          41.000  
  20521191.648   107839589.521       -2969.385          44.000    20521188.934  
  84030833.610       -2313.913          44.000  
  21594704.023   113480917.879       -3474.754          41.000                  
                                                
  22275000.599   117055931.773        2667.938          38.000                  
                                                
  19275186.129   101291787.475       -2213.105          47.000    19275180.770  
  78928640.512       -1724.174          42.000  
  21920948.935   115195368.336        2784.686          41.000    21920945.644  
  89762614.502        2169.543          37.000  
  23865920.462                3      -2417.432          25.000    23865896.211  
              3      -1885.419          23.000  
  23628567.569   124168994.230        2632.027          37.000    23628564.700  
  96755032.309        2050.951          33.000  
                                                                  23733419.226  
              3      -2739.025          26.000  
 21  4 24 15 14 48.9940000  0 11G 4G 7G 8G 9G16G21G27G30G18G14G26
  22033357.571   115786059.116       -4066.467          44.000    22033351.344  
  90222906.064       -3168.738          38.000  
  19207266.939   100934865.608        1324.687          48.000    19207259.124  
  78650524.743        1032.076          39.000  
  18601821.054    97753216.620         320.635          48.000    18601815.452  
  76171328.817         249.895          41.000  
  20521756.632   107842559.632       -2970.762          44.000    20521754.036  
  84033147.976       -2314.687          44.000  
  21595365.343   113484393.386       -3475.708          41.000                  
                                                
  22274492.947   117053263.906        2667.116          38.000                  
                                                
  19275607.385   101294001.285       -2214.316          47.000    19275602.116  
  78930365.588       -1725.585          42.000  
  21920419.143   115192584.243        2783.667          41.000    21920415.870  
  89760445.059        2168.836          37.000  
  23866379.507                3      -2419.499          25.000    23866355.677  
              3      -1883.143          22.000  
  23628066.811   124166362.970        2630.958          37.000    23628064.011  
  96752981.996        2050.200          33.000  
                                                                  23734089.217  
              3      -2739.296          27.000  
 21  4 24 15 14 49.9940000  0 11G 4G 7G 8G 9G16G21G27G30G18G14G26
  22034131.411   115790125.612       -4066.882          44.000    22034125.166  
  90226074.745       -3168.970          38.000  
  19207014.868   100933540.981        1324.060          48.000    19207006.996  
  78649492.535        1031.984          39.000  
  18601760.045    97752896.257         319.858          48.000    18601754.573  
  76171079.197         249.099          41.000  
  20522322.097   107845530.429       -2971.316          44.000    20522319.496  
  84035462.878       -2315.367          44.000  
  21596026.687   113487869.212       -3476.039          41.000                  
                                                
  22273985.338   117050596.344        2667.203          38.000                  
                                                
  19276028.834   101296215.932       -2215.212          47.000    19276023.559  
  78932091.257       -1725.905          42.000  
  21919889.411   115189800.494        2783.410          41.000    21919886.198  
  89758275.915        2168.762          37.000  
  23866838.700                3      -2420.246          25.000    23866815.204  
              3      -1881.199          22.000  
  23627566.119   124163732.000        2630.729          37.000    23627563.251  
  96750931.899        2049.502          33.000  
                                                                  23734758.885  
              3      -2739.621          27.000  
 21  4 24 15 14 50.9940000  0 11G 4G 7G 8G 9G16G21G27G30G18G14G26
  22034905.291   115794192.121       -4066.595          44.000    22034899.162  
  90229243.457       -3168.573          38.000  
  19206762.778   100932216.628        1324.054          47.000    19206754.980  
  78648460.582        1031.812          39.000  
  18601699.221    97752576.465         319.455          48.000    18601693.776  
  76170830.021         248.802          41.000  
  20522887.411   107848501.560       -2971.382          44.000    20522884.869  
  84037778.055       -2315.507          44.000  
  21596687.955   113491345.010       -3475.751          41.000                  
                                                
  22273477.712   117047928.823        2667.354          38.000                  
                                                
  19276450.302   101298431.048       -2215.471          47.000    19276445.099  
  78933817.341       -1726.371          42.000  
  21919359.676   115187016.778        2784.045          41.000    21919356.497  
  89756106.777        2169.098          37.000  
  23867299.639                3      -2419.661          25.000    23867275.883  
              3      -1885.902          21.000  
  23627065.404   124161100.984        2630.984          37.000    23627062.519  
  96748881.742        2050.450          33.000  
                                                                  23735428.080  
              3      -2740.105          27.000  
 21  4 24 15 14 51.9940000  0 11G 4G 7G 8G 9G16G21G27G30G18G14G26
  22035679.206   115798258.635       -4066.577          44.000    22035672.994  
  90232412.182       -3169.012          38.000  
  19206510.946   100930892.515        1324.049          47.000    19206502.976  
  78647428.817        1031.738          39.000  
  18601638.500    97752257.224         318.938          49.000    18601633.009  
  76170581.257         248.201          41.000  
  20523452.836   107851473.033       -2971.634          44.000    20523450.302  
  84040093.483       -2315.773          44.000  
  21597349.345   113494820.757       -3475.727          41.000                  
                                                
  22272970.002   117045261.261        2667.762          38.000                  
                                                
  19276871.869   101300646.640       -2215.943          47.000    19276866.688  
  78935543.770       -1726.766          42.000  
  21918829.937   115184233.038        2783.630          41.000    21918826.776  
  89753937.636        2169.177          37.000  
  23867760.266                3      -2420.584          24.000    23867736.846  
              3      -1890.446          21.000  
  23626564.578   124158469.904        2630.836          38.000    23626561.672  
  96746831.556        2049.990          33.000  
                                                                  23736097.448  
              3      -2739.235          27.000  
 21  4 24 15 14 52.9940000  0 11G 4G 7G 8G 9G16G21G27G30G18G14G26
  22036452.985   115802324.892       -4066.223          44.000    22036446.847  
  90235580.682       -3168.524          38.000  
  19206259.029   100929568.401        1324.049          47.000    19206251.036  
  78646397.040        1031.886          39.000  
  18601577.830    97751938.237         318.705          48.000    18601572.324  
  76170332.677         248.572          41.000  
  20524018.185   107854444.554       -2971.624          44.000    20524015.744  
  84042408.950       -2315.636          44.000  
  21598010.775   113498296.205       -3475.472          40.000                  
                                                
  22272462.295   117042593.430        2667.582          37.000                  
                                                
  19277293.427   101302862.408       -2215.935          47.000    19277288.210  
  78937270.359       -1726.983          42.000  
  21918300.259   115181449.029        2784.002          41.000    21918296.975  
  89751768.263        2169.800          37.000  
  23868217.305                3      -2420.719          25.000    23868198.497  
              3      -1886.712          21.000  
  23626063.770   124155838.479        2631.539          38.000    23626060.888  
  96744781.091        2051.168          33.000  
                                                                  23736767.272  
              3      -2738.856          27.000  
 21  4 24 15 14 53.9940000  0 11G 4G 7G 8G 9G16G21G27G30G18G14G26
  22037226.703   115806390.922       -4066.131          44.000    22037220.503  
  90238749.006       -3168.420          38.000  
  19206007.061   100928244.317        1323.974          47.000    19205999.019  
  78645365.296        1031.510          39.000  
  18601517.267    97751619.525         318.431          48.000    18601511.743  
  76170084.345         248.100          41.000  
  20524583.660   107857416.166       -2971.832          43.000    20524581.171  
  84044724.482       -2315.499          44.000  
  21598671.980   113501771.374       -3475.166          40.000                  
                                                
  22271954.608   117039925.302        2667.917          37.000                  
                                                
  19277715.061   101305078.421       -2216.282          47.000    19277709.893  
  78938997.117       -1727.170          41.000  
  21917770.503   115178664.778        2784.119          41.000    21917767.183  
  89749598.711        2169.727          37.000  
  23868675.989                3      -2420.726          25.000    23868659.340  
              3      -1893.067          22.000  
  23625562.825   124153206.797        2631.521          37.000    23625560.071  
  96742730.413        2050.931          33.000  
                                                                  23737436.869  
                     -2738.468          27.000  
 21  4 24 15 14 54.9940000  0 11G 4G 7G 8G 9G16G21G27G30G18G14G26
  22038000.431   115810456.909       -4066.217          44.000    22037994.198  
  90241917.324       -3168.658          38.000  
  19205755.133   100926920.422        1323.774          47.000    19205747.128  
  78644333.689        1031.415          39.000  
  18601456.773    97751301.331         317.704          48.000    18601451.183  
  76169836.392         247.488          41.000  
  20525149.141   107860388.053       -2972.112          43.000    20525146.718  
  84047040.250       -2316.026          44.000  
  21599333.265   113505246.443       -3475.091          40.000                  
                                                
  22271446.878   117037257.122        2667.691          37.000                  
                                                
  19278136.849   101307294.840       -2216.846          47.000    19278131.585  
  78940724.182       -1727.190          42.000  
  21917240.723   115175880.477        2784.192          42.000    21917237.417  
  89747429.141        2169.287          37.000  
  23869135.438                3      -2420.344          25.000    23869119.510  
              3      -1888.916          22.000  
  23625061.958   124150574.969        2631.522          38.000    23625059.315  
  96740679.660        2050.581          33.000  
                                                                  23738106.014  
                     -2738.607          27.000  
 21  4 24 15 14 55.9940000  0 11G 4G 7G 8G 9G16G21G27G30G18G14G26
  22038774.112   115814523.134       -4066.455          44.000    22038768.034  
  90245085.796       -3168.494          38.000  
  19205503.328   100925597.044        1323.137          47.000    19205495.269  
  78643302.468        1031.006          39.000  
  18601396.332    97750983.874         317.046          48.000    18601390.618  
  76169589.026         247.199          41.000  
  20525714.784   107863360.497       -2972.825          43.000    20525712.300  
  84049356.439       -2316.465          44.000  
  21599994.593   113508721.699       -3475.299          40.000                  
                                                
  22270939.128   117034589.133        2667.760          37.000                  
                                                
  19278558.705   101309511.970       -2217.369          47.000    19278553.510  
  78942451.830       -1728.024          42.000  
  21916710.977   115173096.402        2784.100          42.000    21916707.594  
  89745259.741        2169.189          37.000  
  23869596.238                3      -2422.211          25.000    23869581.652  
              3      -1887.101          22.000  
  23624561.120   124147943.317        2631.641          38.000    23624558.543  
  96738629.044        2050.754          33.000  
                                                                  23738775.501  
                     -2739.093          27.000  
 21  4 24 15 14 56.9940000  0 11G 4G 7G 8G 9G16G21G27G30G18G14G26
  22039547.904   115818589.823       -4067.169          44.000    22039541.978  
  90248254.656       -3169.104          38.000  
  19205251.651   100924274.359        1322.236          47.000    19205243.614  
  78642271.820        1030.200          39.000  
  18601336.159    97750667.421         315.936          48.000    18601330.430  
  76169342.455         245.772          41.000  
  20526280.510   107866333.730       -2973.786          43.000    20526278.040  
  84051673.232       -2317.162          44.000  
  21600655.824   113512197.365       -3475.749          40.000                  
                                                
  22270431.579   117031921.597        2667.568          37.000                  
                                                
  19278980.827   101311730.018       -2218.698          47.000    19278975.557  
  78944180.168       -1728.666          42.000  
  21916181.237   115170312.767        2783.386          42.000    21916177.875  
  89743090.671        2168.805          37.000  
  23870055.861                3      -2421.273          24.000    23870041.546  
              3      -1884.050          21.000  
  23624060.430   124145312.053        2630.948          37.000    23624057.841  
  96736578.695        2050.206          33.000  
                                                                  23739444.885  
                     -2739.258          27.000  
 21  4 24 15 14 57.9940000  0 11G 4G 7G 8G 9G16G21G27G30G18G14G26
  22040321.780   115822657.053       -4067.474          44.000    22040316.004  
  90251423.913       -3169.403          38.000  
  19205000.032   100922952.473        1321.577          47.000    19204992.010  
  78641241.777        1029.585          39.000  
  18601276.080    97750352.046         314.953          48.000    18601270.390  
  76169096.692         245.427          41.000  
  20526846.383   107869307.818       -2974.426          43.000    20526843.944  
  84053990.705       -2317.692          44.000  
  21601317.266   113515673.547       -3476.282          40.000                  
                                                
  22269923.973   117029254.582        2666.733          37.000                  
                                                
  19279402.944   101313949.063       -2219.309          47.000    19279397.871  
  78945909.307       -1729.487          42.000  
  21915651.668   115167529.684        2783.014          42.000    21915648.210  
  89740922.034        2168.683          37.000  
  23870518.351                3      -2423.859          25.000    23870503.259  
              3      -1893.685          20.000  
  23623559.797   124142681.271        2630.695          37.000    23623557.205  
  96734528.778        2049.333          33.000  
                                                                  23740115.492  
                     -2739.105          27.000  
 21  4 24 15 14 58.9940000  0 11G 4G 7G 8G 9G16G21G27G30G18G14G26
  22041095.793   115826724.604       -4067.883          44.000    22041090.146  
  90254593.435       -3169.537          38.000  
  19204748.528   100921631.143        1320.953          47.000    19204740.535  
  78640212.166        1029.370          39.000  
  18601216.313    97750037.509         313.956          48.000    18601210.570  
  76168851.600         244.639          41.000  
  20527412.415   107872282.551       -2975.068          43.000    20527410.066  
  84056308.683       -2318.183          44.000  
  21601978.722   113519149.975       -3476.587          40.000                  
                                                
  22269416.467   117026587.847        2666.163          37.000                  
                                                
  19279825.395   101316168.889       -2220.313          47.000    19279820.301  
  78947639.040       -1730.186          42.000  
  21915122.216   115164746.898        2782.721          42.000    21915118.590  
  89738753.612        2168.726          37.000  
  23870977.905                3      -2422.987          25.000    23870964.367  
              3      -1885.797          19.000  
  23623059.015   124140050.747        2630.166          38.000    23623056.547  
  96732478.997        2049.513          33.000  
                                                                  23740785.630  
                     -2739.640          27.000  
 21  4 24 15 14 59.9940000  0 11G 4G 7G 8G 9G16G21G27G30G18G14G26
  22041869.800   115830792.181       -4067.487          44.000    22041864.239  
  90257762.988       -3169.641          38.000  
  19204497.251   100920310.077        1321.092          47.000    19204489.100  
  78639182.762        1029.285          39.000  
  18601156.559    97749723.515         313.781          48.000    18601150.847  
  76168606.928         244.438          41.000  
  20527978.517   107875257.631       -2975.290          43.000    20527976.233  
  84058626.920       -2318.187          44.000  
  21602640.168   113522626.412       -3476.467          40.000                  
                                                
  22268908.962   117023921.102        2666.759          37.000                  
                                                
  19280247.868   101318389.195       -2220.361          47.000    19280242.740  
  78949369.138       -1730.086          42.000  
  21914592.705   115161964.146        2782.843          42.000    21914588.956  
  89736585.258        2167.999          37.000  
  23871438.470                3      -2422.508          25.000    23871425.935  
              3      -1899.216          19.000  
  23622558.393   124137420.163        2630.924          38.000    23622555.915  
  96730429.162        2050.528          33.000  
                                                                  23741454.636  
                     -2739.188          28.000  
 21  4 24 15 15  0.9940000  0 11G 4G 7G 8G 9G16G21G27G30G18G26G14
  22042643.789   115834859.604       -4067.456          44.000    22042638.339  
  90260932.384       -3169.403          38.000  
  19204245.851   100918989.091        1321.048          47.000    19204237.724  
  78638153.431        1029.077          39.000  
  18601096.851    97749409.888         313.347          48.000    18601091.253  
  76168362.543         244.021          41.000  
  20528544.685   107878232.870       -2975.586          43.000    20528542.333  
  84060945.297       -2318.531          44.000  
  21603301.530   113526102.618       -3476.067          40.000                  
                                                
  22268401.435   117021254.173        2667.262          36.000                  
                                                
  19280670.429   101320609.800       -2220.804          47.000    19280665.309  
  78951099.478       -1730.395          42.000  
  21914063.167   115159181.198        2783.038          42.000    21914059.358  
  89734416.703        2168.585          37.000  
  23871897.717                3      -2424.114          25.000    23871888.670  
              3      -1903.603          18.000  
  23742120.350                3      -3514.971          25.000    23742123.342  
                     -2739.255          28.000  
  23622057.839   124134789.377        2630.825          38.000    23622055.311  
  96728379.245        2049.843          33.000  
 21  4 24 15 15  1.9940000  0 11G 4G 7G 8G 9G16G21G27G30G18G26G14
  22043417.776   115838927.101       -4067.657          44.000    22043412.383  
  90264101.873       -3169.696          38.000  
  19203994.551   100917668.471        1320.196          47.000    19203986.428  
  78637124.367        1028.531          39.000  
  18601037.230    97749096.907         312.456          48.000    18601031.764  
  76168118.657         243.560          41.000  
  20529111.002   107881208.522       -2976.125          43.000    20529108.510  
  84063263.981       -2318.935          44.000  
  21603962.933   113529578.870       -3476.490          40.000                  
                                                
  22267893.835   117018587.365        2666.368          36.000                  
                                                
  19281093.073   101322830.959       -2221.653          47.000    19281087.944  
  78952830.263       -1731.377          41.000  
  21913533.604   115156398.350        2782.507          42.000    21913529.730  
  89732248.287        2167.938          37.000  
  23872356.951                3      -2425.600          25.000    23872349.251  
              3      -1879.505          18.000  
  23742789.257                3      -3515.086          25.000    23742793.350  
                     -2739.508          28.000  
  23621557.323   124132158.621        2630.282          38.000    23621554.698  
  96726329.281        2049.674          32.000  
 21  4 24 15 15  2.9940000  0 11G 4G 7G 8G 9G16G21G27G30G18G26G14
  22044191.844   115842995.038       -4068.274          44.000    22044186.493  
  90267271.679       -3170.044          38.000  
  19203743.342   100916348.500        1319.697          47.000    19203735.193  
  78636095.819        1028.328          38.000  
  18600977.788    97748784.865         311.541          48.000    18600972.305  
  76167875.507         242.766          41.000  
  20529677.365   107884184.896       -2976.655          43.000    20529674.831  
  84065583.238       -2319.484          44.000  
  21604624.396   113533055.487       -3476.820          40.000                  
                                                
  22267386.366   117015920.871        2666.120          37.000                  
                                                
  19281515.856   101325053.002       -2222.756          47.000    19281510.715  
  78954561.735       -1732.345          41.000  
  21913004.163   115153615.901        2782.214          42.000    21913000.192  
  89730080.127        2167.908          37.000  
  23872819.097                3      -2426.528          25.000    23872810.339  
              3      -1892.172          18.000  
  23743457.663                3      -3515.111          25.000    23743462.781  
                     -2738.804          28.000  
  23621056.811   124129528.196        2630.147          38.000    23621054.250  
  96724279.628        2049.374          32.000  
 21  4 24 15 15  3.9940000  0 11G 4G 7G 8G 9G16G21G27G30G18G26G14
  22044965.971   115847063.282       -4068.438          44.000    22044960.645  
  90270441.757       -3170.526          39.000  
  19203492.276   100915029.110        1319.172          47.000    19203484.182  
  78635067.736        1027.589          38.000  
  18600918.637    97748473.685         310.544          48.000    18600913.090  
  76167633.035         241.805          41.000  
  20530243.956   107887161.948       -2977.500          43.000    20530241.273  
  84067903.017       -2320.222          44.000  
  21605285.926   113536532.389       -3477.094          40.000                  
                                                
  22266879.018   117013254.727        2665.655          37.000                  
                                                
  19281938.813   101327275.803       -2223.383          47.000    19281933.716  
  78956293.765       -1732.483          41.000  
  21912474.668   115150833.760        2782.147          42.000    21912470.779  
  89727912.231        2167.847          37.000  
  23873279.882                3      -2426.732          25.000    23873271.285  
              3      -1891.018          18.000  
  23744128.547                3      -3516.301          25.000    23744131.993  
                     -2739.159          28.000  
  23620556.232   124126898.038        2629.712          38.000    23620553.688  
  96722230.150        2048.757          32.000  
 21  4 24 15 15  4.9940000  0 11G 4G 7G 8G 9G16G21G27G30G18G26G14
  22045740.380   115851132.074       -4069.153          44.000    22045734.954  
  90273612.245       -3171.106          39.000  
  19203241.288   100913710.533        1317.820          47.000    19203233.320  
  78634040.265        1026.707          38.000  
  18600859.552    97748163.568         309.576          48.000    18600853.971  
  76167391.374         241.241          41.000  
  20530810.655   107890139.838       -2978.618          43.000    20530807.946  
  84070223.449       -2320.918          43.000  
  21605947.534   113540009.772       -3477.686          40.000                  
                                                
  22266371.760   117010589.049        2665.223          37.000                  
                                                
  19282361.940   101329499.612       -2224.357          47.000    19282356.851  
  78958026.625       -1733.411          41.000  
  21911945.428   115148052.148        2781.323          42.000    21911941.374  
  89725744.743        2167.096          36.000  
  23873744.007                3      -2427.365          25.000    23873730.391  
              3      -1900.893          18.000  
  23744799.561                3      -3515.413          26.000    23744802.720  
                     -2740.069          27.000  
  23620055.792   124124268.339        2629.244          38.000    23620053.223  
  96720181.036        2049.190          32.000  
 21  4 24 15 15  5.9940000  0 11G 4G 7G 8G 9G16G21G27G30G18G26G14
  22046514.769   115855201.300       -4069.360          44.000    22046509.366  
  90276783.044       -3170.734          39.000  
  19202990.535   100912392.648        1317.463          47.000    19202982.496  
  78633013.304        1026.715          38.000  
  18600800.777    97747854.442         308.578          48.000    18600795.229  
  76167150.504         240.267          41.000  
  20531377.464   107893118.483       -2979.009          43.000    20531374.759  
  84072544.468       -2321.235          43.000  
  21606609.266   113543487.555       -3478.079          40.000                  
                                                
  22265864.548   117007923.788        2665.307          37.000                  
                                                
  19282785.291   101331724.321       -2225.188          47.000    19282780.146  
  78959760.158       -1733.882          41.000  
  21911416.278   115145270.975        2781.061          42.000    21911412.104  
  89723577.602        2166.803          36.000  
  23874206.676                3      -2428.914          25.000    23874193.096  
              3      -1880.892          18.000  
  23745469.317                2      -3515.932          26.000    23745473.039  
                     -2739.643          28.000  
  23619555.475   124121639.031        2628.902          38.000    23619552.862  
  96718132.251        2047.788          32.000  
 21  4 24 15 15  6.9940000  0 11G 4G 7G 8G 9G16G21G27G30G18G26G14
  22047289.247   115859270.893       -4069.983          44.000    22047283.808  
  90279954.159       -3171.417          39.000  
  19202739.852   100911075.368        1316.835          47.000    19202731.827  
  78631986.869        1025.889          38.000  
  18600742.158    97747546.197         307.639          48.000    18600736.534  
  76166910.306         239.732          41.000  
  20531944.423   107896097.817       -2979.764          43.000    20531941.633  
  84074866.031       -2321.945          43.000  
  21607271.133   113546965.641       -3478.125          40.000                  
                                                
  22265357.425   117005258.911        2664.322          37.000                  
                                                
  19283208.775   101333949.851       -2226.222          47.000    19283203.678  
  78961494.333       -1734.746          41.000  
  21910887.234   115142490.146        2780.823          42.000    21910882.782  
  89721410.708        2166.980          36.000  
  23874670.973                3      -2429.218          25.000    23874653.931  
              3      -1895.914          18.000  
  23746138.045                2      -3516.085          26.000    23746142.768  
                     -2740.585          28.000  
  23619055.079   124119009.999        2628.597          38.000    23619052.466  
  96716083.667        2047.515          32.000  
 21  4 24 15 15  7.9940000  0 11G 4G 7G 8G 9G16G21G27G30G18G26G14
  22048063.772   115863341.083       -4070.605          44.000    22048058.368  
  90283125.718       -3171.399          39.000  
  19202489.431   100909758.930        1315.948          47.000    19202481.262  
  78630961.058        1025.371          38.000  
  18600683.549    97747239.092         306.498          48.000    18600678.089  
  76166670.990         238.865          41.000  
  20532511.509   107899078.063       -2980.925          44.000    20532508.743  
  84077188.295       -2322.722          43.000  
  21607933.049   113550444.295       -3478.826          40.000                  
                                                
  22264850.367   117002594.535        2664.431          37.000                  
                                                
  19283632.572   101336176.435       -2227.167          46.000    19283627.383  
  78963229.334       -1735.515          41.000  
  21910358.165   115139709.929        2779.858          43.000    21910353.664  
  89719244.295        2166.358          36.000  
  23875133.511                3      -2430.509          26.000    23875116.619  
              3      -1888.522          18.000  
  23746807.789                       -3516.922          27.000    23746813.985  
                     -2740.409          28.000  
  23618555.004   124116381.500        2628.362          38.000    23618552.248  
  96714035.441        2048.265          32.000  
 21  4 24 15 15  8.9940000  0 11G 4G 7G 8G 9G16G21G27G30G18G26G14
  22048838.363   115867411.828       -4070.862          44.000    22048833.057  
  90286297.742       -3172.162          39.000  
  19202239.029   100908443.310        1315.322          47.000    19202230.935  
  78629935.913        1024.856          38.000  
  18600625.262    97746933.071         305.658          48.000    18600619.846  
  76166432.542         238.066          41.000  
  20533078.852   107902059.187       -2981.381          44.000    20533075.998  
  84079511.256       -2323.150          43.000  
  21608595.008   113553923.436       -3479.058          40.000                  
                                                
  22264343.494   116999930.764        2663.834          37.000                  
                                                
  19284056.435   101338404.040       -2227.901          46.000    19284051.290  
  78964965.123       -1735.923          41.000  
  21909829.193   115136930.229        2779.730          43.000    21909824.694  
  89717078.321        2165.991          36.000  
  23875599.182                3      -2430.842          26.000    23875578.254  
              3      -1896.843          18.000  
  23747478.894                       -3517.003          27.000    23747483.158  
                     -2740.403          28.000  
  23618054.912   124113753.504        2627.838          38.000    23618052.259  
  96711987.650        2047.607          32.000  
 21  4 24 15 15  9.9940000  0 11G 4G 7G 8G 9G16G21G27G30G18G26G14
  22049613.011   115871483.091       -4071.521          44.000    22049607.856  
  90289470.165       -3172.693          39.000  
  19201988.915   100907128.452        1314.426          47.000    19201980.644  
  78628911.331        1024.386          38.000  
  18600567.275    97746628.114         304.370          48.000    18600561.894  
  76166194.904         237.292          41.000  
  20533646.340   107905041.149       -2982.417          44.000    20533643.397  
  84081834.870       -2324.141          43.000  
  21609257.200   113557403.077       -3479.949          40.000                  
                                                
  22263836.648   116997267.457        2663.005          37.000                  
                                                
  19284480.574   101340632.627       -2229.283          46.000    19284475.377  
  78966701.689       -1737.092          41.000  
  21909300.474   115134151.071        2778.693          43.000    21909295.802  
  89714912.734        2165.436          36.000  
  23876063.867                3      -2432.103          26.000    23876040.719  
              3      -1899.914          18.000  
  23748148.619                       -3517.762          27.000    23748151.799  
                     -2741.220          28.000  
  23617554.968   124111125.955        2627.087          38.000    23617552.260  
  96709940.184        2047.877          32.000  
 21  4 24 15 15 10.9940000  0 11G 4G 7G 8G 9G16G21G27G30G18G26G14
  22050387.863   115875554.970       -4072.369          43.000    22050382.706  
  90292643.049       -3173.291          39.000  
  19201738.874   100905814.466        1313.397          47.000    19201730.505  
  78627887.457        1023.507          38.000  
  18600509.510    97746324.288         303.135          48.000    18600504.060  
  76165958.169         236.130          41.000  
  20534213.899   107908024.052       -2983.713          44.000    20534210.979  
  84084159.197       -2324.781          43.000  
  21609919.310   113560883.256       -3480.519          40.000                  
                                                
  22263329.862   116994604.750        2662.406          37.000                  
                                                
  19284904.922   101342862.278       -2230.324          46.000    19284899.661  
  78968439.073       -1737.735          41.000  
  21908771.752   115131372.479        2778.333          43.000    21908767.041  
  89712747.600        2165.063          36.000  
  23876528.942                2      -2432.996          27.000    23876503.988  
              3      -1893.141          18.000  
  23748818.657                       -3518.515          27.000    23748820.908  
                     -2741.808          27.000  
  23617055.046   124108498.945        2626.503          38.000    23617052.399  
  96707893.226        2046.716          32.000  
 21  4 24 15 15 11.9940000  0 11G 4G 7G 8G 9G16G21G27G30G18G26G14
  22051162.823   115879627.506       -4073.199          43.000    22051157.727  
  90295816.432       -3173.719          39.000  
  19201488.971   100904501.390        1312.410          47.000    19201480.612  
  78626864.282        1022.392          38.000  
  18600451.999    97746021.665         301.667          48.000    18600446.581  
  76165722.346         235.331          41.000  
  20534781.681   107911007.917       -2984.679          44.000    20534778.752  
  84086484.299       -2325.758          43.000  
  21610581.656   113564364.067       -3481.660          40.000                  
                                                
  22262823.285   116991942.640        2661.594          37.000                  
                                                
  19285329.477   101345093.035       -2231.599          46.000    19285324.208  
  78970177.329       -1739.059          41.000  
  21908243.145   115128594.559        2777.362          43.000    21908238.369  
  89710582.976        2164.728          36.000  
  23876992.597                2      -2433.680          27.000    23876965.182  
              3      -1910.931          18.000  
  23749487.023                       -3518.885          27.000    23749489.956  
                     -2741.818          28.000  
  23616555.178   124105872.522        2626.194          38.000    23616552.639  
  96705846.661        2046.072          32.000  
 21  4 24 15 15 12.9940000  0 11G 4G 7G 8G 9G16G21G27G30G18G26G14
  22051937.922   115883700.750       -4073.682          43.000    22051932.897  
  90298990.397       -3174.127          39.000  
  19201239.252   100903189.280        1311.671          47.000    19201230.830  
  78625841.853        1021.879          38.000  
  18600394.606    97745720.257         300.737          48.000    18600389.104  
  76165487.491         234.412          41.000  
  20535349.625   107913992.816       -2985.314          44.000    20535346.888  
  84088810.196       -2326.406          43.000  
  21611244.080   113567845.535       -3481.786          40.000                  
                                                
  22262316.786   116989281.249        2661.007          37.000                  
                                                
  19285754.191   101347324.974       -2232.573          47.000    19285748.998  
  78971916.503       -1739.658          42.000  
  21907714.593   115125817.349        2776.587          43.000    21907709.891  
  89708418.929        2163.751          36.000  
  23877459.249                1      -2435.688          27.000    23877428.224  
              3      -1891.657          18.000  
  23750157.480                       -3519.555          27.000    23750159.835  
                     -2742.433          28.000  
  23616055.644   124103246.752        2625.333          38.000    23616052.899  
  96703800.582        2046.010          32.000  
 21  4 24 15 15 13.9940000  0 11G 4G 7G 8G 9G16G21G27G30G18G26G14
  22052713.214   115887774.721       -4074.408          43.000    22052708.219  
  90302164.921       -3174.762          39.000  
  19200989.802   100901878.147        1310.704          47.000    19200981.284  
  78624820.206        1021.037          38.000  
  18600337.550    97745420.106         299.572          48.000    18600332.025  
  76165253.612         233.212          41.000  
  20535917.798   107916978.748       -2986.275          44.000    20535915.064  
  84091136.906       -2327.320          43.000  
  21611906.665   113571327.670       -3482.428          40.000                  
                                                
  22261810.505   116986620.532        2660.504          37.000                  
                                                
  19286179.188   101349558.093       -2233.783          47.000    19286173.959  
  78973656.595       -1740.608          41.000  
  21907186.258   115123040.824        2776.367          43.000    21907181.512  
  89706255.415        2163.086          36.000  
  23877924.475                       -2436.642          28.000    23877890.386  
              3      -1900.033          19.000  
  23750826.785                       -3520.588          27.000    23750829.567  
                     -2742.397          27.000  
  23615556.103   124100621.627        2624.768          38.000    23615553.395  
  96701755.076        2045.081          32.000  
 21  4 24 15 15 14.9940000  0 11G 4G 7G 8G 9G16G21G27G30G18G26G14
  22053488.559   115891849.318       -4074.811          44.000    22053483.577  
  90305339.946       -3175.427          38.000  
  19200740.420   100900567.904        1309.910          47.000    19200731.897  
  78623799.229        1020.302          38.000  
  18600280.611    97745121.144         298.398          48.000    18600275.005  
  76165020.636         232.566          41.000  
  20536486.104   107919965.662       -2987.252          44.000    20536483.465  
  84093464.363       -2327.992          43.000  
  21612569.346   113574810.401       -3482.978          40.000                  
                                                
  22261304.323   116983960.463        2659.690          37.000                  
                                                
  19286604.459   101351792.295       -2234.656          47.000    19286599.147  
  78975397.537       -1741.426          41.000  
  21906658.088   115120264.938        2775.592          44.000    21906653.207  
  89704092.382        2162.830          36.000  
  23878387.923                       -2436.839          28.000    23878354.796  
              3      -1897.127          19.000  
  23751497.408                       -3520.649          27.000    23751500.375  
                     -2743.196          27.000  
  23615056.620   124097997.077        2624.615          38.000    23615053.810  
  96699709.952        2045.127          33.000  
 21  4 24 15 15 15.9940000  0 11G 4G 7G 8G 9G16G21G27G30G18G26G14
  22054263.994   115895924.481       -4075.342          44.000    22054259.035  
  90308515.367       -3175.519          39.000  
  19200491.222   100899258.473        1308.967          47.000    19200482.693  
  78622778.893        1019.695          38.000  
  18600223.975    97744823.271         297.265          48.000    18600218.293  
  76164788.529         231.813          41.000  
  20537054.564   107922953.457       -2988.393          44.000    20537051.998  
  84095792.494       -2328.330          43.000  
  21613232.095   113578293.635       -3483.570          40.000                  
                                                
  22260798.299   116981300.901        2659.264          37.000                  
                                                
  19287029.879   101354027.529       -2235.873          47.000    19287024.535  
  78977139.280       -1742.213          42.000  
  21906130.027   115117489.620        2774.963          44.000    21906125.083  
  89701929.783        2162.708          36.000  
  23878854.082                       -2438.023          28.000    23878819.643  
              3      -1897.192          20.000  
  23752167.879                       -3521.340          28.000    23752171.074  
                     -2743.908          27.000  
  23614557.249   124095373.032        2623.761          38.000    23614554.377  
  96697665.232        2044.593          33.000  
 21  4 24 15 15 16.9940000  0 11G 4G 7G 8G 9G16G21G27G30G18G26G14
  22055039.660   115900000.417       -4076.270          43.000    22055034.630  
  90311691.430       -3176.306          38.000  
  19200242.300   100897950.056        1308.200          47.000    19200233.644  
  78621759.352        1019.294          38.000  
  18600167.540    97744526.693         296.050          48.000    18600161.856  
  76164557.426         230.829          41.000  
  20537623.240   107925942.321       -2989.424          44.000    20537620.704  
  84098121.485       -2329.150          43.000  
  21613895.066   113581777.600       -3484.254          40.000                  
                                                
  22260292.395   116978642.079        2658.584          37.000                  
                                                
  19287455.367   101356263.966       -2236.814          47.000    19287450.098  
  78978881.969       -1743.320          42.000  
  21905602.151   115114715.047        2774.237          44.000    21905597.000  
  89699767.793        2161.896          36.000  
  23879318.334                       -2438.842          28.000    23879284.684  
              3      -1897.893          20.000  
  23752837.618                       -3521.166          28.000    23752841.193  
              3      -2744.875          27.000  
  23614058.003   124092749.663        2623.187          38.000    23614055.131  
  96695621.071        2043.981          33.000  
 21  4 24 15 15 17.9940000  0 11G 4G 7G 8G 9G16G21G27G30G18G26G14
  22055815.388   115904077.025       -4076.935          43.000    22055810.437  
  90314868.003       -3176.917          39.000  
  19199993.470   100896642.586        1306.835          47.000    19199984.788  
  78620740.538        1018.442          38.000  
  18600111.343    97744231.332         294.638          48.000    18600105.735  
  76164327.271         229.860          41.000  
  20538192.058   107928932.196       -2990.490          44.000    20538189.804  
  84100451.273       -2330.380          43.000  
  21614558.107   113585262.193       -3485.062          40.000                  
                                                
  22259786.567   116975983.927        2657.541          37.000                  
                                                
  19287881.235   101358501.570       -2238.428          47.000    19287875.922  
  78980625.542       -1744.247          42.000  
  21905074.309   115111941.158        2773.315          44.000    21905069.126  
  89697606.348        2160.590          36.000  
  23879783.972                       -2440.556          28.000    23879749.897  
              3      -1910.273          20.000  
  23753507.475                       -3522.302          28.000    23753511.516  
              3      -2744.713          27.000  
  23613558.892   124090126.955        2622.083          38.000    23613556.044  
  96693577.388        2043.515          33.000  
 21  4 24 15 15 18.9940000  0 11G 4G 7G 8G 9G16G21G27G30G18G26G14
  22056591.265   115908154.404       -4077.728          43.000    22056586.453  
  90318045.172       -3177.673          38.000  
  19199744.806   100895336.130        1306.069          47.000    19199736.188  
  78619722.530        1017.853          38.000  
  18600055.232    97743937.274         293.406          48.000    18600049.839  
  76164098.144         228.636          41.000  
  20538761.279   107931923.158       -2991.620          44.000    20538759.001  
  84102781.867       -2330.829          43.000  
  21615221.302   113588747.513       -3485.638          40.000                  
                                                
  22259280.930   116973326.506        2656.942          38.000                  
                                                
  19288307.240   101360740.375       -2239.554          47.000    19288302.081  
  78982370.086       -1745.393          42.000  
  21904546.599   115109168.021        2772.784          44.000    21904541.426  
  89695445.434        2160.864          36.000  
  23880247.404                       -2441.152          28.000                  
                                                
  23754178.144                       -3522.364          28.000    23754181.469  
              3      -2744.204          27.000  
  23613059.970   124087504.897        2621.678          38.000    23613057.063  
  96691534.238        2042.937          33.000  
 21  4 24 15 15 19.9940000  0 11G 4G 7G 8G 9G16G21G27G30G18G26G14
  22057367.233   115912232.095       -4077.631          43.000    22057362.437  
  90321222.606       -3177.619          38.000  
  19199496.255   100894030.258        1305.718          47.000    19199487.588  
  78618704.968        1017.406          38.000  
  18599999.429    97743644.066         292.969          48.000    18599994.120  
  76163869.672         228.179          41.000  
  20539330.465   107934914.756       -2991.940          44.000    20539328.307  
  84105112.994       -2331.408          43.000  
  21615884.593   113592233.100       -3485.670          40.000                  
                                                
  22258775.228   116970669.392        2657.136          38.000                  
                                                
  19288733.457   101362979.966       -2239.961          47.000    19288728.372  
  78984115.218       -1745.599          42.000  
  21904019.016   115106395.205        2772.931          44.000    21904013.816  
  89693284.795        2160.693          36.000  
  23880710.871   125493942.619       -2441.470          29.000    23880680.094  
              3      -1900.828          20.000  
  23754848.917   124832554.685       -3522.418          29.000    23754850.631  
              3      -2744.128          27.000  
  23612561.140   124084883.131        2621.550          38.000    23612558.142  
  96689491.287        2043.262          33.000  
 21  4 24 15 15 20.9940000  0 11G 4G 7G 8G 9G16G21G27G30G18G26G14
  22058143.376   115916310.015       -4078.149          43.000    22058138.408  
  90324400.210       -3177.484          38.000  
  19199247.804   100892724.866        1305.155          46.000    19199239.129  
  78617687.774        1016.993          38.000  
  18599943.821    97743351.620         292.071          48.000    18599938.498  
  76163641.795         227.426          41.000  
  20539899.896   107937906.893       -2992.419          44.000    20539897.664  
  84107444.528       -2331.710          43.000  
  21616547.900   113595718.875       -3485.883          40.000                  
                                                
  22258269.705   116968012.461        2656.953          38.000                  
                                                
  19289159.811   101365220.255       -2240.838          47.000    19289154.783  
  78985860.888       -1746.084          42.000  
  21903491.378   115103622.613        2772.406          44.000    21903486.319  
  89691124.321        2160.620          36.000  
  23881174.557                       -2441.958          29.000    23881143.369  
              3      -1902.478          20.000  
  23755518.951   124836077.313       -3522.588          29.000    23755520.013  
              3      -2745.061          26.000  
  23612062.130   124082261.485        2621.392          39.000    23612059.312  
  96687448.491        2042.836          33.000  
 21  4 24 15 15 21.9940000  0 11G 4G 7G 8G 9G16G21G27G30G18G26G14
  22058919.470   115920388.274       -4078.412          43.000    22058914.394  
  90327578.060       -3177.979          38.000  
  19198999.433   100891420.052        1304.463          46.000    19198990.887  
  78616671.047        1016.344          38.000  
  18599888.318    97743060.040         291.093          48.000    18599882.973  
  76163414.579         227.070          41.000  
  20540469.425   107940899.679       -2992.985          44.000    20540467.269  
  84109776.573       -2332.462          43.000  
  21617211.233   113599204.918       -3486.225          41.000                  
                                                
  22257764.067   116965355.858        2656.368          38.000                  
                                                
  19289586.304   101367461.317       -2241.453          47.000    19289581.266  
  78987607.177       -1746.717          42.000  
  21902963.765   115100850.333        2772.119          44.000    21902958.858  
  89688964.142        2159.772          36.000  
  23881637.798                       -2442.731          29.000    23881609.763  
              3      -1905.379          19.000  
  23756192.592                       -3523.250          29.000    23756190.177  
              3      -2744.876          26.000  
  23611563.354   124079640.122        2621.195          38.000    23611560.445  
  96685405.860        2042.646          34.000  
 21  4 24 15 15 22.9940000  0 11G 4G 7G 8G 9G16G21G27G30G18G26G14
  22059695.381   115924466.712       -4078.467          43.000    22059690.495  
  90330756.054       -3177.917          38.000  
  19198751.173   100890115.684        1304.109          46.000    19198742.609  
  78615654.638        1016.165          38.000  
  18599832.970    97742769.176         290.534          48.000    18599827.662  
  76163187.929         226.454          42.000  
  20541039.045   107943892.974       -2993.595          44.000    20541036.896  
  84112108.993       -2332.549          43.000  
  21617874.656   113602691.103       -3486.279          41.000                  
                                                
  22257258.668   116962699.412        2656.199          38.000                  
                                                
  19290012.939   101369703.026       -2242.188          47.000    19290007.949  
  78989353.962       -1747.254          42.000  
  21902436.333   115098078.235        2772.040          45.000    21902431.285  
  89686804.050        2159.912          36.000  
  23882103.177                       -2443.367          28.000    23882074.660  
              3      -1906.625          18.000  
  23756862.420                       -3523.248          29.000    23756860.038  
              3      -2744.871          26.000  
  23611064.548   124077018.893        2621.268          39.000    23611061.617  
  96683363.365        2041.979          34.000  
 21  4 24 15 15 23.9940000  0 11G 4G 7G 8G 9G16G21G27G30G18G26G14
  22060471.610   115928545.829       -4079.443          43.000    22060466.785  
  90333934.604       -3179.181          38.000  
  19198503.007   100888812.246        1302.918          46.000    19198494.558  
  78614638.971        1015.460          38.000  
  18599777.863    97742479.527         289.086          48.000    18599772.569  
  76162962.235         225.336          42.000  
  20541608.783   107946887.262       -2994.752          44.000    20541606.685  
  84114442.210       -2333.621          43.000  
  21618538.275   113606177.911       -3487.203          41.000                  
                                                
  22256753.252   116960043.631        2654.977          38.000                  
                                                
  19290439.742   101371945.853       -2243.446          47.000    19290434.770  
  78991101.609       -1747.962          42.000  
  21901909.090   115095306.800        2771.271          45.000    21901903.858  
  89684644.481        2159.430          36.000  
  23882566.924                       -2444.367          28.000    23882539.859  
              3      -1895.765          17.000  
  23757533.163                       -3523.424          30.000    23757529.855  
              3      -2746.313          26.000  
  23610565.847   124074398.257        2620.187          39.000    23610562.953  
  96681321.267        2042.052          34.000  
 21  4 24 15 15 24.9940000  0 11G 4G 7G 8G 9G16G21G27G30G18G26G14
  22061247.963   115932625.570       -4079.785          43.000    22061243.114  
  90337113.599       -3178.766          38.000  
  19198255.043   100887509.694        1302.408          46.000    19198246.653  
  78613623.993        1015.041          38.000  
  18599722.919    97742191.067         288.011          48.000    18599717.682  
  76162737.453         224.604          42.000  
  20542178.766   107949882.519       -2995.669          43.000    20542176.646  
  84116776.171       -2334.203          43.000  
  21619201.913   113609665.302       -3487.420          41.000                  
                                                
  22256247.929   116957388.423        2655.157          38.000                  
                                                
  19290866.803   101374189.796       -2244.371          47.000    19290861.820  
  78992850.143       -1748.871          43.000  
  21901381.880   115092536.003        2770.740          45.000    21901376.589  
  89682485.430        2159.082          36.000  
  23883031.746                       -2445.251          28.000    23883007.557  
              3      -1913.300          17.000  
  23758204.094   124850170.125       -3524.060          29.000    23758200.300  
              3      -2746.608          26.000  
  23610067.250   124071778.183        2619.976          39.000    23610064.394  
  96679279.680        2041.460          34.000  
 21  4 24 15 15 25.9940000  0 11G 4G 7G 8G 9G16G21G27G30G18G26G14
  22062024.358   115936705.767       -4080.554          43.000    22062019.604  
  90340292.974       -3179.273          38.000  
  19198007.318   100886207.854        1301.328          46.000    19197998.823  
  78612609.598        1013.713          38.000  
  18599668.226    97741903.578         286.925          48.000    18599663.150  
  76162513.446         223.632          42.000  
  20542748.828   107952878.527       -2996.565          43.000    20542746.695  
  84119110.729       -2335.043          43.000  
  21619865.635   113613153.105       -3487.977          41.000                  
                                                
  22255742.745   116954733.701        2653.776          38.000                  
                                                
  19291294.058   101376434.638       -2245.535          47.000    19291289.100  
  78994599.374       -1749.771          42.000  
  21900854.743   115089765.636        2769.928          45.000    21900849.348  
  89680326.684        2158.966          36.000  
  23883494.100                       -2445.974          28.000    23883474.347  
              3      -1908.045          16.000  
  23758876.436                       -3523.713          30.000    23758870.523  
              3      -2746.981          26.000  
  23609568.636   124069158.510        2619.427          39.000    23609565.894  
  96677238.383        2040.791          34.000  
 21  4 24 15 15 26.9940000  0 11G 4G 7G 8G 9G16G21G27G30G18G26G14
  22062800.938   115940786.351       -4080.591          43.000    22062796.135  
  90343472.655       -3179.535          38.000  
  19197759.693   100884906.649        1301.166          46.000    19197751.136  
  78611595.691        1013.336          37.000  
  18599613.734    97741617.004         286.322          48.000    18599608.675  
  76162290.126         223.378          42.000  
  20543319.138   107955875.254       -2996.808          43.000    20543317.046  
  84121445.836       -2335.185          43.000  
  21620529.352   113616641.268       -3488.244          41.000                  
                                                
  22255237.586   116952079.283        2654.458          38.000                  
                                                
  19291721.421   101378680.324       -2245.816          47.000    19291716.526  
  78996349.261       -1750.035          42.000  
  21900327.598   115086995.656        2769.910          45.000    21900322.252  
  89678168.273        2158.484          36.000  
  23883957.639                       -2447.135          28.000                  
                                                
  23759547.155                       -3524.319          29.000    23759540.942  
              3      -2746.289          26.000  
  23609070.204   124066539.162        2619.250          39.000    23609067.431  
  96675197.352        2040.759          34.000  
 21  4 24 15 15 27.9940000  0 11G 4G 7G 8G 9G16G21G27G30G18G26G14
  22063577.577   115944867.302       -4080.969          43.000    22063572.722  
  90346652.605       -3179.895          38.000  
  19197512.236   100883606.074        1300.332          46.000    19197503.646  
  78610582.209        1013.587          38.000  
  18599559.355    97741331.314         285.344          48.000    18599554.197  
  76162067.526         222.406          42.000  
  20543889.515   107958872.657       -2997.764          43.000    20543887.403  
  84123781.464       -2335.739          43.000  
  21621193.077   113620129.717       -3488.576          41.000                  
                                                
  22254732.476   116949425.235        2654.085          38.000                  
                                                
  19292148.967   101380926.850       -2246.910          47.000    19292144.046  
  78998099.779       -1750.449          42.000  
  21899800.514   115084226.029        2769.574          45.000    21899795.277  
  89676010.121        2157.983          36.000  
  23884422.801                       -2447.497          27.000                  
                                                
  23760218.809                       -3524.275          29.000    23760211.372  
              3      -2745.285          25.000  
  23608571.897   124063920.103        2618.763          39.000    23608569.136  
  96673156.498        2040.863          34.000  
 21  4 24 15 15 28.9940000  0 11G 4G 7G 8G 9G16G21G27G30G18G26G14
  22064354.131   115948948.326       -4081.165          43.000    22064349.328  
  90349832.625       -3180.011          38.000  
  19197264.861   100882305.828        1300.060          46.000    19197256.193  
  78609569.026        1013.194          38.000  
  18599505.145    97741046.232         284.839          48.000    18599500.087  
  76161845.387         222.024          42.000  
  20544459.973   107961870.457       -2997.980          43.000    20544457.797  
  84126117.419       -2336.037          43.000  
  21621856.897   113623618.213       -3488.507          41.000                  
                                                
  22254227.421   116946771.242        2654.111          38.000                  
                                                
  19292576.515   101383173.894       -2247.416          47.000    19292571.677  
  78999850.726       -1751.028          42.000  
  21899273.671   115081456.477        2769.342          45.000    21899268.288  
  89673852.036        2158.124          36.000  
  23884887.341                       -2448.124          27.000    23884869.583  
              3      -1919.486          15.000  
  23760889.349   124864267.808       -3524.493          29.000    23760881.738  
              3      -2745.645          25.000  
  23608073.560   124061301.053        2619.243          39.000    23608070.700  
  96671115.722        2040.552          35.000  
 21  4 24 15 15 29.9940000  0 11G 4G 7G 8G 9G16G21G27G30G18G26G14
  22065130.669   115953029.394       -4080.829          43.000    22065125.915  
  90353012.669       -3179.621          38.000  
  19197017.574   100881005.877        1299.986          46.000    19197008.833  
  78608556.088        1012.966          37.000  
  18599451.079    97740761.729         284.478          48.000    18599446.022  
  76161623.703         221.692          42.000  
  20545030.398   107964868.617       -2997.807          43.000    20545028.403  
  84128453.650       -2336.222          43.000  
  21622520.778   113627106.717       -3488.269          41.000                  
                                                
  22253722.474   116944117.259        2654.699          39.000                  
                                                
  19293004.210   101385421.445       -2247.509          47.000    19292999.308  
  79001602.083       -1751.376          42.000  
  21898746.628   115078686.970        2769.702          45.000    21898741.215  
  89671693.977        2158.136          36.000  
  23885351.468                       -2448.179          27.000    23885337.137  
              3      -1913.080          15.000  
  23761559.098                       -3524.451          28.000    23761551.730  
              3      -2743.803          25.000  
  23607575.127   124058681.988        2619.368          39.000    23607572.257  
  96669074.855        2041.300          35.000  
