     2.10           OBSERVATION DATA    M (MIXED)           RINEX VERSION / TYPE
RTKCONV 2.4.3 b33                       20210424 192826 UTC PGM / RUN BY / DATE 
log: D:\Study\PhD Research\Data\ublox\2021.4.24-kinematic\  COMMENT             
format: u-blox                                              COMMENT             
                                                            MARKER NAME         
                                                            MARKER NUMBER       
                                                            OBSERVER / AGENCY   
                                                            REC # / TYPE / VERS 
                                                            ANT # / TYPE        
   858593.0585 -4522850.3649  4399904.4554                  APPROX POSITION XYZ 
        0.0000        0.0000        0.0000                  ANTENNA: DELTA H/E/N
     1     1                                                WAVELENGTH FACT L1/2
     8    C1    L1    D1    S1    C2    L2    D2    S2      # / TYPES OF OBSERV 
  2021     4    24    15    12   14.9930000     GPS         TIME OF FIRST OBS   
  2021     4    24    15    33   33.9930000     GPS         TIME OF LAST OBS    
                                                            END OF HEADER       
 21  4 24 15 12 14.9930000  0  9G 4G 7G 8G 9G16G26G27G30G21
  21483166.765   112894790.526       -4083.157          40.000    21483163.792  
  87969965.911       -3181.814          41.000  
  18807333.832    98833194.763        1344.000          45.000    18807327.800  
  77012868.392        1047.412          43.000  
  18175857.685    95514756.872         391.853          49.000    18175853.557  
  74427079.208         305.361          44.000  
  20002835.664   105115610.248       -2940.574          42.000    20002831.846  
  81908258.907       -2291.379          45.000  
  21050218.278   110619632.310       -3499.887          44.000                  
                                                
  23188242.750   121855032.715       -3557.469          39.000    23188242.266  
  94951983.897       -2772.405          40.000  
  18770121.379    98637644.648       -2153.998          47.000    18770117.045  
  76860495.222       -1678.479          47.000  
  21561805.901   113308043.283        2765.397          43.000    21561800.972  
  88291972.162        2154.610          36.000  
  21919397.465   115187208.221        2647.726          34.000                  
                                                
 21  4 24 15 12 15.9930000  0  9G 4G 7G 8G 9G16G26G27G30G21
  21483943.918   112898873.775       -4083.368          40.000    21483940.819  
  87973147.649       -3182.003          41.000  
  18807078.135    98831850.917        1343.658          45.000    18807072.020  
  77011821.244        1046.948          43.000  
  18175783.217    95514365.339         391.098          49.000    18175779.111  
  74426774.128         304.647          44.000  
  20003395.216   105118551.112       -2941.203          42.000    20003391.445  
  81910550.474       -2291.688          45.000  
  21050884.309   110623132.287       -3500.125          44.000                  
                                                
  23188919.733   121858590.281       -3557.637          39.000    23188919.098  
  94954756.007       -2771.994          40.000  
  18770531.371    98639798.972       -2154.669          47.000    18770526.929  
  76862173.911       -1678.900          47.000  
  21561279.752   113305277.970        2765.294          43.000    21561274.750  
  88289817.375        2154.428          36.000  
  21918893.459   115184560.127        2647.796          34.000                  
                                                
 21  4 24 15 12 16.9930000  0  9G 4G 7G 8G 9G16G26G27G30G21
  21484721.056   112902957.125       -4083.506          40.000    21484718.026  
  87976329.467       -3181.801          41.000  
  18806822.489    98830507.410        1343.378          45.000    18806816.294  
  77010774.348        1046.667          43.000  
  18175708.976    95513974.428         390.582          49.000    18175704.729  
  74426469.508         304.389          44.000  
  20003954.919   105121492.392       -2941.352          42.000    20003951.083  
  81912842.390       -2292.172          45.000  
  21051550.407   110626632.312       -3500.077          44.000                  
                                                
  23189596.655   121862147.771       -3557.033          39.000    23189595.975  
  94957528.102       -2772.247          40.000  
  18770941.563    98641953.860       -2155.255          47.000    18770936.885  
  76863853.042       -1679.340          47.000  
  21560753.746   113302512.741        2765.189          42.000    21560748.537  
  88287662.626        2154.754          37.000  
  21918389.444   115181912.071        2648.306          34.000                  
                                                
 21  4 24 15 12 17.9930000  0  9G 4G 7G 8G 9G16G26G27G30G21
  21485498.205   112907040.409       -4083.725          40.000    21485495.037  
  87979511.232       -3182.010          41.000  
  18806566.765    98829164.053        1342.987          45.000    18806560.561  
  77009727.565        1046.631          43.000  
  18175634.718    95513583.945         389.985          49.000    18175630.451  
  74426165.239         303.764          44.000  
  20004514.689   105124433.918       -2941.793          42.000    20004510.864  
  81915134.482       -2292.238          45.000  
  21052216.409   110630132.192       -3499.952          44.000                  
                                                
  23190273.600   121865705.078       -3557.915          39.000    23190272.946  
  94960300.003       -2772.421          39.000  
  18771351.642    98644109.126       -2155.701          47.000    18771346.951  
  76865532.471       -1679.797          47.000  
  21560227.548   113299747.413        2764.801          43.000    21560222.400  
  88285507.818        2154.755          37.000  
  21917885.440   115179263.956        2647.675          34.000                  
                                                
 21  4 24 15 12 18.9930000  0  9G 4G 7G 8G 9G16G26G27G30G21
  21486275.396   112911123.828       -4083.146          40.000    21486272.082  
  87982693.136       -3181.891          41.000  
  18806311.174    98827821.071        1343.042          44.000    18806305.051  
  77008681.098        1046.521          43.000  
  18175560.576    95513194.147         389.729          49.000    18175556.280  
  74425861.508         303.527          44.000  
  20005074.473   105127375.945       -2942.333          41.000    20005070.806  
  81917426.964       -2292.546          45.000  
  21052882.411   110633632.198       -3499.783          44.000                  
                                                
  23190950.417   121869262.320       -3556.683          39.000    23190949.867  
  94963071.874       -2771.549          40.000  
  18771761.918    98646265.012       -2156.018          47.000    18771757.197  
  76867212.378       -1679.968          47.000  
  21559701.508   113296982.195        2765.487          43.000    21559696.226  
  88283353.101        2154.951          37.000  
  21917381.671   115176615.889        2648.118          34.000                  
                                                
 21  4 24 15 12 19.9930000  0  9G 4G 7G 8G 9G16G26G27G30G21
  21487052.618   112915207.444       -4083.513          40.000    21487049.109  
  87985875.177       -3182.104          41.000  
  18806055.691    98826478.500        1342.303          44.000    18806049.564  
  77007634.941        1045.978          43.000  
  18175486.519    95512805.040         388.831          49.000    18175482.165  
  74425558.293         302.941          44.000  
  20005634.363   105130318.455       -2942.743          41.000    20005630.732  
  81919719.828       -2293.167          45.000  
  21053548.516   110637132.326       -3500.263          44.000                  
                                                
  23191627.400   121872819.617       -3557.225          39.000    23191626.773  
  94965843.797       -2771.825          39.000  
  18772172.303    98648421.537       -2156.824          47.000    18772167.554  
  76868892.790       -1680.670          47.000  
  21559175.557   113294217.132        2765.040          43.000    21559170.104  
  88281198.518        2154.449          37.000  
  21916877.877   115173967.951        2647.485          34.000                  
                                                
 21  4 24 15 12 20.9930000  0  9G 4G 7G 8G 9G16G26G27G30G21
  21487829.834   112919291.346       -4083.892          40.000    21487826.361  
  87989057.425       -3182.362          41.000  
  18805800.352    98825136.423        1341.693          44.000    18805794.229  
  77006589.163        1045.605          43.000  
  18175412.767    95512416.728         387.756          49.000    18175408.203  
  74425255.718         302.188          44.000  
  20006194.476   105133261.560       -2943.331          41.000    20006190.861  
  81922013.161       -2293.612          45.000  
  21054214.679   110640632.680       -3500.502          44.000                  
                                                
  23192304.354   121876377.016       -3557.557          38.000    23192303.681  
  94968615.790       -2772.025          39.000  
  18772582.810    98650578.793       -2157.831          47.000    18772578.169  
  76870573.764       -1681.244          47.000  
  21558649.511   113291452.289        2764.880          43.000    21558643.998  
  88279044.089        2154.331          37.000  
  21916374.054   115171320.215        2647.934          34.000                  
                                                
 21  4 24 15 12 21.9930000  0  9G 4G 7G 8G 9G16G26G27G30G21
  21488607.020   112923375.528       -4084.400          40.000    21488603.504  
  87992239.899       -3182.765          41.000  
  18805544.976    98823794.842        1341.437          44.000    18805538.878  
  77005543.776        1045.337          43.000  
  18175338.994    95512029.186         387.051          49.000    18175334.435  
  74424953.736         301.684          44.000  
  20006754.660   105136205.257       -2943.951          41.000    20006751.017  
  81924306.940       -2293.972          45.000  
  21054880.862   110644133.228       -3500.622          44.000                  
                                                
  23192981.319   121879934.544       -3557.875          39.000    23192980.651  
  94971387.889       -2772.408          39.000  
  18772993.544    98652736.769       -2158.252          47.000    18772988.882  
  76872255.312       -1681.744          47.000  
  21558123.599   113288687.710        2764.483          43.000    21558117.890  
  88276889.860        2154.372          37.000  
  21915870.295   115168672.730        2647.337          34.000                  
                                                
 21  4 24 15 12 22.9930000  0  9G 4G 7G 8G 9G16G26G27G30G21
  21489384.456   112927460.047       -4084.564          40.000    21489380.779  
  87995422.639       -3182.856          41.000  
  18805289.798    98822453.850        1340.863          44.000    18805283.701  
  77004498.848        1044.885          43.000  
  18175265.488    95511642.511         386.271          49.000    18175260.831  
  74424652.431         301.056          44.000  
  20007315.019   105139149.651       -2944.724          42.000    20007311.350  
  81926601.272       -2294.631          45.000  
  21055547.008   110647634.091       -3500.809          44.000                  
                                                
  23193658.376   121883492.236       -3557.608          39.000    23193657.568  
  94974160.124       -2772.514          39.000  
  18773404.449    98654895.583       -2159.137          47.000    18773399.680  
  76873937.508       -1682.544          47.000  
  21557597.633   113285923.432        2764.240          43.000    21557591.814  
  88274735.897        2154.128          37.000  
  21915366.645   115166025.512        2647.280          34.000                  
                                                
 21  4 24 15 12 23.9930000  0  9G 4G 7G 8G 9G16G26G27G30G21
  21490161.875   112931544.742       -4084.793          40.000    21490158.010  
  87998605.502       -3182.821          41.000  
  18805034.803    98821113.251        1340.588          44.000    18805028.620  
  77003454.222        1044.641          43.000  
  18175191.972    95511256.512         385.893          49.000    18175187.361  
  74424351.657         300.607          44.000  
  20007875.376   105142094.512       -2945.061          42.000    20007871.709  
  81928895.961       -2294.867          45.000  
  21056213.171   110651135.072       -3501.026          44.000                  
                                                
  23194335.493   121887049.959       -3557.768          38.000    23194334.556  
  94976932.356       -2772.276          39.000  
  18773815.335    98657055.003       -2159.711          47.000    18773810.476  
  76875620.170       -1682.812          47.000  
  21557071.734   113283159.304        2764.066          43.000    21557065.869  
  88272582.023        2153.918          37.000  
  21914862.925   115163378.398        2646.961          34.000                  
                                                
 21  4 24 15 12 24.9930000  0  9G 4G 7G 8G 9G16G26G27G30G21
  21490939.223   112935629.622       -4084.781          40.000    21490935.340  
  88001788.535       -3183.123          41.000  
  18804779.820    98819773.068        1339.801          44.000    18804773.425  
  77002409.924        1043.988          43.000  
  18175118.576    95510871.224         384.851          49.000    18175114.007  
  74424051.421         299.957          44.000  
  20008435.873   105145039.881       -2945.806          42.000    20008432.269  
  81931191.056       -2295.249          45.000  
  21056879.489   110654636.179       -3501.225          44.000                  
                                                
  23195012.511   121890607.687       -3557.825          38.000    23195011.469  
  94979704.615       -2772.262          39.000  
  18774226.348    98659215.071       -2160.455          47.000    18774221.466  
  76877303.343       -1683.466          47.000  
  21556545.703   113280395.311        2763.794          43.000    21556539.917  
  88270428.254        2154.021          37.000  
  21914359.101   115160731.406        2647.206          34.000                  
                                                
 21  4 24 15 12 25.9930000  0  9G 4G 7G 8G 9G16G26G27G30G21
  21491716.726   112939715.004       -4085.480          40.000    21491712.688  
  88004971.931       -3183.423          41.000  
  18804524.995    98818433.596        1339.191          44.000    18804518.512  
  77001366.190        1043.414          43.000  
  18175045.429    95510486.932         383.830          49.000    18175040.915  
  74423751.973         299.343          44.000  
  20008996.510   105147986.053       -2946.491          42.000    20008992.954  
  81933486.770       -2295.914          45.000  
  21057545.751   110658137.720       -3501.753          44.000                  
                                                
  23195689.685   121894165.757       -3558.088          38.000    23195688.467  
  94982477.138       -2772.375          39.000  
  18774637.601    98661376.086       -2161.346          48.000    18774632.749  
  76878987.248       -1684.082          47.000  
  21556019.871   113277631.767        2763.334          43.000    21556013.933  
  88268274.877        2153.112          37.000  
  21913855.280   115158084.853        2646.948          34.000                  
                                                
 21  4 24 15 12 26.9930000  0  9G 4G 7G 8G 9G16G26G27G30G21
  21492494.227   112943800.733       -4085.574          40.000    21492490.154  
  88008155.620       -3183.506          41.000  
  18804270.344    98817094.702        1338.940          44.000    18804263.782  
  77000322.901        1043.091          43.000  
  18174972.482    95510103.521         383.199          48.000    18174967.996  
  74423453.227         298.441          44.000  
  20009557.297   105150932.903       -2946.778          42.000    20009553.800  
  81935783.023       -2296.151          45.000  
  21058212.112   110661639.550       -3501.705          44.000                  
                                                
  23196366.918   121897724.022       -3558.012          38.000    23196365.672  
  94985249.811       -2772.589          39.000  
  18775049.025    98663537.920       -2162.048          48.000    18775044.140  
  76880671.796       -1684.753          47.000  
  21555494.111   113274868.565        2763.035          43.000    21555488.134  
  88266121.716        2153.013          38.000  
  21913351.562   115155438.604        2646.376          34.000                  
                                                
 21  4 24 15 12 27.9930000  0  9G 4G 7G 8G 9G16G26G27G30G21
  21493271.761   112947886.792       -4086.472          40.000    21493267.701  
  88011339.568       -3184.286          40.000  
  18804015.630    98815756.373        1337.976          44.000    18804009.086  
  76999280.034        1042.505          43.000  
  18174899.649    95509720.955         381.959          48.000    18174895.124  
  74423155.113         297.697          44.000  
  20010118.167   105153880.411       -2948.034          42.000    20010114.662  
  81938079.795       -2297.398          45.000  
  21058878.554   110665141.662       -3502.495          44.000                  
                                                
  23197044.223   121901282.453       -3558.784          38.000    23197042.755  
  94988022.602       -2772.883          39.000  
  18775460.620    98665700.536       -2163.269          48.000    18775455.689  
  76882356.952       -1685.687          47.000  
  21554968.383   113272105.645        2762.572          43.000    21554962.371  
  88263968.775        2152.739          38.000  
  21912848.134   115152792.634        2645.778          34.000                  
                                                
 21  4 24 15 12 28.9930000  0  9G 4G 7G 8G 9G16G26G27G30G21
  21494049.451   112951973.327       -4086.615          40.000    21494045.320  
  88014523.856       -3184.177          40.000  
  18803761.161    98814418.725        1337.427          45.000    18803754.541  
  76998237.719        1042.188          43.000  
  18174827.064    95509339.381         381.189          48.000    18174822.480  
  74422857.776         296.883          44.000  
  20010679.175   105156828.697       -2948.549          42.000    20010675.664  
  81940377.145       -2297.338          45.000  
  21059545.125   110668644.171       -3502.617          44.000                  
                                                
  23197721.582   121904841.199       -3559.078          38.000    23197719.952  
  94990795.650       -2773.150          39.000  
  18775872.287    98667864.061       -2163.672          48.000    18775867.424  
  76884042.827       -1686.169          48.000  
  21554442.751   113269343.165        2762.262          43.000    21554436.676  
  88261816.180        2153.039          38.000  
  21912344.675   115150147.055        2645.836          34.000                  
                                                
 21  4 24 15 12 29.9930000  0  9G 4G 7G 8G 9G16G26G27G30G21
  21494827.216   112956060.183       -4086.842          40.000    21494822.945  
  88017708.426       -3184.547          40.000  
  18803506.705    98813081.634        1337.079          45.000    18803500.110  
  76997195.835        1041.748          43.000  
  18174754.636    95508958.636         380.436          48.000    18174749.983  
  74422561.080         296.608          44.000  
  20011240.441   105159777.641       -2949.010          42.000    20011236.860  
  81942675.040       -2298.049          45.000  
  21060211.647   110672146.969       -3502.876          44.000                  
                                                
  23198398.872   121908400.103       -3558.919          39.000    23198397.164  
  94993568.826       -2773.235          39.000  
  18776284.119    98670028.399       -2164.545          48.000    18776279.246  
  76885729.307       -1686.523          48.000  
  21553917.220   113266580.971        2762.219          43.000    21553911.066  
  88259663.846        2152.294          37.000  
  21911841.425   115147501.782        2644.979          35.000                  
                                                
 21  4 24 15 12 30.9930000  0  9G 4G 7G 8G 9G16G26G27G30G21
  21495605.024   112960147.251       -4087.354          40.000    21495600.683  
  88020893.124       -3184.519          40.000  
  18803252.406    98811744.957        1336.432          45.000    18803245.810  
  76996154.267        1041.406          43.000  
  18174682.253    95508578.571         379.674          48.000    18174677.753  
  74422264.929         295.791          44.000  
  20011801.697   105162727.105       -2949.937          42.000    20011798.117  
  81944973.301       -2298.619          45.000  
  21060878.182   110675649.886       -3503.054          43.000                  
                                                
  23199076.137   121911959.027       -3559.079          39.000    23199074.467  
  94996342.004       -2773.270          39.000  
  18776696.131    98672193.375       -2165.308          48.000    18776691.249  
  76887416.318       -1687.354          47.000  
  21553391.638   113263818.945        2761.947          43.000    21553385.369  
  88257511.611        2152.000          37.000  
  21911338.001   115144856.628        2644.436          35.000                  
                                                
 21  4 24 15 12 31.9930000  0  9G 4G 7G 8G 9G16G26G27G30G21
  21496382.833   112964234.589       -4087.679          39.000    21496378.566  
  88024078.098       -3185.398          40.000  
  18802998.151    98810408.792        1335.730          45.000    18802991.554  
  76995113.107        1041.077          43.000  
  18174610.186    95508199.336         378.744          49.000    18174605.565  
  74421969.443         295.154          44.000  
  20012363.066   105165677.163       -2950.471          42.000    20012359.521  
  81947272.047       -2299.135          45.000  
  21061544.723   110679153.035       -3503.435          43.000                  
                                                
  23199753.576   121915518.080       -3558.981          39.000    23199751.718  
  94999115.312       -2773.544          39.000  
  18777108.224    98674359.106       -2166.241          48.000    18777103.446  
  76889103.893       -1687.964          47.000  
  21552866.146   113261057.180        2761.399          43.000    21552859.919  
  88255359.586        2151.683          38.000  
  21910834.709   115142211.641        2645.165          35.000                  
                                                
 21  4 24 15 12 32.9930000  0  9G 4G 7G 8G 9G16G26G27G30G21
  21497160.772   112968322.126       -4087.542          39.000    21497156.437  
  88027263.180       -3185.238          40.000  
  18802744.070    98809073.081        1335.272          45.000    18802737.314  
  76994072.282        1040.503          43.000  
  18174538.112    95507820.824         377.985          48.000    18174533.461  
  74421674.494         294.439          44.000  
  20012924.499   105168627.764       -2951.172          42.000    20012921.024  
  81949571.208       -2299.479          45.000  
  21062211.328   110682656.356       -3503.576          43.000                  
                                                
  23200430.960   121919077.192       -3559.264          39.000    23200429.006  
  95001888.632       -2773.373          39.000  
  18777520.383    98676525.493       -2166.907          48.000    18777515.747  
  76890791.996       -1688.501          47.000  
  21552340.699   113258295.560        2761.393          43.000    21552334.283  
  88253207.679        2151.715          37.000  
  21910331.440   115139566.866        2644.270          35.000                  
                                                
 21  4 24 15 12 33.9930000  0  9G 4G 7G 8G 9G16G26G27G30G21
  21497938.715   112972409.699       -4087.525          39.000    21497934.299  
  88030448.302       -3185.362          40.000  
  18802489.985    98807737.597        1335.449          45.000    18802483.150  
  76993031.652        1040.521          43.000  
  18174466.065    95507442.848         377.855          48.000    18174461.447  
  74421379.958         294.477          44.000  
  20013485.985   105171578.679       -2950.869          42.000    20013482.613  
  81951870.631       -2299.531          45.000  
  21062877.913   110686159.637       -3503.256          44.000                  
                                                
  23201108.361   121922636.150       -3558.713          39.000    23201106.243  
  95004661.856       -2773.180          39.000  
  18777932.826    98678692.346       -2166.858          48.000    18777928.180  
  76892480.464       -1688.733          47.000  
  21551815.202   113255533.943        2761.724          43.000    21551808.803  
  88251055.776        2152.281          37.000  
  21909828.008   115136921.989        2645.338          35.000                  
                                                
 21  4 24 15 12 34.9930000  0  9G 4G 7G 8G 9G16G26G27G30G21
  21498716.601   112976497.456       -4087.872          39.000    21498712.092  
  88033633.563       -3185.314          40.000  
  18802236.069    98806402.540        1334.741          45.000    18802229.019  
  76991991.339        1040.308          43.000  
  18174394.322    95507065.570         376.911          49.000    18174389.641  
  74421085.980         293.750          44.000  
  20014047.646   105174530.116       -2951.897          42.000    20014044.215  
  81954170.448       -2300.195          45.000  
  21063544.541   110689663.045       -3503.771          44.000                  
                                                
  23201785.689   121926195.167       -3559.135          39.000    23201783.512  
  95007435.085       -2773.188          39.000  
  18778345.361    98680859.860       -2167.908          48.000    18778340.752  
  76894169.431       -1689.349          47.000  
  21551289.701   113252772.482        2761.341          43.000    21551283.301  
  88248903.973        2151.757          37.000  
  21909324.687   115134277.320        2644.410          34.000                  
                                                
 21  4 24 15 12 35.9930000  0  9G 4G 7G 8G 9G16G26G27G30G21
  21499494.655   112980585.666       -4088.613          39.000    21499490.071  
  88036819.168       -3185.947          40.000  
  18801982.029    98805068.128        1334.076          45.000    18801974.921  
  76990951.547        1039.545          43.000  
  18174322.671    95506689.243         375.889          49.000    18174317.947  
  74420792.739         292.888          44.000  
  20014609.385   105177482.292       -2952.808          42.000    20014606.026  
  81956470.847       -2300.645          45.000  
  21064211.355   110693166.821       -3504.006          44.000                  
                                                
  23202463.049   121929754.410       -3559.322          39.000    23202460.814  
  95010208.543       -2773.615          39.000  
  18778757.892    98683028.251       -2168.921          48.000    18778753.401  
  76895859.081       -1689.978          47.000  
  21550764.258   113250011.419        2760.801          43.000    21550757.983  
  88246752.519        2151.188          38.000  
  21908821.542   115131632.989        2644.105          34.000                  
                                                
 21  4 24 15 12 36.9930000  0  9G 4G 7G 8G 9G16G26G27G30G21
  21500272.731   112984674.080       -4088.907          39.000    21500268.105  
  88040004.937       -3185.871          40.000  
  18801728.221    98803734.180        1333.423          45.000    18801721.119  
  76989912.115        1039.075          43.000  
  18174251.233    95506313.682         374.820          49.000    18174246.419  
  74420500.084         292.219          44.000  
  20015171.221   105180435.045       -2953.354          42.000    20015167.945  
  81958771.694       -2301.316          45.000  
  21064878.047   110696670.791       -3504.389          44.000                  
                                                
  23203140.500   121933313.769       -3559.842          39.000    23203138.266  
  95012982.078       -2774.051          39.000  
  18779170.745    98685197.341       -2169.690          48.000    18779166.236  
  76897549.287       -1690.686          47.000  
  21550239.059   113247250.549        2760.550          43.000    21550232.624  
  88244601.216        2150.926          38.000  
  21908318.240   115128988.824        2643.719          34.000                  
                                                
 21  4 24 15 12 37.9930000  0  9G 4G 7G 8G 9G16G26G27G30G21
  21501050.752   112988762.858       -4088.731          39.000    21501046.221  
  88043190.996       -3185.824          40.000  
  18801474.490    98802400.808        1333.252          45.000    18801467.304  
  76988873.126        1038.837          43.000  
  18174179.841    95505938.982         374.445          49.000    18174175.129  
  74420208.114         291.866          44.000  
  20015733.222   105183388.457       -2953.597          42.000    20015729.970  
  81961073.033       -2301.372          45.000  
  21065544.955   110700175.033       -3504.117          44.000                  
                                                
  23203817.893   121936873.289       -3559.234          39.000    23203815.579  
  95015755.705       -2773.621          39.000  
  18779583.562    98687367.223       -2170.099          48.000    18779579.039  
  76899240.111       -1690.985          47.000  
  21549713.622   113244489.993        2760.534          43.000    21549707.365  
  88242450.120        2151.037          38.000  
  21907815.018   115126344.947        2644.408          34.000                  
                                                
 21  4 24 15 12 38.9930000  0  9G 4G 7G 8G 9G16G26G27G30G21
  21501828.844   112992851.703       -4089.033          39.000    21501824.329  
  88046377.096       -3186.060          40.000  
  18801220.760    98801067.726        1332.941          45.000    18801213.619  
  76987834.361        1038.672          43.000  
  18174108.717    95505564.867         373.765          49.000    18174103.898  
  74419916.588         291.339          44.000  
  20016295.358   105186342.241       -2954.011          42.000    20016292.020  
  81963374.700       -2301.745          45.000  
  21066211.822   110703679.292       -3504.203          44.000                  
                                                
  23204495.223   121940432.719       -3559.367          38.000    23204492.927  
  95018529.276       -2773.434          39.000  
  18779996.588    98689537.643       -2170.630          48.000    18779992.043  
  76900931.339       -1691.473          47.000  
  21549188.383   113241729.477        2760.763          43.000    21549182.113  
  88240299.071        2151.105          37.000  
  21907311.777   115123701.111        2644.065          34.000                  
                                                
 21  4 24 15 12 39.9930000  0  9G 4G 7G 8G 9G16G26G27G30G21
  21502607.032   112996940.866       -4089.602          39.000    21502602.472  
  88049563.448       -3186.463          40.000  
  18800967.199    98799735.203        1332.050          45.000    18800959.940  
  76986796.042        1037.543          43.000  
  18174037.663    95505191.586         372.743          49.000    18174032.896  
  74419625.724         290.344          44.000  
  20016857.516   105189296.670       -2954.927          42.000    20016854.215  
  81965676.855       -2302.611          46.000  
  21066878.680   110707183.829       -3504.795          44.000                  
                                                
  23205172.698   121943992.319       -3560.059          38.000    23205170.377  
  95021302.997       -2774.024          39.000  
  18780409.804    98691708.845       -2171.863          48.000    18780405.222  
  76902623.185       -1692.310          47.000  
  21548663.139   113238969.265        2759.732          43.000    21548656.864  
  88238148.255        2150.270          38.000  
  21906808.616   115121057.563        2642.763          34.000                  
                                                
 21  4 24 15 12 40.9930000  0  9G 4G 7G 8G 9G16G26G27G30G21
  21503385.198   113001030.250       -4089.595          39.000    21503380.646  
  88052749.986       -3186.617          40.000  
  18800713.746    98798403.124        1331.964          45.000    18800706.510  
  76985758.045        1037.982          43.000  
  18173966.741    95504819.051         372.209          49.000    18173962.026  
  74419335.433         290.000          44.000  
  20017419.811   105192251.661       -2955.282          42.000    20017416.542  
  81967979.437       -2302.669          46.000  
  21067545.736   110710688.528       -3504.667          44.000                  
                                                
  23205850.023   121947551.972       -3559.723          38.000    23205847.811  
  95024076.744       -2773.444          39.000  
  18780823.035    98693880.711       -2172.107          48.000    18780818.457  
  76904315.549       -1692.517          47.000  
  21548137.956   113236209.219        2760.152          43.000    21548131.709  
  88235997.557        2150.801          37.000  
  21906305.454   115118414.097        2643.803          34.000                  
                                                
 21  4 24 15 12 41.9930000  0  9G 4G 7G 8G 9G16G26G27G30G21
  21504163.368   113005119.918       -4090.200          39.000    21504158.826  
  88055936.741       -3187.019          40.000  
  18800460.258    98797071.551        1330.981          45.000    18800453.245  
  76984720.461        1037.268          43.000  
  18173895.963    95504447.294         371.221          49.000    18173891.223  
  74419045.759         288.932          44.000  
  20017982.229   105195207.233       -2956.094          42.000    20017978.978  
  81970282.482       -2303.323          45.000  
  21068212.800   110714193.438       -3505.239          44.000                  
                                                
  23206527.549   121951111.729       -3560.317          38.000    23206525.211  
  95026850.599       -2774.459          39.000  
  18781236.457    98696053.311       -2173.114          48.000    18781232.009  
  76906008.485       -1693.445          47.000  
  21547612.823   113233449.428        2759.286          43.000    21547606.553  
  88233847.070        2150.832          37.000  
  21905802.419   115115770.906        2642.885          33.000                  
                                                
 21  4 24 15 12 42.9930000  0  9G 4G 7G 8G 9G16G26G27G30G21
  21504941.728   113009209.987       -4090.403          39.000    21504937.224  
  88059123.809       -3187.035          40.000  
  18800207.009    98795740.618        1330.798          45.000    18800200.090  
  76983683.375        1036.841          43.000  
  18173825.428    95504076.488         370.382          49.000    18173820.601  
  74418756.816         288.602          44.000  
  20018544.903   105198163.536       -2956.530          42.000    20018541.624  
  81972586.094       -2303.846          45.000  
  21068879.883   110717698.724       -3505.516          44.000                  
                                                
  23207205.014   121954671.752       -3560.013          38.000    23207202.771  
  95029624.647       -2774.400          39.000  
  18781650.026    98698226.804       -2173.914          48.000    18781645.587  
  76907702.112       -1693.939          47.000  
  21547087.672   113230690.019        2759.257          43.000    21547081.514  
  88231696.906        2149.795          37.000  
  21905299.394   115113128.068        2642.698          33.000                  
                                                
 21  4 24 15 12 43.9930000  0  9G 4G 7G 8G 9G16G26G27G30G21
  21505720.105   113013300.418       -4090.473          39.000    21505715.672  
  88062311.163       -3187.396          40.000  
  18799953.841    98794410.268        1330.334          45.000    18799946.933  
  76982646.735        1036.603          43.000  
  18173755.018    95503706.548         369.733          49.000    18173750.085  
  74418468.548         287.998          44.000  
  20019107.630   105201120.518       -2957.144          42.000    20019104.235  
  81974890.243       -2304.308          45.000  
  21069546.959   110721204.297       -3505.566          44.000                  
                                                
  23207882.574   121958231.984       -3560.075          38.000    23207880.210  
  95032398.822       -2774.045          39.000  
  18782063.802    98700401.092       -2174.469          48.000    18782059.265  
  76909396.360       -1694.421          47.000  
  21546562.497   113227930.938        2759.070          43.000    21546556.561  
  88229546.963        2149.829          37.000  
  21904796.422   115110485.517        2642.454          33.000                  
                                                
 21  4 24 15 12 44.9930000  0  9G 4G 7G 8G 9G16G26G27G30G21
  21506498.559   113017391.018       -4090.562          39.000    21506494.167  
  88065498.639       -3187.444          40.000  
  18799700.673    98793080.313        1329.883          45.000    18799693.818  
  76981610.405        1036.298          43.000  
  18173684.768    95503337.300         368.951          49.000    18173679.816  
  74418180.812         287.592          44.000  
  20019670.532   105204077.995       -2957.744          42.000    20019666.997  
  81977194.762       -2304.707          45.000  
  21070214.151   110724709.982       -3505.701          45.000                  
                                                
  23208560.182   121961792.194       -3559.875          38.000    23208557.732  
  95035173.024       -2774.108          39.000  
  18782477.665    98702576.021       -2175.256          48.000    18782473.056  
  76911091.103       -1694.910          47.000  
  21546037.575   113225171.976        2758.831          43.000    21546031.582  
  88227397.126        2149.966          37.000  
  21904293.514   115107843.121        2641.664          32.000                  
                                                
 21  4 24 15 12 45.9930000  0  9G 4G 7G 8G 9G16G26G27G30G21
  21507277.120   113021481.727       -4090.723          39.000    21507272.607  
  88068686.213       -3187.796          40.000  
  18799447.607    98791750.713        1329.333          44.000    18799440.825  
  76980574.353        1035.913          43.000  
  18173614.603    95502968.689         368.278          49.000    18173609.676  
  74417893.590         287.006          44.000  
  20020233.351   105207035.898       -2958.287          42.000    20020229.791  
  81979499.622       -2304.980          45.000  
  21070881.308   110728215.729       -3505.808          45.000                  
                                                
  23209237.685   121965352.405       -3560.315          38.000    23209235.254  
  95037947.201       -2774.157          39.000  
  18782891.662    98704751.516       -2175.781          48.000    18782886.966  
  76912786.296       -1695.398          47.000  
  21545512.636   113222413.130        2758.573          43.000    21545506.667  
  88225247.361        2149.769          37.000  
  21903790.651   115105200.719        2642.284          32.000                  
                                                
 21  4 24 15 12 46.9930000  0  9G 4G 7G 8G 9G16G26G27G30G21
  21508055.538   113025572.575       -4090.740          39.000    21508051.053  
  88071873.883       -3187.615          40.000  
  18799194.673    98790421.467        1328.998          44.000    18799187.962  
  76979538.572        1035.724          43.000  
  18173544.508    95502600.739         367.632          49.000    18173539.682  
  74417606.870         286.568          43.000  
  20020796.367   105209994.250       -2958.541          42.000    20020792.790  
  81981804.835       -2305.366          45.000  
  21071548.430   110731721.563       -3505.804          45.000                  
                                                
  23209915.225   121968912.550       -3560.165          38.000    23209912.676  
  95040721.348       -2774.301          39.000  
  18783305.817    98706927.597       -2176.251          48.000    18783301.082  
  76914481.944       -1695.831          47.000  
  21544987.564   113219654.342        2758.900          43.000    21544981.744  
  88223097.669        2149.819          37.000  
  21903287.797   115102558.429        2642.667          32.000                  
                                                
 21  4 24 15 12 47.9930000  0  9G 4G 7G 8G 9G16G26G27G30G21
  21508834.042   113029663.532       -4090.925          39.000    21508829.551  
  88075061.640       -3187.813          40.000  
  18798941.732    98789092.544        1328.888          44.000    18798935.038  
  76978503.057        1035.388          43.000  
  18173474.612    95502233.373         367.094          49.000    18173469.836  
  74417320.612         286.045          44.000  
  20021359.360   105212953.022       -2958.832          42.000    20021355.666  
  81984110.370       -2305.559          45.000  
  21072215.683   110735227.445       -3506.047          45.000                  
                                                
  23210592.780   121972472.662       -3560.249          38.000    23210590.163  
  95043495.425       -2773.650          39.000  
  18783720.042    98709104.234       -2176.886          48.000    18783715.301  
  76916178.019       -1696.259          47.000  
  21544462.668   113216895.645        2758.788          43.000    21544456.804  
  88220948.049        2149.243          37.000  
  21902784.957   115099916.240        2641.223          32.000                  
                                                
 21  4 24 15 12 48.9930000  0  9G 4G 7G 8G 9G16G26G27G30G21
  21509612.519   113033754.604       -4091.150          39.000    21509608.023  
  88078249.487       -3187.786          40.000  
  18798688.888    98787763.988        1328.369          44.000    18798682.306  
  76977467.804        1035.236          43.000  
  18173404.859    95501866.631         366.440          48.000    18173399.986  
  74417034.842         285.438          44.000  
  20021922.532   105215912.252       -2959.419          43.000    20021918.834  
  81986416.262       -2305.995          45.000  
  21072882.797   110738733.391       -3506.131          45.000                  
                                                
  23211270.294   121976032.718       -3560.094          38.000    23211267.582  
  95046269.515       -2774.295          39.000  
  18784134.404    98711281.449       -2177.478          48.000    18784129.617  
  76917874.550       -1696.668          47.000  
  21543937.755   113214137.042        2758.630          43.000    21543931.920  
  88218798.489        2149.499          37.000  
  21902281.965   115097274.031        2641.533          32.000                  
                                                
 21  4 24 15 12 49.9930000  0  9G 4G 7G 8G 9G16G26G27G30G21
  21510391.082   113037845.894       -4091.388          40.000    21510386.648  
  88081437.529       -3188.566          40.000  
  18798436.164    98786435.876        1327.753          44.000    18798429.535  
  76976432.913        1034.735          43.000  
  18173335.250    95501500.650         365.414          48.000    18173330.318  
  74416749.658         284.763          44.000  
  20022485.872   105218872.034       -2960.251          43.000    20022482.085  
  81988722.574       -2306.647          45.000  
  21073550.031   110742239.497       -3506.335          45.000                  
                                                
  23211947.891   121979592.835       -3559.812          38.000    23211945.040  
  95049043.628       -2773.949          39.000  
  18784548.875    98713459.354       -2178.271          48.000    18784544.049  
  76919571.617       -1697.437          47.000  
  21543412.749   113211378.638        2758.214          43.000    21543406.996  
  88216649.065        2149.266          37.000  
  21901779.107   115094632.037        2641.410          32.000                  
                                                
 21  4 24 15 12 50.9930000  0  9G 4G 7G 8G 9G16G26G27G30G21
  21511169.636   113041937.304       -4091.733          40.000    21511165.189  
  88084625.598       -3187.853          40.000  
  18798183.476    98785108.092        1327.496          44.000    18798176.815  
  76975398.278        1034.479          43.000  
  18173265.776    95501135.267         365.021          48.000    18173260.687  
  74416464.937         284.582          44.000  
  20023049.292   105221832.208       -2960.658          43.000    20023045.388  
  81991029.201       -2306.872          45.000  
  21074217.297   110745745.636       -3506.274          45.000                  
                                                
  23212625.349   121983152.907       -3560.065          38.000    23212622.545  
  95051817.701       -2774.046          39.000  
  18784963.353    98715637.805       -2178.955          48.000    18784958.616  
  76921269.112       -1697.827          47.000  
  21542887.762   113208620.283        2758.219          43.000    21542882.118  
  88214499.721        2148.906          37.000  
  21901276.321   115091990.093        2641.224          32.000                  
                                                
 21  4 24 15 12 51.9930000  0  9G 4G 7G 8G 9G16G26G27G30G21
  21511948.283   113046028.912       -4091.613          40.000    21511943.828  
  88087813.876       -3188.319          40.000  
  18797930.940    98783780.771        1327.142          44.000    18797924.300  
  76974363.999        1034.082          43.000  
  18173196.420    95500770.637         364.312          48.000    18173191.376  
  74416180.814         283.678          44.000  
  20023612.695   105224792.944       -2961.261          43.000    20023608.786  
  81993336.257       -2307.144          45.000  
  21074884.526   110749251.960       -3506.340          44.000                  
                                                
  23213302.818   121986713.034       -3560.242          38.000    23213300.106  
  95054591.833       -2774.184          39.000  
  18785378.022    98717816.935       -2179.297          48.000    18785373.274  
  76922967.134       -1698.199          47.000  
  21542362.818   113205862.121        2758.315          43.000    21542357.301  
  88212350.497        2149.323          36.000  
  21900773.717   115089348.323        2641.103          31.000                  
                                                
 21  4 24 15 12 52.9930000  0  9G 4G 7G 8G 9G16G26G27G30G21
  21512726.936   113050120.671       -4091.853          40.000    21512722.457  
  88091002.262       -3188.398          40.000  
  18797678.454    98782453.819        1326.727          44.000    18797671.805  
  76973330.022        1033.685          43.000  
  18173127.097    95500406.674         363.589          48.000    18173122.270  
  74415897.204         283.347          44.000  
  20024176.204   105227754.118       -2961.287          43.000    20024172.350  
  81995643.678       -2307.551          45.000  
  21075551.678   110752758.369       -3506.423          44.000                  
                                                
  23213980.218   121990273.136       -3559.947          38.000    23213977.593  
  95057365.939       -2773.936          39.000  
  18785792.861    98719996.665       -2180.084          48.000    18785788.101  
  76924665.631       -1698.773          47.000  
  21541837.992   113203104.083        2757.920          43.000    21541832.451  
  88210201.384        2149.208          36.000  
  21900270.951                        2640.095          31.000                  
                                                
 21  4 24 15 12 53.9930000  0  9G 4G 7G 8G 9G16G26G27G30G21
  21513505.510   113054212.619       -4092.133          40.000    21513501.069  
  88094190.784       -3188.742          40.000  
  18797426.032    98781127.259        1326.428          44.000    18797419.259  
  76972296.343        1033.478          43.000  
  18173057.938    95500043.364         363.093          48.000    18173052.935  
  74415614.117         282.849          44.000  
  20024740.033   105230715.774       -2961.678          43.000    20024735.930  
  81997951.463       -2307.755          45.000  
  21076218.973   110756264.879       -3506.469          45.000                  
                                                
  23214657.671   121993833.229       -3559.867          37.000    23214655.193  
  95060140.033       -2773.880          39.000  
  18786207.701    98722177.012       -2180.511          48.000    18786202.998  
  76926364.602       -1699.103          47.000  
  21541313.081   113200346.172        2758.077          43.000    21541307.504  
  88208052.389        2148.777          36.000  
  21899768.401                        2641.808          32.000                  
                                                
 21  4 24 15 12 54.9930000  0  9G 4G 7G 8G 9G16G26G27G30G21
  21514284.157   113058304.825       -4092.094          40.000    21514279.797  
  88097379.528       -3188.954          40.000  
  18797173.663    98779801.219        1326.050          44.000    18797166.823  
  76971263.068        1033.057          43.000  
  18172988.914    95499680.886         362.159          49.000    18172983.894  
  74415331.653         282.421          44.000  
  20025303.752   105233678.065       -2962.474          43.000    20025299.651  
  82000259.745       -2308.387          45.000  
  21076886.280   110759771.640       -3506.734          45.000                  
                                                
  23215335.183   121997393.480       -3559.960          37.000    23215332.668  
  95062914.262       -2774.321          39.000  
  18786622.767    98724358.117       -2181.305          48.000    18786618.168  
  76928064.173       -1699.902          47.000  
  21540788.379   113197588.528        2757.779          43.000    21540782.785  
  88205903.576        2148.378          36.000  
  21899265.655                        2641.026          31.000                  
                                                
 21  4 24 15 12 55.9930000  0  9G 4G 7G 8G 9G16G26G27G30G21
  21515063.037   113062397.266       -4092.635          40.000    21515058.544  
  88100568.433       -3189.027          40.000  
  18796921.399    98778475.641        1325.311          44.000    18796914.524  
  76970230.140        1032.507          42.000  
  18172920.143    95499319.152         361.317          49.000    18172915.089  
  74415049.792         281.608          44.000  
  20025867.597   105236640.888       -2963.057          44.000    20025863.377  
  82002568.435       -2308.939          45.000  
  21077553.622   110763278.567       -3507.041          45.000                  
                                                
  23216012.647   122000953.781       -3559.850          37.000    23216010.149  
  95065688.543       -2774.721          38.000  
  18787038.003    98726539.899       -2182.098          48.000    18787033.341  
  76929764.253       -1700.379          47.000  
  21540263.719   113194831.074        2757.360          43.000    21540258.014  
  88203754.878        2148.878          36.000  
  21898762.963   115078782.386        2641.055          31.000                  
                                                
 21  4 24 15 12 56.9930000  0  9G 4G 7G 8G 9G16G26G27G30G21
  21515841.786   113066489.957       -4093.100          40.000    21515837.431  
  88103757.541       -3189.221          40.000  
  18796669.232    98777150.516        1324.841          44.000    18796662.375  
  76969197.571        1032.300          42.000  
  18172851.413    95498958.161         360.443          49.000    18172846.463  
  74414768.503         280.924          44.000  
  20026431.550   105239604.271       -2963.638          44.000    20026427.355  
  82004877.564       -2309.498          45.000  
  21078221.061   110766785.676       -3507.435          44.000                  
                                                
  23216690.244   122004514.199       -3560.698          37.000    23216687.648  
  95068462.880       -2774.855          39.000  
  18787453.242    98728722.371       -2182.959          48.000    18787448.587  
  76931464.878       -1701.013          47.000  
  21539739.034   113192073.832        2756.937          43.000    21539733.230  
  88201606.384        2148.369          36.000  
  21898260.367   115076141.373        2640.760          31.000                  
                                                
 21  4 24 15 12 57.9930000  0  9G 4G 7G 8G 9G16G26G27G30G21
  21516620.587   113070582.934       -4093.147          40.000    21516616.339  
  88106946.881       -3189.441          40.000  
  18796417.107    98775825.946        1324.371          44.000    18796410.304  
  76968165.434        1031.891          42.000  
  18172782.822    95498597.990         359.781          49.000    18172777.907  
  74414487.852         280.326          44.000  
  20026995.652   105242568.283       -2964.417          44.000    20026991.472  
  82007187.171       -2309.869          45.000  
  21078888.532   110770293.026       -3507.303          44.000                  
                                                
  23217367.809   122008074.721       -3560.532          37.000    23217365.315  
  95071237.317       -2774.905          39.000  
  18787868.714    98730905.608       -2183.649          48.000    18787864.054  
  76933166.100       -1701.502          47.000  
  21539214.498   113189316.863        2756.859          43.000    21539208.550  
  88199458.114        2147.897          37.000  
  21897757.670   115073500.641        2639.962          32.000                  
                                                
 21  4 24 15 12 58.9930000  0  9G 4G 7G 8G 9G16G26G27G30G21
  21517399.466   113074676.011       -4093.129          40.000    21517395.111  
  88110136.292       -3189.367          40.000  
  18796165.141    98774501.697        1324.084          44.000    18796158.272  
  76967133.548        1031.757          42.000  
  18172714.421    95498238.419         359.244          49.000    18172709.429  
  74414207.674         279.704          44.000  
  20027559.769   105245532.702       -2964.819          44.000    20027555.583  
  82009497.114       -2310.288          45.000  
  21079555.920   110773800.430       -3507.449          44.000                  
                                                
  23218045.332   122011635.204       -3560.978          37.000    23218042.973  
  95074011.688       -2774.327          39.000  
  18788284.327    98733089.406       -2184.241          47.000    18788279.680  
  76934867.753       -1701.880          47.000  
  21538689.937   113186559.955        2756.984          43.000    21538683.966  
  88197309.869        2148.015          37.000  
  21897254.972   115070859.900        2640.903          32.000                  
                                                
 21  4 24 15 12 59.9930000  0  9G 4G 7G 8G 9G16G26G27G30G21
  21518178.479   113078769.421       -4093.790          40.000    21518174.058  
  88113325.956       -3189.857          40.000  
  18795913.286    98773178.010        1323.199          44.000    18795906.381  
  76966102.099        1031.232          42.000  
  18172646.128    95497879.686         358.117          49.000    18172641.106  
  74413928.135         279.109          44.000  
  20028123.973   105248497.765       -2965.537          44.000    20028119.869  
  82011807.541       -2310.626          45.000  
  21080223.322   110777308.102       -3507.895          44.000                  
                                                
  23218722.913   122015195.816       -3560.448          37.000    23218720.649  
  95076786.205       -2774.358          39.000  
  18788700.059    98735273.970       -2185.016          47.000    18788695.473  
  76936570.019       -1702.667          47.000  
  21538165.323   113183803.352        2756.154          43.000    21538159.477  
  88195161.848        2147.917          37.000  
  21896752.308   115068219.432        2640.305          32.000                  
                                                
 21  4 24 15 13  0.9930000  0  9G 4G 7G 8G 9G16G26G27G30G21
  21518957.506   113082862.961       -4093.894          40.000    21518953.091  
  88116515.728       -3190.158          40.000  
  18795661.512    98771854.645        1323.175          44.000    18795654.605  
  76965070.932        1030.853          42.000  
  18172577.999    95497521.581         357.531          49.000    18172573.002  
  74413649.091         278.634          44.000  
  20028688.447   105251463.278       -2966.109          44.000    20028684.320  
  82014118.338       -2311.088          45.000  
  21080890.688   110780815.832       -3507.912          44.000                  
                                                
  23219400.582   122018756.429       -3560.800          37.000    23219398.140  
  95079560.702       -2774.284          39.000  
  18789115.889    98737459.135       -2185.718          47.000    18789111.135  
  76938272.744       -1703.174          47.000  
  21537640.780   113181046.828        2756.234          43.000    21537634.969  
  88193013.940        2147.333          37.000  
  21896249.748   115065579.013        2640.846          32.000                  
                                                
 21  4 24 15 13  1.9930000  0  9G 4G 7G 8G 9G16G26G27G30G21
  21519736.394   113086956.646       -4093.441          40.000    21519732.124  
  88119705.611       -3189.990          40.000  
  18795409.732    98770531.711        1322.766          44.000    18795402.917  
  76964040.066        1030.872          42.000  
  18172510.096    95497164.169         357.198          49.000    18172504.950  
  74413370.598         278.067          44.000  
  20029252.829   105254429.269       -2966.163          44.000    20029248.822  
  82016429.502       -2311.204          45.000  
  21081558.242   110784323.688       -3507.786          44.000                  
                                                
  23220078.119   122022317.053       -3560.612          37.000    23220075.720  
  95082335.222       -2774.666          38.000  
  18789531.781    98739644.921       -2186.200          47.000    18789527.058  
  76939975.955       -1703.522          47.000  
  21537116.230   113178290.450        2756.509          43.000    21537110.449  
  88190866.107        2147.971          37.000  
  21895747.263   115062938.773        2640.811          32.000                  
                                                
 21  4 24 15 13  2.9930000  0  9G 4G 7G 8G 9G16G26G27G30G21
  21520515.317   113091050.464       -4093.713          40.000    21520511.214  
  88122895.591       -3189.967          40.000  
  18795158.052    98769209.102        1322.589          44.000    18795151.327  
  76963009.465        1030.731          42.000  
  18172442.243    95496807.395         356.503          49.000    18172437.108  
  74413092.578         278.091          44.000  
  20029817.416   105257395.682       -2966.522          44.000    20029813.355  
  82018740.998       -2311.549          45.000  
  21082225.662   110787831.587       -3507.727          44.000                  
                                                
  23220755.629   122025877.603       -3560.391          37.000    23220753.279  
  95085109.675       -2774.215          38.000  
  18789947.852    98741831.269       -2186.481          47.000    18789943.222  
  76941679.606       -1703.839          47.000  
  21536591.726   113175534.150        2756.438          43.000    21536585.922  
  88188718.346        2147.722          37.000  
  21895244.841   115060298.585        2640.217          33.000                  
                                                
 21  4 24 15 13  3.9930000  0  9G 4G 7G 8G 9G16G26G27G30G21
  21521294.527   113095144.446       -4094.246          40.000    21521290.291  
  88126085.708       -3190.322          40.000  
  18794906.447    98767886.902        1321.991          44.000    18794899.793  
  76961979.180        1030.078          42.000  
  18172374.456    95496451.304         355.730          49.000    18172369.269  
  74412815.131         276.861          43.000  
  20030382.091   105260362.589       -2967.245          44.000    20030377.911  
  82021052.879       -2312.156          45.000  
  21082893.146   110791339.613       -3508.143          44.000                  
                                                
  23221433.243   122029438.166       -3560.536          36.000    23221430.925  
  95087884.128       -2774.333          38.000  
  18790364.050    98744018.254       -2187.451          47.000    18790359.399  
  76943383.739       -1704.333          47.000  
  21536067.297   113172778.011        2756.000          43.000    21536061.422  
  88186570.704        2147.397          37.000  
  21894742.450   115057658.478        2639.896          33.000                  
                                                
 21  4 24 15 13  4.9930000  0  9G 4G 7G 8G 9G16G26G27G30G21
  21522073.546   113099238.506       -4094.068          41.000    21522069.343  
  88129275.867       -3189.995          40.000  
  18794654.945    98766564.999        1321.838          44.000    18794648.232  
  76960949.128        1030.017          42.000  
  18172306.866    95496095.812         355.273          48.000    18172301.623  
  74412538.118         276.769          43.000  
  20030946.628   105263329.888       -2967.412          44.000    20030942.436  
  82023365.060       -2312.268          45.000  
  21083560.607   110794847.667       -3508.165          44.000                  
                                                
  23222110.775   122032998.669       -3560.215          36.000    23222108.467  
  95090658.542       -2774.040          38.000  
  18790780.318    98746205.749       -2187.659          47.000    18790775.704  
  76945088.290       -1704.755          48.000  
  21535542.805   113170021.887        2756.132          42.000    21535536.949  
  88184423.083        2147.792          37.000  
  21894239.971   115055018.435        2639.467          33.000                  
                                                
 21  4 24 15 13  5.9930000  0  9G 4G 7G 8G 9G16G26G27G30G21
  21522852.621   113103332.766       -4094.252          41.000    21522848.412  
  88132466.200       -3190.162          40.000  
  18794403.485    98765243.541        1321.606          44.000    18794396.646  
  76959919.414        1029.858          42.000  
  18172239.430    95495741.048         354.668          48.000    18172234.073  
  74412261.670         276.429          43.000  
  20031511.484   105266297.720       -2967.912          44.000    20031507.113  
  82025677.660       -2312.623          45.000  
  21084228.080   110798355.863       -3508.015          44.000                  
                                                
  23222788.282   122036559.181       -3559.561          36.000    23222785.979  
  95093432.994       -2774.302          38.000  
  18791196.696    98748393.926       -2188.190          48.000    18791192.090  
  76946793.357       -1705.084          47.000  
  21535018.455   113167265.965        2756.122          42.000    21535012.564  
  88182275.611        2147.293          37.000  
  21893737.506   115052378.491        2640.131          33.000                  
                                                
 21  4 24 15 13  6.9930000  0  9G 4G 7G 8G 9G16G26G27G30G21
  21523631.778   113107426.979       -4094.097          41.000    21523627.517  
  88135656.518       -3190.419          40.000  
  18794151.993    98763922.291        1320.972          44.000    18794145.159  
  76958889.877        1029.401          42.000  
  18172172.029    95495386.778         353.729          49.000    18172166.682  
  74411985.623         275.498          44.000  
  20032076.351   105269265.853       -2968.555          44.000    20032071.905  
  82027990.491       -2313.245          45.000  
  21084895.567   110801863.989       -3508.424          44.000                  
                                                
  23223465.771   122040119.559       -3560.460          36.000    23223463.461  
  95096207.297       -2774.345          38.000  
  18791613.171    98750582.530       -2189.014          48.000    18791608.498  
  76948498.762       -1705.750          47.000  
  21534493.951   113164509.964        2756.185          42.000    21534488.133  
  88180128.098        2147.183          37.000  
  21893234.858   115049738.523        2639.571          33.000                  
                                                
 21  4 24 15 13  7.9930000  0  9G 4G 7G 8G 9G16G26G27G30G21
  21524410.911   113111521.438       -4094.518          41.000    21524406.696  
  88138847.000       -3190.595          40.000  
  18793900.667    98762601.486        1320.441          44.000    18793893.873  
  76957860.672        1029.144          42.000  
  18172104.762    95495033.259         353.187          49.000    18172099.549  
  74411710.148         275.126          43.000  
  20032641.250   105272234.512       -2969.027          44.000    20032636.789  
  82030303.732       -2313.536          45.000  
  21085563.075   110805372.272       -3508.292          44.000                  
                                                
  23224143.315   122043679.998       -3560.924          36.000    23224140.887  
  95098981.652       -2774.427          38.000  
  18792029.873    98752771.815       -2189.667          48.000    18792025.155  
  76950204.694       -1706.189          47.000  
  21533969.532   113161754.179        2755.701          42.000    21533963.731  
  88177980.715        2147.365          37.000  
  21892732.438   115047098.680        2640.209          32.000                  
                                                
 21  4 24 15 13  8.9930000  0  9G 4G 7G 8G 9G16G26G27G30G21
  21525190.129   113115616.003       -4094.408          41.000    21525185.844  
  88142037.584       -3190.866          40.000  
  18793649.348    98761281.038        1320.465          44.000    18793642.516  
  76956831.767        1028.693          42.000  
  18172037.683    95494680.381         352.575          49.000    18172032.377  
  74411435.181         274.694          43.000  
  20033206.219   105275203.622       -2969.368          44.000    20033201.861  
  82032617.317       -2313.770          45.000  
  21086230.671   110808880.639       -3508.336          44.000                  
                                                
  23224820.933   122047240.342       -3560.178          36.000    23224818.395  
  95101755.957       -2773.990          38.000  
  18792446.552    98754961.668       -2190.088          48.000    18792441.819  
  76951911.072       -1706.604          47.000  
  21533445.172   113158998.491        2755.795          42.000    21533439.338  
  88175833.409        2147.512          37.000  
  21892229.902   115044458.915        2640.463          32.000                  
                                                
 21  4 24 15 13  9.9930000  0  9G 4G 7G 8G 9G16G26G27G30G21
  21525969.205   113119710.732       -4094.921          41.000    21525965.037  
  88145228.256       -3190.735          40.000  
  18793398.160    98759960.952        1319.867          45.000    18793391.262  
  76955803.118        1028.455          42.000  
  18171970.637    95494328.157         351.695          49.000    18171965.230  
  74411160.719         274.047          43.000  
  20033771.276   105278173.193       -2970.121          44.000    20033766.960  
  82034931.272       -2314.307          45.000  
  21086898.236   110812389.082       -3508.773          43.000                  
                                                
  23225498.408   122050800.719       -3560.671          35.000    23225495.887  
  95104530.274       -2774.649          38.000  
  18792863.304    98757152.117       -2190.912          48.000    18792858.676  
  76953617.915       -1707.269          47.000  
  21532920.732   113156242.891        2755.396          42.000    21532914.928  
  88173686.192        2147.274          37.000  
  21891727.347   115041819.274        2639.139          33.000                  
                                                
 21  4 24 15 13 10.9930000  0  9G 4G 7G 8G 9G16G26G27G30G21
  21526748.496   113123805.607       -4094.991          41.000    21526744.247  
  88148419.070       -3190.667          40.000  
  18793147.055    98758641.272        1319.403          45.000    18793140.093  
  76954774.793        1028.326          42.000  
  18171903.716    95493976.605         351.286          49.000    18171898.403  
  74410886.781         273.693          43.000  
  20034336.434   105281143.217       -2970.143          44.000    20034332.148  
  82037245.582       -2314.626          45.000  
  21087565.892   110815897.625       -3508.421          43.000                  
                                                
  23226175.965   122054361.074       -3560.394          35.000    23226173.417  
  95107304.553       -2773.963          38.000  
  18793280.289    98759343.189       -2191.272          48.000    18793275.593  
  76955325.244       -1707.562          47.000  
  21532396.417   113153487.433        2755.517          42.000    21532390.584  
  88171539.076        2147.354          37.000  
  21891224.854   115039179.695        2639.497          33.000                  
                                                
 21  4 24 15 13 11.9930000  0  9G 4G 7G 8G 9G16G26G27G30G21
  21527527.740   113127900.696       -4095.399          41.000    21527523.492  
  88151610.039       -3190.811          40.000  
  18792895.924    98757322.032        1318.958          45.000    18792888.996  
  76953746.821        1027.802          42.000  
  18171836.966    95493625.797         350.457          49.000    18171831.581  
  74410613.430         272.953          43.000  
  20034901.703   105284113.795       -2970.876          44.000    20034897.515  
  82039560.305       -2314.690          45.000  
  21088233.577   110819406.333       -3508.751          43.000                  
                                                
  23226853.534   122057921.481       -3560.255          35.000    23226850.886  
  95110078.912       -2774.584          38.000  
  18793697.433    98761534.929       -2192.072          48.000    18793692.678  
  76957033.089       -1708.148          47.000  
  21531872.068   113150732.159        2754.910          42.000    21531866.268  
  88169392.122        2146.758          37.000  
  21890722.402   115036540.296        2639.626          33.000                  
                                                
 21  4 24 15 13 12.9930000  0  9G 4G 7G 8G 9G16G26G27G30G21
  21528307.160   113131996.008       -4095.133          41.000    21528302.826  
  88154801.204       -3191.020          40.000  
  18792645.079    98756003.270        1318.542          44.000    18792638.104  
  76952719.207        1027.527          42.000  
  18171770.287    95493275.763         349.717          49.000    18171765.084  
  74410340.673         272.621          43.000  
  20035467.059   105287084.939       -2971.413          44.000    20035462.799  
  82041875.491       -2315.406          45.000  
  21088901.213   110822915.227       -3508.907          43.000                  
                                                
  23227531.045   122061481.960       -3560.530          36.000    23227528.411  
  95112853.326       -2774.543          38.000  
  18794114.589    98763727.368       -2192.725          48.000    18794109.870  
  76958741.484       -1708.673          47.000  
  21531347.873   113147977.107        2755.152          42.000    21531341.978  
  88167245.326        2146.691          37.000  
  21890220.130   115033901.114        2638.446          33.000                  
                                                
 21  4 24 15 13 13.9930000  0  9G 4G 7G 8G 9G16G26G27G30G21
  21529086.579   113136091.453       -4095.454          41.000    21529082.160  
  88157992.466       -3191.470          40.000  
  18792394.092    98754684.845        1318.286          45.000    18792387.250  
  76951691.868        1027.209          42.000  
  18171703.781    95492926.346         349.069          49.000    18171698.585  
  74410068.405         272.057          43.000  
  20036032.470   105290056.511       -2971.923          44.000    20036028.241  
  82044190.998       -2315.958          45.000  
  21089568.931   110826424.176       -3509.010          43.000                  
                                                
  23228208.579   122065042.442       -3560.795          35.000    23228205.958  
  95115627.702       -2774.513          38.000  
  18794531.919    98765920.384       -2193.451          48.000    18794527.189  
  76960450.324       -1709.113          47.000  
  21530823.762   113145222.135        2754.696          42.000    21530817.664  
  88165098.593        2146.394          37.000  
  21889717.845   115031261.975        2638.925          33.000                  
                                                
 21  4 24 15 13 14.9930000  0  9G 4G 7G 8G 9G16G26G27G30G21
  21529865.953   113140187.094       -4095.555          41.000    21529861.451  
  88161183.871       -3191.183          40.000  
  18792143.284    98753366.875        1317.975          44.000    18792136.448  
  76950664.876        1026.837          42.000  
  18171637.421    95492577.640         348.444          49.000    18171632.114  
  74409796.687         271.634          43.000  
  20036598.186   105293028.589       -2972.366          44.000    20036593.840  
  82046506.900       -2316.000          45.000  
  21090236.770   110829933.274       -3508.952          43.000                  
                                                
  23228886.100   122068602.927       -3560.432          36.000    23228883.615  
  95118402.122       -2774.303          38.000  
  18794949.375    98768114.041       -2193.835          48.000    18794944.498  
  76962159.673       -1709.497          47.000  
  21530299.574   113142467.335        2754.482          41.000    21530293.362  
  88162951.992        2146.725          37.000  
  21889215.738   115028622.983        2639.137          33.000                  
                                                
 21  4 24 15 13 15.9930000  0  9G 4G 7G 8G 9G16G26G27G30G21
  21530645.360   113144282.966       -4095.948          41.000    21530640.920  
  88164375.454       -3191.410          40.000  
  18791892.562    98752049.353        1317.236          44.000    18791885.684  
  76949638.231        1026.471          42.000  
  18171571.254    95492229.712         347.725          49.000    18171565.886  
  74409525.574         270.867          43.000  
  20037163.704   105296001.211       -2972.669          44.000    20037159.416  
  82048823.231       -2316.510          45.000  
  21090904.588   110833442.534       -3509.172          43.000                  
                                                
  23229563.687   122072163.473       -3560.182          36.000    23229561.130  
  95121176.567       -2774.282          38.000  
  18795367.004    98770308.391       -2194.684          48.000    18795361.945  
  76963869.554       -1710.059          47.000  
  21529775.379   113139712.726        2754.503          42.000    21529769.270  
  88160805.563        2146.121          37.000  
  21888713.651   115025984.132        2639.139          33.000                  
                                                
 21  4 24 15 13 16.9930000  0  9G 4G 7G 8G 9G16G26G27G30G21
  21531424.771   113148378.920       -4096.129          41.000    21531420.370  
  88167567.116       -3191.853          40.000  
  18791641.866    98750732.157        1316.864          44.000    18791634.995  
  76948611.830        1026.306          43.000  
  18171505.191    95491882.404         347.012          49.000    18171499.813  
  74409254.951         270.393          43.000  
  20037729.456   105298974.265       -2973.320          44.000    20037725.228  
  82051139.898       -2316.941          45.000  
  21091572.544   110836951.848       -3509.317          43.000                  
                                                
  23230241.337   122075723.963       -3560.000          36.000    23230238.686  
  95123950.964       -2774.071          38.000  
  18795784.708    98772503.286       -2195.197          48.000    18795779.632  
  76965579.853       -1710.382          47.000  
  21529251.174   113136958.192        2754.439          41.000    21529245.119  
  88158659.151        2146.400          37.000  
  21888211.378   115023345.394        2638.522          33.000                  
                                                
 21  4 24 15 13 17.9930000  0  9G 4G 7G 8G 9G16G26G27G30G21
  21532204.326   113152475.004       -4096.207          41.000    21532199.824  
  88170758.862       -3191.663          40.000  
  18791391.331    98749415.306        1316.724          44.000    18791384.411  
  76947585.720        1026.056          43.000  
  18171439.202    95491535.750         346.477          49.000    18171433.722  
  74408984.838         269.893          43.000  
  20038295.268   105301947.753       -2973.779          44.000    20038290.870  
  82053456.896       -2317.052          44.000  
  21092240.328   110840461.222       -3509.253          43.000                  
                                                
  23230918.922   122079284.440       -3560.142          36.000    23230916.220  
  95126725.354       -2774.072          38.000  
  18796202.471    98774698.762       -2195.685          48.000    18796197.344  
  76967290.626       -1711.005          47.000  
  21528726.956   113134203.740        2754.689          41.000    21528720.944  
  88156512.853        2146.289          37.000  
  21887709.244   115020706.691        2638.270          33.000                  
                                                
 21  4 24 15 13 18.9930000  0 10G 4G 7G 8G 9G16G26G27G30G21G18
  21532983.863   113156571.081       -4096.267          41.000    21532979.321  
  88173950.625       -3192.000          40.000  
  18791140.918    98748098.691        1316.534          44.000    18791133.872  
  76946559.788        1025.696          43.000  
  18171373.290    95491189.588         345.760          50.000    18171367.914  
  74408715.116         269.399          43.000  
  20038861.170   105304921.552       -2974.244          44.000    20038856.739  
  82055774.153       -2317.594          44.000  
  21092908.149   110843970.532       -3509.512          44.000                  
                                                
  23231596.402   122082844.743       -3560.532          36.000    23231593.735  
  95129499.632       -2774.864          37.000  
  18796620.343    98776894.701       -2196.350          48.000    18796615.128  
  76969001.740       -1711.383          47.000  
  21528202.784   113131449.268        2754.351          41.000    21528196.693  
  88154366.486        2146.572          37.000  
  21887207.128   115018067.917        2638.638          33.000                  
                                                
  23379321.904                2      -2414.816          32.000                  
                                                
 21  4 24 15 13 19.9930000  0 10G 4G 7G 8G 9G16G26G27G30G21G18
  21533763.376   113160667.161       -4096.057          41.000    21533758.835  
  88177142.386       -3192.032          40.000  
  18790890.407    98746782.331        1316.193          44.000    18790883.396  
  76945534.045        1025.488          43.000  
  18171307.533    95490843.971         345.315          49.000    18171302.019  
  74408445.810         268.923          43.000  
  20039427.200   105307895.673       -2974.198          44.000    20039422.640  
  82058091.648       -2317.669          44.000  
  21093575.994   110847479.788       -3509.255          44.000                  
                                                
  23232273.894   122086404.893       -3560.050          36.000    23232271.232  
  95132273.760       -2774.385          37.000  
  18797038.340    98779091.111       -2196.735          48.000    18797033.112  
  76970713.229       -1711.798          47.000  
  21527678.612   113128694.778        2754.602          41.000    21527672.566  
  88152220.155        2146.067          37.000  
  21886704.895                        2638.704          33.000                  
                                                
  23379772.921   122861579.949       -2415.197          32.000                  
                                                
 21  4 24 15 13 20.9930000  0 10G 4G 7G 8G 9G16G26G27G30G21G18
  21534542.903   113164763.468       -4096.353          42.000    21534538.357  
  88180334.314       -3192.093          40.000  
  18790640.036    98745466.435        1315.735          44.000    18790633.033  
  76944508.651        1025.256          43.000  
  18171241.987    95490499.099         344.537          49.000    18171236.303  
  74408177.066         268.615          42.000  
  20039993.285   105310870.361       -2974.878          44.000    20039988.578  
  82060409.564       -2317.921          43.000  
  21094243.773   110850989.231       -3509.390          44.000                  
                                                
  23232951.390   122089965.129       -3560.483          36.000    23232948.674  
  95135047.967       -2774.348          37.000  
  18797456.372    98781288.210       -2197.504          48.000    18797451.154  
  76972425.252       -1712.219          46.000  
  21527154.539   113125940.503        2754.221          41.000    21527148.379  
  88150073.946        2146.239          37.000  
  21886202.644   115012790.529        2638.554          33.000                  
                                                
  23380229.289   122863995.416       -2415.642          32.000                  
                                                
 21  4 24 15 13 21.9930000  0 10G 4G 7G 8G 9G16G26G27G30G21G18
  21535322.362   113168859.593       -4096.008          42.000    21535317.751  
  88183526.093       -3191.824          40.000  
  18790389.713    98744150.575        1315.692          44.000    18790382.472  
  76943483.299        1025.403          43.000  
  18171176.500    95490154.548         344.376          49.000    18171170.687  
  74407908.572         268.512          43.000  
  20040559.392   105313845.165       -2974.926          44.000    20040554.707  
  82062727.597       -2317.957          43.000  
  21094911.609   110854498.427       -3509.165          44.000                  
                                                
  23233628.799   122093525.011       -3559.799          36.000    23233626.210  
  95137821.887       -2773.860          36.000  
  18797874.530    98783485.548       -2197.504          48.000    18797869.228  
  76974137.471       -1712.286          46.000  
  21526630.303   113123186.009        2754.663          42.000    21526624.263  
  88147927.570        2146.570          38.000  
  21885700.584   115010151.663        2638.851          33.000                  
                                                
  23380687.905   122866411.083       -2415.488          32.000                  
                                                
 21  4 24 15 13 22.9930000  0 10G 4G 7G 8G 9G16G26G27G30G21G18
  21536101.777   113172955.723       -4096.279          42.000    21536097.211  
  88186717.876       -3191.772          40.000  
  18790139.359    98742834.950        1315.527          44.000    18790132.039  
  76942458.141        1025.159          43.000  
  18171111.040    95489810.533         343.693          49.000    18171105.074  
  74407640.509         267.790          43.000  
  20041125.633   105316820.280       -2975.112          44.000    20041120.757  
  82065045.887       -2318.487          43.000  
  21095579.561   110858007.575       -3509.150          44.000                  
                                                
  23234306.159   122097084.741       -3559.798          36.000    23234303.518  
  95140595.687       -2773.891          36.000  
  18798292.776    98785683.361       -2197.919          48.000    18798287.355  
  76975850.059       -1712.762          46.000  
  21526106.240   113120431.483        2754.479          42.000    21526100.118  
  88145781.169        2146.743          38.000  
  21885198.369   115007512.753        2639.082          33.000                  
                                                
  23381147.351   122868827.127       -2417.148          32.000                  
                                                
 21  4 24 15 13 23.9930000  0 10G 4G 7G 8G 9G16G26G27G30G21G18
  21536881.241   113177052.019       -4096.732          42.000    21536876.721  
  88189909.814       -3192.591          40.000  
  18789889.109    98741519.730        1314.795          44.000    18789881.592  
  76941433.293        1024.719          43.000  
  18171045.706    95489467.194         342.668          49.000    18171039.739  
  74407372.964         267.141          43.000  
  20041691.872   105319795.921       -2976.202          44.000    20041686.961  
  82067364.552       -2319.100          44.000  
  21096247.350   110861516.840       -3509.518          45.000                  
                                                
  23234983.484   122100644.449       -3559.925          36.000    23234980.916  
  95143369.478       -2773.645          36.000  
  18798711.139    98787881.807       -2198.956          48.000    18798705.679  
  76977563.127       -1713.550          46.000  
  21525582.116   113117677.105        2754.006          42.000    21525576.000  
  88143634.919        2146.129          38.000  
  21884696.249   115004873.998        2638.611          33.000                  
                                                
  23381606.882   122871243.622       -2416.922          32.000                  
                                                
 21  4 24 15 13 24.9930000  0 10G 4G 7G 8G 9G16G26G27G30G21G18
  21537660.881   113181148.564       -4096.696          42.000    21537656.193  
  88193101.910       -3192.402          40.000  
  18789639.017    98740204.998        1314.380          44.000    18789631.358  
  76940408.828        1024.243          43.000  
  18170980.536    95489124.601         342.014          50.000    18170974.594  
  74407106.017         266.569          43.000  
  20042258.283   105322772.101       -2976.653          44.000    20042253.212  
  82069683.660       -2319.494          44.000  
  21096915.257   110865026.302       -3510.062          45.000                  
                                                
  23235660.932   122104204.291       -3560.571          36.000    23235658.314  
  95146143.387       -2774.091          36.000  
  18799129.751    98790080.947       -2199.695          48.000    18799124.117  
  76979276.746       -1713.941          46.000  
  21525058.066   113114922.945        2754.110          42.000    21525051.890  
  88141488.817        2146.261          38.000  
  21884194.086   115002235.428        2638.312          33.000                  
                                                
  23382066.703   122873660.760       -2417.986          32.000                  
                                                
 21  4 24 15 13 25.9930000  0 10G 4G 7G 8G 9G16G26G27G30G21G18
  21538440.444   113185245.419       -4097.013          42.000    21538435.773  
  88196294.275       -3192.519          40.000  
  18789388.917    98738890.805        1313.965          44.000    18789381.217  
  76939384.782        1023.956          43.000  
  18170915.516    95488782.853         341.384          50.000    18170909.546  
  74406839.721         266.087          43.000  
  20042824.749   105325748.924       -2977.223          44.000    20042819.701  
  82072003.273       -2320.131          44.000  
  21097583.175   110868536.007       -3509.631          45.000                  
                                                
  23236338.318   122107764.259       -3559.982          36.000    23236335.747  
  95148917.393       -2774.017          36.000  
  18799548.429    98792280.867       -2200.275          48.000    18799542.646  
  76980990.972       -1714.575          46.000  
  21524534.142   113112169.086        2753.647          42.000    21524527.892  
  88139342.960        2145.806          38.000  
  21883691.914   114999597.094        2638.055          32.000                  
                                                
  23382526.337   122876078.540       -2417.453          33.000                  
                                                
 21  4 24 15 13 26.9930000  0 10G 4G 7G 8G 9G16G26G27G30G21G18
  21539220.169   113189342.553       -4097.106          42.000    21539215.385  
  88199486.822       -3192.684          40.000  
  18789138.966    98737577.112        1313.593          44.000    18789131.257  
  76938361.132        1023.431          43.000  
  18170850.701    95488441.889         340.702          50.000    18170844.691  
  74406574.035         265.322          43.000  
  20043391.423   105328726.315       -2977.693          44.000    20043386.266  
  82074323.303       -2320.101          44.000  
  21098251.172   110872045.947       -3510.000          45.000                  
                                                
  23237015.874   122111324.341       -3560.344          36.000    23237013.174  
  95151691.502       -2774.382          36.000  
  18799967.233    98794481.497       -2200.787          48.000    18799961.349  
  76982705.745       -1714.899          46.000  
  21524010.179   113109415.453        2753.527          42.000    21524003.947  
  88137197.247        2146.091          38.000  
  21883189.883   114996958.986        2638.513          32.000                  
                                                
  23382986.334   122878497.004       -2419.222          33.000                  
  95749409.6492      -1885.158          32.000  
 21  4 24 15 13 27.9930000  0 10G 4G 7G 8G 9G16G26G27G30G21G18
  21539999.873   113193439.980       -4097.528          42.000    21539995.124  
  88202679.623       -3193.051          40.000  
  18788889.030    98736263.971        1312.933          44.000    18788881.409  
  76937337.895        1023.138          43.000  
  18170785.983    95488101.754         339.725          49.000    18170779.849  
  74406308.999         264.553          43.000  
  20043958.212   105331704.344       -2978.514          44.000    20043952.929  
  82076643.846       -2320.885          44.000  
  21098919.161   110875556.123       -3510.337          45.000                  
                                                
  23237693.350   122114884.551       -3560.134          36.000    23237690.614  
  95154465.701       -2774.690          36.000  
  18800386.202    98796682.900       -2201.794          48.000    18800380.212  
  76984421.121       -1715.674          46.000  
  21523486.234   113106662.099        2753.056          42.000    21523480.071  
  88135051.783        2145.571          38.000  
  21882687.670   114994321.163        2638.367          32.000                  
                                                
  23383446.327   122880916.068       -2419.003          32.000    23383443.969  
  95751293.1571      -1885.719          32.000  
 21  4 24 15 13 28.9930000  0 10G 4G 7G 8G 9G16G26G27G30G21G18
  21540779.661   113197537.747       -4097.766          42.000    21540774.970  
  88205872.683       -3193.185          40.000  
  18788639.417    98734951.408        1312.415          44.000    18788631.678  
  76936315.118        1022.736          43.000  
  18170721.538    95487762.492         338.983          50.000    18170715.279  
  74406044.629         264.041          43.000  
  20044525.021   105334683.026       -2979.000          44.000    20044519.756  
  82078964.909       -2321.351          44.000  
  21099587.212   110879066.599       -3510.524          45.000                  
                                                
  23238370.788   122118444.997       -3560.487          36.000    23238368.159  
  95157240.055       -2774.606          36.000  
  18800805.214    98798885.101       -2202.515          48.000    18800799.362  
  76986137.120       -1716.229          46.000  
  21522962.296   113103909.047        2753.001          42.000    21522956.031  
  88132906.563        2145.140          38.000  
  21882185.767   114991683.608        2638.416          33.000                  
                                                
  23383906.591   122883335.865       -2420.203          32.000    23383904.339  
  95753178.669       -1886.038          32.000  
 21  4 24 15 13 29.9930000  0 10G 4G 7G 8G 9G16G26G27G30G21G18
  21541559.444   113201635.804       -4098.367          42.000    21541554.802  
  88209065.976       -3193.144          40.000  
  18788389.733    98733639.364        1311.731          44.000    18788381.958  
  76935292.758        1021.942          43.000  
  18170657.149    95487424.034         338.003          49.000    18170650.911  
  74405780.886         263.531          43.000  
  20045091.955   105337662.326       -2979.716          44.000    20045086.771  
  82081286.420       -2321.611          44.000  
  21100255.295   110882577.311       -3510.953          45.000                  
                                                
  23239048.358   122122005.546       -3560.798          36.000    23239045.701  
  95160014.483       -2774.082          36.000  
  18801224.455    98801088.035       -2203.168          48.000    18801218.580  
  76987853.698       -1716.840          47.000  
  21522438.464   113101156.289        2752.360          42.000    21522432.183  
  88130761.559        2144.566          38.000  
  21881684.000   114989046.347        2637.128          33.000                  
                                                
  23384366.728   122885756.313       -2420.842          32.000    23384364.686  
  95755064.743       -1886.781          32.000  
 21  4 24 15 13 30.9930000  0 10G 4G 7G 8G 9G16G26G27G30G21G18
  21542339.307   113205734.130       -4098.160          42.000    21542334.643  
  88212259.480       -3193.511          40.000  
  18788140.181    98732327.824        1311.493          44.000    18788132.318  
  76934270.770        1022.028          43.000  
  18170592.912    95487086.377         337.447          49.000    18170586.612  
  74405517.782         263.128          42.000  
  20045659.067   105340642.204       -2980.201          44.000    20045653.729  
  82083608.426       -2322.279          44.000  
  21100923.352   110886088.228       -3510.782          45.000                  
                                                
  23239725.867   122125566.203       -3560.632          36.000    23239723.341  
  95162789.039       -2774.106          36.000  
  18801643.732    98803291.712       -2203.900          48.000    18801637.912  
  76989570.849       -1717.365          47.000  
  21521914.695   113098403.740        2752.688          42.000    21521908.441  
  88128616.709        2145.109          38.000  
  21881182.160   114986409.255        2637.103          33.000                  
                                                
  23384827.051   122888177.400       -2421.799          32.000    23384825.391  
  95756951.270       -1887.337          32.000  
 21  4 24 15 13 31.9930000  0 10G 4G 7G 8G 9G16G26G27G30G21G18
  21543119.230   113209832.695       -4098.727          42.000    21543114.518  
  88215453.162       -3193.702          40.000  
  18787890.714    98731016.758        1310.889          44.000    18787882.971  
  76933249.179        1021.179          43.000  
  18170528.932    95486749.494         336.458          49.000    18170522.437  
  74405255.282         262.103          42.000  
  20046226.249   105343622.646       -2980.858          44.000    20046220.860  
  82085930.836       -2322.674          44.000  
  21101591.599   110889599.344       -3511.446          45.000                  
                                                
  23240403.474   122129126.949       -3560.502          36.000    23240400.841  
  95165563.650       -2774.572          36.000  
  18802063.164    98805496.085       -2204.755          48.000    18802057.422  
  76991288.541       -1718.097          47.000  
  21521390.964   113095651.435        2752.017          42.000    21521384.703  
  88126472.055        2144.295          38.000  
  21880680.426   114983772.375        2636.859          33.000                  
                                                
  23385287.435   122890599.055       -2422.514          32.000    23385286.342  
  95758838.266       -1887.219          32.000  
 21  4 24 15 13 32.9930000  0 10G 4G 7G 8G 9G16G26G27G30G21G18
  21543899.259   113213931.480       -4098.766          42.000    21543894.444  
  88218647.012       -3193.786          40.000  
  18787641.378    98729706.148        1310.437          44.000    18787633.497  
  76932227.913        1021.265          43.000  
  18170464.880    95486413.324         335.969          49.000    18170458.445  
  74404993.336         261.782          42.000  
  20046793.661   105346603.630       -2981.318          44.000    20046788.110  
  82088253.683       -2323.115          44.000  
  21102259.765   110893110.613       -3511.252          45.000                  
                                                
  23241081.080   122132687.745       -3560.549          36.000    23241078.411  
  95168338.310       -2774.773          36.000  
  18802482.732    98807701.125       -2205.273          48.000    18802476.919  
  76993006.759       -1718.445          47.000  
  21520867.234   113092899.304        2752.378          42.000    21520860.977  
  88124327.547        2144.267          38.000  
  21880178.819   114981135.668        2636.481          33.000                  
                                                
  23385747.932   122893021.253       -2422.501          32.000    23385747.554  
  95760725.682       -1887.174          32.000  
 21  4 24 15 13 33.9930000  0 10G 4G 7G 8G 9G16G26G27G30G21G18
  21544679.341   113218030.534       -4099.325          42.000    21544674.384  
  88221841.080       -3194.160          40.000  
  18787392.021    98728396.049        1310.010          44.000    18787384.183  
  76931207.057        1020.752          43.000  
  18170401.083    95486077.956         335.076          49.000    18170394.560  
  74404732.011         261.022          42.000  
  20047361.077   105349585.191       -2981.722          44.000    20047355.450  
  82090576.971       -2323.278          44.000  
  21102927.898   110896622.106       -3511.611          45.000                  
                                                
  23241758.642   122136248.688       -3561.263          36.000    23241755.957  
  95171113.044       -2774.777          36.000  
  18802902.508    98809906.899       -2206.165          48.000    18802896.773  
  76994725.532       -1718.945          47.000  
  21520343.528   113090147.421        2751.854          42.000    21520337.302  
  88122183.196        2144.711          38.000  
  21879677.087   114978499.202        2636.328          33.000                  
                                                
  23386208.942   122895444.068       -2421.857          32.000    23386208.687  
  95762613.683       -1888.442          33.000  
 21  4 24 15 13 34.9930000  0 10G 4G 7G 8G 9G16G26G27G30G21G18
  21545459.418   113222129.750       -4099.342          42.000    21545454.469  
  88225035.275       -3194.215          40.000  
  18787142.837    98727086.357        1309.326          45.000    18787135.001  
  76930186.511        1020.227          43.000  
  18170337.248    95485743.265         334.353          49.000    18170330.931  
  74404471.219         260.345          43.000  
  20047928.542   105352567.240       -2982.237          44.000    20047922.856  
  82092900.661       -2323.926          44.000  
  21103596.191   110900133.695       -3511.554          45.000                  
                                                
  23242436.255   122139809.612       -3560.536          37.000    23242433.489  
  95173887.797       -2774.545          36.000  
  18803322.364    98812113.286       -2206.708          48.000    18803316.618  
  76996444.801       -1719.495          47.000  
  21519819.862   113087395.691        2751.752          42.000    21519813.624  
  88120039.007        2144.566          39.000  
  21879175.419   114975862.819        2636.407          33.000                  
                                                
  23386670.030   122897867.510       -2424.124          32.000    23386670.026  
  95764502.026       -1888.510          33.000  
 21  4 24 15 13 35.9930000  0 10G 4G 7G 8G 9G16G26G27G30G21G18
  21546239.515   113226229.171       -4099.679          42.000    21546234.556  
  88228229.619       -3194.336          40.000  
  18786893.684    98725777.093        1308.734          45.000    18786885.834  
  76929166.299        1020.075          43.000  
  18170273.827    95485409.301         333.510          49.000    18170267.320  
  74404210.984         259.690          43.000  
  20048495.966   105355549.822       -2983.022          43.000    20048490.376  
  82095224.749       -2324.430          44.000  
  21104264.410   110903645.452       -3511.843          45.000                  
                                                
  23243113.943   122143370.625       -3561.412          36.000    23243111.125  
  95176662.592       -2774.758          36.000  
  18803742.388    98814320.342       -2207.343          48.000    18803736.640  
  76998164.581       -1720.032          47.000  
  21519296.319   113084644.146        2751.589          42.000    21519289.959  
  88117894.952        2143.802          38.000  
  21878674.023   114973226.625        2635.962          33.000                  
                                                
  23387131.140                       -2424.653          32.000    23387131.446  
  95766390.784       -1888.549          33.000  
 21  4 24 15 13 36.9930000  0 10G 4G 7G 8G 9G16G26G27G30G21G18
  21547019.583   113230328.651       -4099.690          42.000    21547014.568  
  88231424.026       -3194.470          40.000  
  18786644.559    98724468.113        1308.972          44.000    18786636.803  
  76928146.318        1019.995          43.000  
  18170210.456    95485075.922         333.063          49.000    18170203.918  
  74403951.203         259.545          43.000  
  20049063.555   105358532.775       -2983.279          43.000    20049058.067  
  82097549.117       -2324.515          44.000  
  21104932.732   110907157.213       -3511.878          45.000                  
                                                
  23243791.581   122146931.474       -3560.665          37.000    23243788.737  
  95179437.288       -2774.561          36.000  
  18804162.477    98816527.913       -2207.776          48.000    18804156.643  
  76999884.763       -1720.306          47.000  
  21518772.732   113081892.620        2751.533          42.000    21518766.376  
  88115750.898        2144.254          38.000  
  21878172.317   114970590.423        2636.127          34.000                  
                                                
  23387592.186   122902715.820       -2424.711          32.000    23387593.088  
  95768279.911       -1889.246          33.000  
 21  4 24 15 13 37.9930000  0 10G 4G 7G 8G 9G16G26G27G30G21G18
  21547799.755   113234428.211       -4099.642          42.000    21547794.624  
  88234618.489       -3194.681          40.000  
  18786395.431    98723159.466        1308.362          44.000    18786387.775  
  76927126.602        1019.531          43.000  
  18170147.254    95484743.140         332.411          49.000    18170140.577  
  74403691.890         259.042          43.000  
  20049631.237   105361516.117       -2983.531          43.000    20049625.695  
  82099873.805       -2324.853          44.000  
  21105601.175   110910669.012       -3511.985          45.000                  
                                                
  23244469.219   122150492.305       -3560.889          37.000    23244466.311  
  95182211.960       -2774.537          36.000  
  18804582.638    98818736.037       -2208.411          48.000    18804576.862  
  77001605.376       -1720.776          47.000  
  21518249.216   113079141.167        2751.428          42.000    21518242.827  
  88113606.895        2144.240          38.000  
  21877670.711   114967954.270        2635.614          34.000                  
                                                
  23388053.372   122905140.633       -2425.010          31.000    23388054.785  
  95770169.388       -1889.390          33.000  
 21  4 24 15 13 38.9930000  0 10G 4G 7G 8G 9G16G26G27G30G21G18
  21548579.911   113238527.947       -4100.050          42.000    21548574.742  
  88237813.078       -3194.596          40.000  
  18786146.404    98721851.216        1307.922          44.000    18786138.745  
  76926107.184        1019.037          43.000  
  18170084.105    95484411.038         331.774          49.000    18170077.419  
  74403433.122         258.377          43.000  
  20050199.106   105364499.952       -2984.170          43.000    20050193.458  
  82102198.874       -2325.226          44.000  
  21106269.365   110914180.907       -3511.887          45.000                  
                                                
  23245146.857   122154053.145       -3561.399          37.000    23245143.920  
  95184986.601       -2774.598          36.000  
  18805002.929    98820944.765       -2209.058          48.000    18804997.167  
  77003326.464       -1721.332          47.000  
  21517725.706   113076389.853        2751.036          42.000    21517719.223  
  88111463.015        2144.033          38.000  
  21877168.954   114965318.247        2635.547          34.000                  
                                                
  23388514.655                       -2425.909          31.000    23388516.553  
  95772059.257       -1890.551          33.000  
 21  4 24 15 13 39.9930000  0 10G 4G 7G 8G 9G16G26G27G30G21G18
  21549360.072   113242627.638       -4100.071          42.000    21549354.866  
  88241007.639       -3194.593          40.000  
  18785897.507    98720543.166        1307.874          44.000    18785889.751  
  76925087.930        1019.183          43.000  
  18170020.939    95484079.429         331.302          49.000    18170014.297  
  74403174.718         258.102          43.000  
  20050767.024   105367484.082       -2984.379          43.000    20050761.276  
  82104524.179       -2325.581          44.000  
  21106937.633   110917692.735       -3512.042          45.000                  
                                                
  23245824.453   122157613.751       -3560.955          37.000    23245821.497  
  95187761.124       -2774.157          36.000  
  18805423.298    98823153.919       -2209.412          48.000    18805417.530  
  77005047.878       -1721.600          47.000  
  21517202.134   113073638.470        2751.342          43.000    21517195.615  
  88109319.113        2143.692          38.000  
  21876667.352   114962682.104        2635.944          34.000                  
                                                
  23388975.969   122909991.603       -2425.804          31.000    23388978.432  
  95773949.356       -1890.112          33.000  
 21  4 24 15 13 40.9930000  0 10G 4G 7G 8G 9G16G26G27G30G21G18
  21550140.337   113246727.471       -4100.026          42.000    21550135.036  
  88244202.322       -3194.782          40.000  
  18785648.557    98719235.516        1307.507          45.000    18785640.848  
  76924068.985        1018.750          43.000  
  18169957.922    95483748.496         330.552          49.000    18169951.287  
  74402916.851         257.559          43.000  
  20051335.056   105370468.690       -2985.043          43.000    20051329.249  
  82106849.832       -2325.866          44.000  
  21107605.900   110921204.647       -3511.964          45.000                  
                                                
  23246502.016   122161174.361       -3560.385          37.000    23246498.967  
  95190535.647       -2774.628          36.000  
  18805843.777    98825363.681       -2210.126          48.000    18805838.117  
  77006769.776       -1722.186          47.000  
  21516678.633   113070887.241        2750.992          43.000    21516672.096  
  88107175.279        2143.779          38.000  
  21876165.705   114960046.092        2635.663          34.000                  
                                                
  23389437.551   122912417.780       -2426.391          31.000    23389440.341  
  95775839.867       -1890.661          33.000  
 21  4 24 15 13 41.9930000  0 10G 4G 7G 8G 9G16G26G27G30G21G18
  21550920.549   113250827.549       -4099.906          42.000    21550915.253  
  88247397.200       -3194.897          40.000  
  18785399.797    98717928.343        1307.190          45.000    18785392.171  
  76923050.411        1018.323          43.000  
  18169895.081    95483418.321         329.938          49.000    18169888.455  
  74402659.572         257.119          43.000  
  20051903.005   105373453.840       -2985.087          43.000    20051897.236  
  82109175.926       -2326.062          44.000  
  21108274.142   110924716.736       -3511.979          45.000                  
                                                
  23247179.507   122164735.069       -3560.413          37.000    23247176.489  
  95193310.211       -2774.921          36.000  
  18806264.269    98827574.149       -2210.596          48.000    18806258.615  
  77008492.212       -1722.522          47.000  
  21516154.975   113068136.216        2750.791          43.000    21516148.572  
  88105031.630        2143.505          39.000  
  21875664.085   114957410.263        2635.919          34.000                  
                                                
  23389899.257                       -2426.570          31.000    23389902.500  
  95777730.862       -1891.259          33.000  
 21  4 24 15 13 42.9930000  0 10G 4G 7G 8G 9G16G26G27G30G21G18
  21551700.931   113254927.717       -4100.300          42.000    21551695.487  
  88250592.139       -3195.297          40.000  
  18785151.149    98716621.508        1306.293          45.000    18785143.470  
  76922032.094        1018.146          43.000  
  18169832.350    95483088.760         328.893          49.000    18169825.693  
  74402402.766         256.438          43.000  
  20052471.174   105376439.411       -2985.984          43.000    20052465.395  
  82111502.349       -2326.840          44.000  
  21108942.411   110928228.885       -3512.393          45.000                  
                                                
  23247857.023   122168295.723       -3560.995          37.000    23247854.035  
  95196084.709       -2774.192          35.000  
  18806685.170    98829785.173       -2211.615          47.000    18806679.387  
  77010215.085       -1723.358          47.000  
  21515631.502   113065385.250        2750.632          43.000    21515625.095  
  88102888.019        2143.216          39.000  
  21875162.435   114954774.493        2635.461          34.000                  
                                                
  23390361.037                       -2427.687          31.000    23390364.600  
  95779622.229       -1892.526          33.000  
 21  4 24 15 13 43.9930000  0 10G 4G 7G 8G 9G16G26G27G30G21G18
  21552481.198   113259028.107       -4100.095          42.000    21552475.695  
  88253787.249       -3194.914          40.000  
  18784902.614    98715315.125        1306.250          45.000    18784894.848  
  76921014.136        1017.877          43.000  
  18169769.763    95482759.916         328.662          49.000    18169763.065  
  74402146.532         255.973          43.000  
  20053039.390   105379425.514       -2986.260          43.000    20053033.680  
  82113829.185       -2326.831          44.000  
  21109610.789   110931741.199       -3512.380          45.000                  
                                                
  23248534.552   122171856.424       -3560.414          37.000    23248531.616  
  95198859.321       -2774.655          36.000  
  18807106.024    98831996.876       -2211.926          47.000    18807100.276  
  77011938.491       -1723.560          47.000  
  21515108.031   113062634.483        2750.775          43.000    21515101.599  
  88100744.556        2143.519          39.000  
  21874661.070   114952138.893        2635.699          34.000                  
                                                
  23390822.888                       -2427.923          31.000    23390826.734  
  95781513.981       -1891.761          33.000  
 21  4 24 15 13 44.9930000  0 10G 4G 7G 8G 9G16G26G27G30G21G18
  21553261.519   113263128.800       -4100.628          42.000    21553256.065  
  88256982.579       -3195.499          40.000  
  18784654.152    98714009.270        1305.707          45.000    18784646.464  
  76919996.584        1017.407          43.000  
  18169707.311    95482431.877         327.688          49.000    18169700.640  
  74401890.917         255.283          43.000  
  20053607.803   105382412.226       -2986.782          43.000    20053602.036  
  82116156.496       -2327.562          44.000  
  21110279.245   110935253.748       -3512.736          45.000                  
                                                
  23249212.105   122175417.298       -3561.104          37.000    23249209.175  
  95201633.995       -2775.051          35.000  
  18807527.101    98834209.313       -2212.708          47.000    18807521.304  
  77013662.457       -1724.146          47.000  
  21514584.572   113059883.994        2750.402          43.000    21514578.188  
  88098601.328        2143.213          38.000  
  21874159.423   114949503.543        2635.541          34.000                  
                                                
  23391285.009   122922128.010       -2428.874          31.000    23391288.947  
  95783406.221       -1891.659          33.000  
 21  4 24 15 13 45.9930000  0 10G 4G 7G 8G 9G16G26G27G30G21G18
  21554041.788   113267229.579       -4101.046          42.000    21554036.392  
  88260177.982       -3195.483          40.000  
  18784405.732    98712703.737        1305.292          44.000    18784398.056  
  76918979.306        1016.956          43.000  
  18169644.973    95482104.462         327.054          49.000    18169638.326  
  74401635.794         254.622          43.000  
  20054176.159   105385399.353       -2987.434          42.000    20054170.507  
  82118484.118       -2327.977          44.000  
  21110947.581   110938766.321       -3512.603          45.000                  
                                                
  23249889.643   122178978.044       -3560.802          37.000    23249886.745  
  95204408.634       -2774.924          35.000  
  18807948.193    98836422.290       -2213.367          47.000    18807942.330  
  77015386.866       -1724.829          47.000  
  21514061.147   113057133.556        2750.366          43.000    21514054.700  
  88096458.132        2142.832          38.000  
  21873658.034   114946868.238        2635.553          34.000                  
                                                
  23391747.149                       -2429.143          30.000    23391751.306  
  95785298.897       -1893.146          33.000  
 21  4 24 15 13 46.9930000  0 10G 4G 7G 8G 9G16G26G27G30G21G18
  21554822.320   113271330.570       -4100.988          42.000    21554816.755  
  88263373.574       -3195.531          40.000  
  18784157.375    98711398.689        1304.883          44.000    18784149.731  
  76917962.387        1016.711          43.000  
  18169582.696    95481777.816         326.306          49.000    18169576.232  
  74401381.257         254.459          43.000  
  20054744.709   105388387.038       -2987.923          42.000    20054739.076  
  82120812.192       -2328.511          44.000  
  21111616.091   110942279.102       -3512.815          44.000                  
                                                
  23250567.184   122182538.902       -3560.824          37.000    23250564.290  
  95207183.278       -2774.074          35.000  
  18808369.373    98838635.977       -2214.020          47.000    18808363.615  
  77017111.806       -1725.153          47.000  
  21513537.819   113054383.358        2749.907          43.000    21513531.395  
  88094315.109        2143.024          38.000  
  21873156.610   114944233.149        2634.961          35.000                  
                                                
  23392209.418                       -2430.377          30.000    23392213.768  
  95787191.983       -1892.972          33.000  
 21  4 24 15 13 47.9930000  0 10G 4G 7G 8G 9G16G26G27G30G21G18
  21555602.790   113275431.859       -4101.312          42.000    21555597.208  
  88266569.378       -3195.770          40.000  
  18783909.182    98710094.153        1304.578          44.000    18783901.510  
  76916945.867        1016.229          43.000  
  18169520.683    95481451.967         325.537          49.000    18169514.288  
  74401127.348         253.844          43.000  
  20055313.381   105391375.298       -2988.433          42.000    20055307.778  
  82123140.705       -2328.629          44.000  
  21112284.578   110945792.102       -3513.036          45.000                  
                                                
  23251244.821   122186099.877       -3560.997          37.000    23251242.000  
  95209958.085       -2774.632          35.000  
  18808790.726    98840850.389       -2214.771          47.000    18808785.004  
  77018837.326       -1725.769          47.000  
  21513014.498   113051633.377        2750.111          43.000    21513008.042  
  88092172.269        2142.934          38.000  
  21872655.284   114941598.244        2635.028          35.000                  
                                                
  23392671.535                       -2430.464          29.000    23392676.381  
  95789085.594       -1894.262          32.000  
 21  4 24 15 13 48.9930000  0 10G 4G 7G 8G 9G16G26G27G30G21G18
  21556383.272   113279533.264       -4101.375          42.000    21556377.728  
  88269765.297       -3195.998          40.000  
  18783660.890    98708789.978        1304.254          44.000    18783653.379  
  76915929.619        1016.144          43.000  
  18169458.705    95481126.772         324.830          49.000    18169452.428  
  74400873.951         253.057          43.000  
  20055882.077   105394364.032       -2988.942          42.000    20055876.606  
  82125469.581       -2328.891          44.000  
  21112953.055   110949305.156       -3512.902          45.000                  
                                                
  23251922.433   122189660.828       -3560.571          37.000    23251919.587  
  95212732.882       -2774.896          35.000  
  18809212.280    98843065.375       -2215.125          47.000    18809206.485  
  77020563.301       -1726.093          47.000  
  21512491.224   113048883.516        2749.851          44.000    21512484.826  
  88090029.525        2142.851          38.000  
  21872153.854   114938963.458        2635.010          35.000                  
                                                
  23393133.647                       -2430.558          29.000    23393138.961  
  95790979.565       -1894.565          33.000  
 21  4 24 15 13 49.9930000  0 10G 4G 7G 8G 9G16G26G27G30G21G18
  21557163.717   113283634.702       -4101.527          42.000    21557158.136  
  88272961.215       -3196.059          40.000  
  18783412.817    98707486.085        1303.644          44.000    18783405.182  
  76914913.602        1015.863          43.000  
  18169396.896    95480802.114         324.158          49.000    18169390.633  
  74400620.977         252.728          43.000  
  20056450.842   105397353.093       -2989.235          42.000    20056445.307  
  82127798.726       -2329.125          44.000  
  21113621.633   110952818.198       -3513.005          45.000                  
                                                
  23252600.009   122193221.686       -3561.308          37.000    23252597.221  
  95215507.539       -2774.809          35.000  
  18809633.862    98845280.865       -2215.808          47.000    18809628.048  
  77022289.653       -1726.575          47.000  
  21511967.861   113046133.666        2749.755          43.000    21511961.439  
  88087886.808        2142.483          38.000  
  21871652.718   114936328.698        2634.357          35.000                  
                                                
  23393596.242                       -2430.823          29.000    23393601.725  
  95792873.824       -1894.583          33.000  
 21  4 24 15 13 50.9930000  0 10G 4G 7G 8G 9G16G26G27G30G21G18
  21557944.086   113287736.187       -4101.232          42.000    21557938.749  
  88276157.171       -3195.832          40.000  
  18783164.675    98706182.469        1303.619          44.000    18783157.206  
  76913897.798        1015.808          43.000  
  18169335.255    95480478.007         324.058          49.000    18169328.954  
  74400368.427         252.754          43.000  
  20057019.667   105400342.525       -2989.414          42.000    20057014.181  
  82130128.148       -2329.436          44.000  
  21114290.237   110956331.246       -3512.736          45.000                  
                                                
  23253277.668   122196782.370       -3560.365          37.000    23253274.730  
  95218282.114       -2774.333          35.000  
  18810055.441    98847496.839       -2215.948          47.000    18810049.740  
  77024016.398       -1726.740          47.000  
  21511444.568   113043383.843        2749.986          43.000    21511438.114  
  88085744.074        2143.051          38.000  
  21871151.538   114933693.876        2634.882          35.000                  
                                                
  23394058.747                       -2430.952          28.000    23394064.624  
  95794768.389       -1894.664          32.000  
 21  4 24 15 13 51.9930000  0 10G 4G 7G 8G 9G16G26G27G30G21G18
  21558724.651   113291837.794       -4101.303          42.000    21558719.363  
  88279353.232       -3195.947          41.000  
  18782916.730    98704879.217        1303.296          44.000    18782909.157  
  76912882.287        1015.302          43.000  
  18169273.653    95480154.593         323.317          49.000    18169267.484  
  74400116.411         251.785          43.000  
  20057588.680   105403332.418       -2989.911          42.000    20057583.116  
  82132457.929       -2329.724          44.000  
  21114958.734   110959844.368       -3513.055          45.000                  
                                                
  23253955.250   122200343.087       -3560.786          37.000    23253952.270  
  95221056.665       -2774.517          35.000  
  18810477.213    98849713.415       -2216.577          47.000    18810471.481  
  77025743.602       -1727.325          47.000  
  21510921.308   113040634.152        2749.398          43.000    21510914.812  
  88083601.446        2142.694          38.000  
  21870650.333   114931059.167        2634.674          35.000                  
                                                
  23394521.272                       -2431.989          28.000    23394527.596  
  95796663.371       -1894.747          33.000  
 21  4 24 15 13 52.9930000  0 10G 4G 7G 8G 9G16G26G27G30G21G18
  21559505.196   113295939.408       -4101.806          42.000    21559499.849  
  88282549.302       -3196.537          41.000  
  18782668.711    98703576.202        1302.643          44.000    18782661.307  
  76911866.948        1015.100          43.000  
  18169212.109    95479831.657         322.472          49.000    18169206.002  
  74399864.777         251.174          43.000  
  20058157.737   105406322.597       -2990.375          42.000    20058152.248  
  82134787.947       -2330.401          44.000  
  21115627.295   110963357.433       -3513.332          45.000                  
                                                
  23254632.884   122203903.593       -3560.617          37.000    23254629.805  
  95223831.090       -2774.690          35.000  
  18810899.102    98851930.449       -2217.523          47.000    18810893.394  
  77027471.157       -1727.997          47.000  
  21510398.056   113037884.382        2749.393          43.000    21510391.525  
  88081458.777        2142.708          38.000  
  21870149.221   114928424.398        2634.515          35.000                  
                                                
  23394983.969                       -2432.141          27.000    23394990.318  
  95798558.565       -1895.043          32.000  
 21  4 24 15 13 53.9930000  0 10G 4G 7G 8G 9G16G26G27G30G21G18
  21560285.748   113300041.239       -4101.800          42.000    21560280.423  
  88285745.519       -3196.197          41.000  
  18782420.831    98702273.666        1302.271          44.000    18782413.510  
  76910851.986        1014.716          43.000  
  18169150.788    95479509.498         321.768          49.000    18169144.671  
  74399613.743         250.749          43.000  
  20058726.892   105409313.366       -2990.946          42.000    20058721.394  
  82137118.403       -2330.867          44.000  
  21116295.817   110966870.674       -3513.237          45.000                  
                                                
  23255310.337   122207464.205       -3560.497          37.000    23255307.383  
  95226605.578       -2774.065          34.000  
  18811321.145    98854148.170       -2218.195          47.000    18811315.396  
  77029199.250       -1728.491          47.000  
  21509874.803   113035134.842        2749.616          43.000    21509868.372  
  88079316.272        2142.973          38.000  
  21869648.081   114925789.829        2634.784          36.000                  
                                                
  23395446.713                       -2433.609          27.000    23395453.227  
  95800454.282       -1895.723          32.000  
 21  4 24 15 13 54.9930000  0 10G 4G 7G 8G 9G16G26G27G30G21G18
  21561066.245   113304143.219       -4102.145          42.000    21561061.000  
  88288941.875       -3196.826          41.000  
  18782173.061    98700971.501        1302.026          44.000    18782165.816  
  76909837.304        1014.478          43.000  
  18169089.591    95479188.008         321.237          49.000    18169083.341  
  74399363.228         250.121          43.000  
  20059296.069   105412304.546       -2991.120          42.000    20059290.626  
  82139449.198       -2331.097          44.000  
  21116964.410   110970383.995       -3513.326          45.000                  
                                                
  23255987.836   122211024.776       -3560.844          37.000    23255984.915  
  95229380.070       -2774.301          35.000  
  18811743.311    98856366.476       -2218.567          47.000    18811737.546  
  77030927.796       -1728.796          47.000  
  21509351.659   113032385.426        2749.289          43.000    21509345.238  
  88077173.895        2142.356          38.000  
  21869146.804   114923155.347        2634.601          36.000                  
                                                
  23395909.530                       -2433.728          27.000    23395916.450  
  95802350.359       -1895.815          32.000  
 21  4 24 15 13 55.9930000  0 10G 4G 7G 8G 9G16G26G27G30G21G18
  21561846.790   113308245.233       -4101.799          42.000    21561841.645  
  88292138.245       -3196.331          41.000  
  18781925.273    98699669.633        1301.495          43.000    18781917.958  
  76908822.863        1014.313          43.000  
  18169028.508    95478867.114         320.653          49.000    18169022.271  
  74399113.184         249.865          42.000  
  20059865.315   105415296.132       -2991.810          41.000    20059859.886  
  82141780.305       -2331.297          44.000  
  21117633.076   110973897.329       -3513.375          45.000                  
                                                
  23256665.379   122214585.261       -3560.484          36.000    23256662.487  
  95232154.474       -2774.302          35.000  
  18812165.561    98858585.298       -2219.012          47.000    18812159.803  
  77032656.756       -1729.169          47.000  
  21508828.384   113029636.053        2749.483          43.000    21508822.131  
  88075031.519        2142.233          38.000  
  21868645.597   114920520.884        2634.906          36.000                  
                                                
  23396372.325                       -2434.755          26.000    23396379.402  
                     -1896.929          32.000  
 21  4 24 15 13 56.9930000  0 10G 4G 7G 8G 9G16G26G27G30G21G18
  21562627.378   113312347.379       -4102.172          41.000    21562622.250  
  88295334.729       -3196.743          41.000  
  18781677.737    98698368.104        1301.385          43.000    18781670.314  
  76907808.696        1013.861          43.000  
  18168967.643    95478546.850         319.890          49.000    18168961.362  
  74398863.629         249.104          43.000  
  20060434.592   105418288.141       -2992.261          41.000    20060429.223  
  82144111.736       -2331.782          44.000  
  21118301.657   110977410.716       -3513.577          45.000                  
                                                
  23257342.860   122218145.715       -3560.314          36.000    23257339.985  
  95234928.850       -2774.442          35.000  
  18812587.856    98860804.698       -2219.696          48.000    18812582.213  
  77034386.156       -1729.608          47.000  
  21508305.198   113026886.774        2748.991          43.000    21508299.048  
  88072889.234        2141.903          38.000  
  21868144.345   114917886.491        2634.497          36.000                  
                                                
  23396835.294                       -2434.783          26.000    23396842.366  
                     -1896.374          31.000  
 21  4 24 15 13 57.9930000  0 10G 4G 7G 8G 9G16G26G27G30G21G18
  21563408.009   113316449.752       -4102.725          41.000    21563402.947  
  88298531.353       -3196.631          41.000  
  18781430.109    98697067.064        1300.494          44.000    18781422.645  
  76906794.887        1013.550          43.000  
  18168906.841    95478227.326         319.250          49.000    18168900.579  
  74398614.651         248.580          42.000  
  20061004.047   105421280.687       -2992.851          41.000    20060998.689  
  82146443.586       -2332.220          44.000  
  21118970.291   110980924.275       -3513.598          45.000                  
                                                
  23258020.387   122221706.216       -3560.229          36.000    23258017.466  
  95237703.267       -2774.591          35.000  
  18813010.283    98863024.778       -2220.520          48.000    18813004.661  
  77036116.091       -1730.383          47.000  
  21507781.953   113024137.669        2749.053          43.000    21507775.978  
  88070747.092        2141.633          38.000  
  21867643.159   114915252.295        2634.161          36.000                  
                                                
  23397298.474                       -2435.162          26.000    23397305.472  
                     -1898.174          31.000  
 21  4 24 15 13 58.9930000  0 10G 4G 7G 8G 9G16G26G27G30G21G18
  21564188.746   113320552.338       -4102.606          41.000    21564183.689  
  88301728.189       -3196.758          41.000  
  18781182.559    98695766.488        1300.385          44.000    18781175.226  
  76905781.456        1013.184          43.000  
  18168846.261    95477908.582         318.450          49.000    18168839.913  
  74398366.271         248.309          42.000  
  20061573.627   105424273.787       -2993.092          41.000    20061568.278  
  82148775.876       -2332.561          44.000  
  21119638.853   110984438.025       -3513.830          45.000                  
                                                
  23258697.883   122225266.822       -3560.446          36.000    23258695.024  
  95240477.778       -2774.744          35.000  
  18813432.916    98865245.547       -2220.990          48.000    18813427.177  
  77037846.558       -1730.707          47.000  
  21507258.939   113021388.810        2748.785          43.000    21507252.916  
  88068605.102        2142.054          37.000  
  21867141.981   114912618.273        2634.058          36.000                  
                                                
  23397758.084                3      -2434.070          26.000    23397768.689  
                     -1897.960          31.000  
 21  4 24 15 13 59.9930000  0 10G 4G 7G 8G 9G16G26G27G30G21G18
  21564969.559   113324655.226       -4102.738          41.000    21564964.399  
  88304925.259       -3197.280          41.000  
  18780935.188    98694466.454        1299.725          44.000    18780927.805  
  76904768.443        1012.781          44.000  
  18168785.720    95477590.645         317.533          49.000    18168779.443  
  74398118.522         247.478          42.000  
  20062143.305   105427267.525       -2994.107          41.000    20062137.950  
  82151108.650       -2332.978          44.000  
  21120307.484   110987952.016       -3514.023          45.000                  
                                                
  23259375.513   122228827.565       -3560.700          37.000    23259372.651  
  95243252.363       -2774.488          35.000  
  18813855.645    98867467.074       -2221.893          48.000    18813849.943  
  77039577.610       -1731.274          47.000  
  21506735.883   113018640.221        2748.567          43.000    21506729.843  
  88066463.351        2141.546          37.000  
  21866640.950   114909984.544        2633.374          36.000                  
                                                
  23398212.541                3      -2437.515          25.000    23398232.261  
  95811836.649       -1898.661          31.000  
 21  4 24 15 14  0.9930000  0 10G 4G 7G 8G 9G16G26G27G30G21G18
  21565750.307   113328758.295       -4103.145          41.000    21565745.209  
  88308122.428       -3197.014          41.000  
  18780687.861    98693166.808        1299.451          44.000    18780680.696  
  76903755.726        1012.598          43.000  
  18168725.341    95477273.381         316.928          49.000    18168719.058  
  74397871.318         246.878          42.000  
  20062713.068   105430261.704       -2994.475          42.000    20062707.711  
  82153441.782       -2333.303          44.000  
  21120976.200   110991466.106       -3514.227          45.000                  
                                                
  23260053.009   122232388.303       -3560.719          37.000    23260050.218  
  95246026.954       -2774.712          35.000  
  18814278.487    98869689.201       -2222.491          48.000    18814272.775  
  77041309.146       -1731.818          47.000  
  21506212.866   113015891.765        2748.362          43.000    21506206.856  
  88064321.707        2141.465          37.000  
  21866139.794   114907350.869        2634.003          36.000                  
                                                
  23398668.728                3      -2436.977          25.000    23398695.929  
                     -1898.627          32.000  
 21  4 24 15 14  1.9930000  0 10G 4G 7G 8G 9G16G26G27G30G21G18
  21566531.143   113332861.730       -4103.435          41.000    21566526.064  
  88311319.924       -3197.564          41.000  
  18780440.761    98691867.801        1298.877          44.000    18780433.434  
  76902743.523        1011.951          43.000  
  18168665.102    95476957.045         315.970          49.000    18168658.868  
  74397624.823         246.252          43.000  
  20063282.982   105433256.622       -2995.215          42.000    20063277.589  
  82155775.479       -2333.765          44.000  
  21121644.901   110994980.547       -3514.578          45.000                  
                                                
  23260730.665   122235949.294       -3561.273          37.000    23260727.900  
  95248801.754       -2775.102          35.000  
  18814701.516    98871912.194       -2223.364          48.000    18814695.734  
  77043041.341       -1732.318          47.000  
  21505689.858   113013143.679        2748.163          43.000    21505683.819  
  88062180.343        2141.451          37.000  
  21865638.748   114904717.584        2633.380          36.000                  
                                                
  23399124.983                3      -2437.262          25.000    23399159.602  
                     -1899.299          31.000  
 21  4 24 15 14  2.9930000  0 10G 4G 7G 8G 9G16G26G27G30G21G18
  21567312.064   113336965.324       -4103.916          41.000    21567306.971  
  88314517.535       -3198.071          41.000  
  18780193.583    98690569.190        1298.102          44.000    18780186.284  
  76901731.608        1011.456          43.000  
  18168605.082    95476641.400         314.986          49.000    18168598.896  
  74397378.848         245.774          43.000  
  20063852.940   105436251.996       -2995.796          42.000    20063847.642  
  82158109.533       -2334.277          44.000  
  21122313.682   110998495.074       -3514.783          45.000                  
                                                
  23261408.266   122239510.251       -3560.918          37.000    23261405.603  
  95251576.526       -2774.937          35.000  
  18815124.662    98874135.785       -2224.060          48.000    18815118.871  
  77044774.017       -1733.106          47.000  
  21505166.975   113010395.750        2747.381          43.000    21505160.904  
  88060039.077        2140.747          36.000  
  21865137.767   114902084.416        2633.112          36.000                  
                                                
  23399584.004                3      -2437.421          24.000    23399623.587  
                     -1900.132          31.000  
 21  4 24 15 14  3.9930000  0 10G 4G 7G 8G 9G16G26G27G30G21G18
  21568093.065   113341069.011       -4103.772          42.000    21568087.989  
  88317715.200       -3197.680          41.000  
  18779946.594    98689270.914        1297.961          44.000    18779939.158  
  76900719.973        1011.273          43.000  
  18168545.203    95476326.359         314.657          49.000    18168538.848  
  74397133.382         245.103          43.000  
  20064423.038   105439247.782       -2996.209          42.000    20064417.807  
  82160443.918       -2334.510          44.000  
  21122982.518   111002009.664       -3514.842          45.000                  
                                                
  23262085.882   122243071.202       -3560.936          37.000    23262083.220  
  95254351.294       -2775.363          35.000  
  18815548.037    98876359.941       -2224.512          48.000    18815542.133  
  77046507.121       -1733.344          47.000  
  21504643.969   113007647.874        2747.543          43.000    21504637.980  
  88057897.885        2141.009          37.000  
  21864636.793   114899451.313        2632.849          36.000                  
                                                
  23400044.145                3      -2438.655          24.000    23400087.504  
                     -1900.505          31.000  
 21  4 24 15 14  4.9930000  0 10G 4G 7G 8G 9G16G26G27G30G21G18
  21568874.079   113345172.954       -4103.956          41.000    21568869.063  
  88320913.087       -3198.092          41.000  
  18779699.571    98687973.137        1297.589          44.000    18779692.325  
  76899708.710        1011.133          43.000  
  18168485.372    95476012.091         313.888          49.000    18168479.107  
  74396888.485         244.606          43.000  
  20064993.187   105442244.141       -2996.385          42.000    20064987.945  
  82162778.756       -2335.069          44.000  
  21123651.395   111005524.434       -3514.710          45.000                  
                                                
  23262763.539   122246632.229       -3561.297          37.000    23262760.874  
  95257126.084       -2774.698          35.000  
  18815971.470    98878584.812       -2225.317          48.000    18815965.537  
  77048240.785       -1733.832          47.000  
  21504121.018   113004900.224        2747.600          43.000    21504115.057  
  88055756.850        2140.476          37.000  
  21864135.875   114896818.383        2632.770          36.000                  
                                                
  23400504.383                3      -2439.074          24.000    23400551.317  
                     -1901.100          31.000  
 21  4 24 15 14  5.9930000  0 10G 4G 7G 8G 9G16G26G27G30G21G18
  21569655.091   113349276.942       -4103.967          41.000    21569649.967  
  88324111.002       -3197.836          41.000  
  18779452.608    98686675.643        1297.406          44.000    18779445.380  
  76898697.686        1010.895          43.000  
  18168425.669    95475698.414         313.511          49.000    18168419.440  
  74396644.066         244.360          43.000  
  20065563.308   105445240.889       -2996.682          42.000    20065558.203  
  82165113.876       -2335.257          44.000  
  21124320.285   111009039.224       -3514.756          45.000                  
                                                
  23263441.196   122250193.120       -3560.979          37.000    23263438.519  
  95259900.852       -2775.227          35.000  
  18816394.954    98880810.182       -2225.531          48.000    18816388.954  
  77049974.842       -1734.088          47.000  
  21503598.190   113002152.621        2747.627          43.000    21503592.193  
  88053615.868        2141.029          37.000  
  21863634.970   114894185.506        2632.764          36.000                  
                                                
  23400963.955                3      -2440.280          24.000    23401015.097  
                     -1900.988          30.000  
 21  4 24 15 14  6.9930000  0 10G 4G 7G 8G 9G16G26G27G30G21G18
  21570436.166   113353380.963       -4104.324          41.000    21570431.025  
  88327308.925       -3198.091          41.000  
  18779205.817    98685378.432        1296.808          44.000    18779198.640  
  76897686.852        1010.638          43.000  
  18168366.083    95475385.280         312.797          49.000    18168359.823  
  74396400.084         243.538          43.000  
  20066133.558   105448237.964       -2997.327          42.000    20066128.553  
  82167449.257       -2335.615          44.000  
  21124989.219   111012553.983       -3514.932          45.000                  
                                                
  23264118.893   122253753.913       -3561.238          37.000    23264116.146  
  95262675.459       -2774.677          35.000  
  18816818.441    98883036.031       -2226.105          48.000    18816812.555  
  77051709.277       -1734.747          47.000  
  21503075.342   112999405.005        2747.527          43.000    21503069.321  
  88051474.858        2141.226          37.000  
  21863133.962   114891552.573        2632.904          36.000                  
                                                
  23401428.574                3      -2438.640          24.000    23401479.088  
                     -1901.589          30.000  
 21  4 24 15 14  7.9930000  0 10G 4G 7G 8G 9G16G26G27G30G21G18
  21571217.218   113357485.254       -4104.499          41.000    21571211.984  
  88330507.079       -3198.224          41.000  
  18778959.061    98684081.717        1296.362          44.000    18778951.908  
  76896676.436        1010.181          44.000  
  18168306.735    95475072.950         311.868          49.000    18168300.446  
  74396156.695         242.933          43.000  
  20066703.980   105451235.633       -2997.960          42.000    20066698.967  
  82169785.105       -2336.062          45.000  
  21125658.125   111016068.963       -3515.221          45.000                  
                                                
  23264796.539   122257314.821       -3561.123          37.000    23264793.732  
  95265450.216       -2775.227          35.000  
  18817242.122    98885262.623       -2226.929          48.000    18817236.140  
  77053444.276       -1735.236          47.000  
  21502552.555   112996657.669        2747.037          43.000    21502546.526  
  88049334.080        2140.673          37.000  
  21862633.103   114888919.894        2632.806          36.000                  
                                                
  23401892.458                3      -2440.546          24.000    23401943.228  
                     -1900.945          30.000  
 21  4 24 15 14  8.9930000  0 10G 4G 7G 8G 9G16G26G27G30G21G18
  21571998.237   113361589.412       -4104.133          41.000    21571992.992  
  88333705.133       -3198.176          41.000  
  18778712.271    98682785.131        1296.649          44.000    18778705.075  
  76895666.110        1010.278          43.000  
  18168247.390    95474761.010         311.673          49.000    18168241.054  
  74395913.623         242.906          43.000  
  20067274.436   105454233.504       -2998.024          42.000    20067269.482  
  82172121.098       -2335.951          45.000  
  21126327.046   111019583.760       -3514.723          45.000                  
                                                
  23265473.971   122260875.461       -3560.780          37.000    23265471.245  
  95268224.724       -2775.221          35.000  
  18817665.804    98887489.539       -2227.075          48.000    18817659.995  
  77055179.540       -1735.321          47.000  
  21502029.722   112993910.175        2747.638          43.000    21502023.688  
  88047193.193        2140.751          37.000  
  21862132.212   114886287.057        2633.173          36.000                  
                                                
  23402358.987                3      -2444.734          24.000    23402407.368  
                     -1901.561          29.000  
 21  4 24 15 14  9.9930000  0 10G 4G 7G 8G 9G16G26G27G30G21G18
  21572779.275   113365693.681       -4104.130          41.000    21572773.972  
  88336903.243       -3197.997          41.000  
  18778465.606    98681488.899        1296.161          44.000    18778458.358  
  76894656.054        1009.906          43.000  
  18168188.099    95474449.706         311.122          49.000    18168181.768  
  74395671.044         242.513          43.000  
  20067844.976   105457231.795       -2998.360          42.000    20067840.120  
  82174457.434       -2336.430          45.000  
  21126995.896   111023098.622       -3514.874          45.000                  
                                                
  23266151.525   122264436.008       -3560.372          37.000    23266148.784  
  95270999.163       -2774.144          35.000  
  18818089.668    98889717.023       -2227.606          48.000    18818083.910  
  77056915.238       -1735.864          47.000  
  21501506.843   112991162.770        2747.672          43.000    21501500.863  
  88045052.330        2141.394          37.000  
  21861631.383   114883654.299        2632.849          36.000                  
                                                
  23402824.374                3      -2440.586          25.000    23402871.521  
                     -1902.336          29.000  
 21  4 24 15 14 10.9930000  0 10G 4G 7G 8G 9G16G26G27G30G21G18
  21573560.384   113369798.050       -4104.524          41.000    21573555.040  
  88340101.460       -3198.484          41.000  
  18778219.020    98680192.993        1295.715          44.000    18778211.607  
  76893646.258        1009.638          43.000  
  18168128.934    95474138.999         310.347          49.000    18168122.644  
  74395428.934         241.843          43.000  
  20068415.627   105460230.493       -2998.968          42.000    20068410.890  
  82176794.081       -2337.030          45.000  
  21127664.805   111026613.525       -3514.950          45.000                  
                                                
  23266829.083   122267996.553       -3560.622          37.000    23266826.293  
  95273773.610       -2774.657          35.000  
  18818513.651    98891945.065       -2228.485          47.000    18818507.996  
  77058651.368       -1736.401          47.000  
  21500984.167   112988415.450        2747.307          43.000    21500978.067  
  88042911.579        2140.649          37.000  
  21861130.516   114881021.586        2632.178          36.000                  
                                                
  23403289.989                3      -2442.154          25.000    23403335.646  
                     -1902.389          29.000  
 21  4 24 15 14 11.9930000  0 10G 4G 7G 8G 9G16G26G27G30G21G18
  21574341.377   113373902.480       -4104.604          41.000    21574336.131  
  88343299.712       -3198.477          41.000  
  18777972.531    98678897.411        1295.459          44.000    18777965.063  
  76892636.714        1009.387          43.000  
  18168069.896    95473828.889         309.693          49.000    18168063.610  
  74395187.285         241.436          43.000  
  20068986.326   105463229.590       -2999.412          42.000    20068981.635  
  82179131.031       -2337.109          45.000  
  21128333.629   111030128.434       -3514.790          45.000                  
                                                
  23267506.520   122271556.996       -3560.709          37.000    23267503.850  
  95276547.928       -2773.874          35.000  
  18818937.714    98894173.622       -2228.949          47.000    18818932.142  
  77060387.910       -1736.761          47.000  
  21500461.317   112985668.179        2747.110          42.000    21500455.223  
  88040770.854        2140.495          37.000  
  21860629.645   114878388.892        2632.574          36.000                  
                                                
  23403754.859                3      -2442.075          25.000    23403800.320  
                     -1902.809          29.000  
 21  4 24 15 14 12.9930000  0 10G 4G 7G 8G 9G16G26G27G30G21G18
  21575122.373   113378006.939       -4104.449          41.000    21575117.271  
  88346497.983       -3198.353          41.000  
  18777726.026    98677602.090        1295.367          44.000    18777718.566  
  76891627.383        1009.265          43.000  
  18168010.938    95473519.318         309.332          49.000    18168004.572  
  74394946.067         241.072          43.000  
  20069557.115   105466229.012       -2999.391          42.000    20069552.458  
  82181468.265       -2337.437          45.000  
  21129002.416   111033643.342       -3514.974          45.000                  
                                                
  23268183.972   122275117.284       -3559.912          37.000    23268181.312  
  95279322.224       -2774.070          35.000  
  18819361.870    98896402.664       -2229.291          47.000    18819356.339  
  77062124.822       -1737.018          47.000  
  21499938.659   112982920.904        2747.291          42.000    21499932.476  
  88038630.131        2140.775          37.000  
  21860128.697   114875756.190        2632.440          36.000                  
                                                
  23404220.988                3      -2441.761          26.000    23404264.862  
                     -1902.711          29.000  
 21  4 24 15 14 13.9930000  0 10G 4G 7G 8G 9G16G26G27G30G21G18
  21575903.467   113382111.552       -4104.708          41.000    21575898.434  
  88349696.379       -3198.383          41.000  
  18777479.631    98676307.197        1294.586          44.000    18777472.198  
  76890618.372        1008.746          43.000  
  18167952.277    95473210.437         308.567          49.000    18167945.898  
  74394705.379         240.341          43.000  
  20070127.932   105469228.948       -3000.258          42.000    20070123.335  
  82183805.862       -2337.976          45.000  
  21129671.362   111037158.348       -3515.096          45.000                  
                                                
  23268861.512   122278677.624       -3560.510          37.000    23268858.892  
  95282096.496       -2774.367          35.000  
  18819786.107    98898632.346       -2230.054          47.000    18819780.646  
  77063862.234       -1737.701          47.000  
  21499415.936   112980173.793        2746.909          42.000    21499409.722  
  88036489.514        2140.615          37.000  
  21859627.778   114873123.617        2632.251          36.000                  
                                                
  23404689.150                3      -2444.000          26.000    23404729.560  
                     -1903.597          30.000  
 21  4 24 15 14 14.9930000  0 10G 4G 7G 8G 9G16G26G27G30G21G18
  21576684.660   113386216.426       -4104.600          41.000    21576679.583  
  88352894.988       -3198.486          41.000  
  18777233.381    98675012.795        1294.293          44.000    18777225.874  
  76889609.738        1008.667          43.000  
  18167893.611    95472902.332         307.860          49.000    18167887.216  
  74394465.292         239.998          43.000  
  20070698.918   105472229.436       -3000.512          42.000    20070694.238  
  82186143.900       -2337.944          45.000  
  21130340.231   111040673.563       -3515.123          45.000                  
                                                
  23269539.085   122282238.067       -3560.455          37.000    23269536.467  
  95284870.851       -2774.175          35.000  
  18820210.520    98900862.722       -2230.347          47.000    18820205.068  
  77065600.199       -1738.172          47.000  
  21498893.271   112977426.908        2746.985          42.000    21498886.988  
  88034349.102        2140.348          37.000  
  21859126.956   114870491.279        2632.233          36.000                  
                                                
  23405156.674                3      -2443.799          26.000    23405194.210  
                     -1904.196          29.000  
 21  4 24 15 14 15.9930000  0 10G 4G 7G 8G 9G16G26G27G30G21G18
  21577465.731   113390321.420       -4105.137          41.000    21577460.776  
  88356093.669       -3198.782          41.000  
  18776987.142    98673718.727        1293.939          44.000    18776979.611  
  76888601.384        1008.289          43.000  
  18167835.050    95472594.831         307.382          49.000    18167828.714  
  74394225.679         239.617          43.000  
  20071269.942   105475230.354       -3000.890          42.000    20071265.408  
  82188482.293       -2338.767          45.000  
  21131009.213   111044188.818       -3515.375          45.000                  
                                                
  23270216.603   122285798.428       -3560.460          37.000    23270214.023  
  95287645.158       -2773.960          34.000  
  18820635.094    98903093.666       -2231.177          47.000    18820629.574  
  77067338.589       -1738.666          47.000  
  21498370.480   112974680.117        2746.731          42.000    21498364.281  
  88032208.719        2140.730          37.000  
  21858626.171   114867858.977        2632.678          36.000                  
                                                
  23405621.581                3      -2444.778          25.000    23405659.141  
                     -1904.034          29.000  
 21  4 24 15 14 16.9930000  0 10G 4G 7G 8G 9G16G26G27G30G21G18
  21578246.936   113394426.464       -4105.021          42.000    21578242.008  
  88359292.417       -3198.921          41.000  
  18776740.929    98672424.982        1293.585          44.000    18776733.484  
  76887593.274        1007.880          43.000  
  18167776.668    95472287.953         306.424          49.000    18167770.382  
  74393986.561         238.722          43.000  
  20071841.082   105478231.673       -3001.644          42.000    20071836.528  
  82190820.971       -2339.044          45.000  
  21131678.191   111047704.106       -3515.324          45.000                  
                                                
  23270894.035   122289358.757       -3560.909          37.000    23270891.558  
  95290419.432       -2774.277          35.000  
  18821059.674    98905325.149       -2231.897          47.000    18821054.283  
  77069077.408       -1739.166          47.000  
  21497847.750   112971933.387        2746.520          42.000    21497841.628  
  88030068.421        2140.332          37.000  
  21858125.320   114865226.752        2631.995          36.000                  
                                                
  23406083.472                3      -2443.482          25.000    23406124.056  
                     -1904.664          29.000  
 21  4 24 15 14 17.9930000  0 10G 4G 7G 8G 9G16G26G27G30G21G18
  21579028.118   113398531.892       -4105.369          41.000    21579023.183  
  88362491.452       -3199.028          42.000  
  18776494.934    98671131.865        1292.926          44.000    18776487.488  
  76886585.640        1007.556          43.000  
  18167718.447    95471981.953         305.719          49.000    18167712.337  
  74393748.116         238.314          43.000  
  20072412.251   105481233.656       -3002.225          42.000    20072407.710  
  82193160.183       -2339.356          44.000  
  21132347.253   111051219.711       -3515.538          45.000                  
                                                
  23271571.642   122292919.267       -3560.797          37.000    23271569.226  
  95293193.827       -2773.973          34.000  
  18821484.573    98907557.443       -2232.556          47.000    18821479.085  
  77070816.854       -1739.624          47.000  
  21497325.034   112969186.993        2746.531          42.000    21497319.030  
  88027928.381        2140.393          37.000  
  21857624.570   114862594.841        2631.897          36.000                  
                                                
  23406548.920                3      -2443.344          25.000    23406589.056  
                     -1905.770          28.000  
 21  4 24 15 14 18.9930000  0 10G 4G 7G 8G 9G16G26G27G30G21G18
  21579809.283   113402637.422       -4105.728          41.000    21579804.381  
  88365690.566       -3199.442          42.000  
  18776248.919    98669839.077        1292.560          44.000    18776241.463  
  76885578.289        1006.982          43.000  
  18167660.351    95471676.598         304.823          49.000    18167654.227  
  74393510.174         237.563          43.000  
  20072983.592   105484236.090       -3002.776          42.000    20072979.043  
  82195499.743       -2339.908          44.000  
  21133016.325   111054735.383       -3515.836          45.000                  
                                                
  23272249.220   122296479.734       -3560.606          37.000    23272246.868  
  95295968.232       -2774.021          34.000  
  18821909.532    98909790.319       -2233.417          47.000    18821903.946  
  77072556.755       -1740.155          47.000  
  21496802.466   112966440.709        2746.265          42.000    21496796.526  
  88025788.421        2139.731          37.000  
  21857123.758   114859963.000        2631.653          36.000                  
                                                
  23407011.923                3      -2446.906          25.000    23407054.001  
                     -1905.875          28.000  
 21  4 24 15 14 19.9930000  0 10G 4G 7G 8G 9G16G26G27G30G21G18
  21580590.553   113406743.161       -4105.543          41.000    21580585.668  
  88368889.843       -3199.269          42.000  
  18776002.927    98668546.775        1292.267          44.000    18775995.599  
  76884571.298        1006.873          43.000  
  18167602.326    95471372.007         304.473          49.000    18167596.234  
  74393272.832         237.204          43.000  
  20073555.016   105487239.039       -3002.644          42.000    20073550.594  
  82197839.707       -2339.890          45.000  
  21133685.331   111058251.228       -3515.805          45.000                  
                                                
  23272926.828   122300040.279       -3560.490          37.000    23272924.459  
  95298742.680       -2774.320          34.000  
  18822334.481    98912023.868       -2233.691          47.000    18822329.071  
  77074297.180       -1740.479          47.000  
  21496279.846   112963694.612        2746.461          42.000    21496274.015  
  88023648.596        2140.223          37.000  
  21856623.139   114857331.353        2631.647          36.000                  
                                                
  23407474.411                3      -2446.429          25.000    23407519.182  
                     -1905.839          28.000  
 21  4 24 15 14 20.9930000  0 10G 4G 7G 8G 9G16G26G27G30G21G18
  21581371.899   113410849.032       -4105.938          42.000    21581367.065  
  88372089.203       -3199.384          42.000  
  18775757.065    98667254.806        1291.815          44.000    18775749.762  
  76883564.570        1006.549          43.000  
  18167544.502    95471068.041         303.442          49.000    18167538.551  
  74393035.974         236.640          43.000  
  20074126.459   105490242.436       -3003.434          42.000    20074122.085  
  82200180.005       -2340.294          45.000  
  21134354.422   111061767.111       -3516.025          45.000                  
                                                
  23273604.429   122303600.766       -3560.798          38.000    23273602.012  
  95301517.065       -2774.153          34.000  
  18822759.648    98914257.972       -2234.521          47.000    18822754.206  
  77076038.039       -1741.089          47.000  
  21495757.306   112960948.628        2745.688          42.000    21495751.462  
  88021508.872        2139.479          37.000  
  21856122.411   114854699.758        2632.123          36.000                  
                                                
  23407940.998                3      -2446.948          25.000    23407984.400  
                     -1906.817          27.000  
 21  4 24 15 14 21.9930000  0 10G 4G 7G 8G 9G16G26G27G30G21G18
  21582153.223   113414955.215       -4106.331          42.000    21582148.469  
  88375288.832       -3199.442          42.000  
  18775511.404    98665963.444        1291.138          44.000    18775504.029  
  76882558.301        1006.195          43.000  
  18167486.843    95470764.954         302.924          49.000    18167480.710  
  74392799.803         236.229          43.000  
  20074698.126   105493246.496       -3003.965          42.000    20074693.775  
  82202520.838       -2341.008          45.000  
  21135023.557   111065283.283       -3516.097          45.000                  
                                                
  23274281.971   122307161.424       -3560.446          38.000    23274279.606  
  95304291.614       -2774.008          34.000  
  18823185.023    98916492.868       -2234.930          47.000    18823179.591  
  77077779.526       -1741.730          47.000  
  21495234.877   112958202.944        2745.518          42.000    21495229.036  
  88019369.381        2139.092          37.000  
  21855621.816   114852068.477        2631.177          36.000                  
                                                
  23408407.397                3      -2445.379          24.000    23408449.644  
                     -1906.795          28.000  
 21  4 24 15 14 22.9930000  0 10G 4G 7G 8G 9G16G26G27G30G21G18
  21582934.572   113419061.515       -4106.454          42.000    21582929.823  
  88378488.541       -3199.923          42.000  
  18775265.710    98664672.424        1290.674          44.000    18775258.373  
  76881552.315        1005.548          43.000  
  18167429.354    95470462.516         301.880          49.000    18167423.254  
  74392564.137         235.185          43.000  
  20075269.816   105496250.977       -3004.741          43.000    20075265.532  
  82204861.991       -2341.574          45.000  
  21135692.691   111068799.532       -3516.404          45.000                  
                                                
  23274959.594   122310722.054       -3560.912          38.000    23274957.154  
  95307066.148       -2774.811          34.000  
  18823610.447    98918728.367       -2235.956          47.000    18823604.994  
  77079521.462       -1742.224          47.000  
  21494712.469   112955457.360        2745.204          42.000    21494706.566  
  88017229.960        2139.436          37.000  
  21855121.094   114849437.284        2631.049          36.000                  
                                                
  23408875.489                3      -2446.836          25.000    23408914.969  
                     -1907.714          28.000  
 21  4 24 15 14 23.9930000  0 10G 4G 7G 8G 9G16G26G27G30G21G18
  21583716.015   113423167.928       -4106.152          42.000    21583711.244  
  88381688.346       -3199.800          42.000  
  18775020.040    98663381.763        1290.759          44.000    18775012.773  
  76880546.621        1005.640          43.000  
  18167371.949    95470160.691         301.689          49.000    18167365.789  
  74392328.948         235.160          43.000  
  20075841.656   105499255.871       -3004.651          43.000    20075837.296  
  82207203.480       -2341.679          45.000  
  21136361.830   111072315.861       -3516.343          45.000                  
                                                
  23275637.164   122314282.637       -3560.237          38.000    23275634.790  
  95309840.640       -2774.963          34.000  
  18824036.009    98920964.411       -2236.163          47.000    18824030.594  
  77081263.842       -1742.487          47.000  
  21494190.115   112952711.864        2745.809          42.000    21494184.140  
  88015090.639        2139.201          37.000  
  21854620.464   114846806.167        2630.853          36.000                  
                                                
  23409343.826                3      -2448.891          24.000    23409380.733  
                     -1907.724          29.000  
 21  4 24 15 14 24.9930000  0 10G 4G 7G 8G 9G16G26G27G30G21G18
  21584497.572   113427274.311       -4106.876          42.000    21584492.652  
  88384888.114       -3199.967          42.000  
  18774774.452    98662091.298        1290.314          44.000    18774767.196  
  76879541.058        1005.304          43.000  
  18167314.603    95469859.360         300.847          49.000    18167308.513  
  74392094.150         234.764          43.000  
  20076413.437   105502261.061       -3005.284          43.000    20076409.152  
  82209545.162       -2341.835          45.000  
  21137030.963   111075832.069       -3516.504          45.000                  
                                                
  23276314.681   122317843.010       -3560.200          38.000    23276312.329  
  95312614.948       -2774.656          35.000  
  18824461.761    98923200.876       -2236.865          48.000    18824456.150  
  77083006.532       -1742.920          47.000  
  21493667.633   112949966.310        2745.346          42.000    21493661.689  
  88012951.227        2139.491          37.000  
  21854119.813   114844174.930        2631.189          37.000                  
                                                
  23409812.026                3      -2449.764          24.000    23409846.502  
                     -1907.498          29.000  
 21  4 24 15 14 25.9930000  0 10G 4G 7G 8G 9G16G26G27G30G21G18
  21585278.985   113431380.712       -4106.396          42.000    21585274.107  
  88388087.922       -3200.006          42.000  
  18774529.038    98660801.133        1289.966          44.000    18774521.689  
  76878535.730        1005.206          43.000  
  18167257.334    95469558.617         300.196          49.000    18167251.394  
  74391859.803         234.087          43.000  
  20076985.351   105505266.627       -3005.780          42.000    20076981.136  
  82211887.158       -2342.122          45.000  
  21137700.020   111079348.285       -3516.374          45.000                  
                                                
  23276992.304   122321403.344       -3560.531          38.000    23276989.823  
  95315389.188       -2774.108          35.000  
  18824887.550    98925437.855       -2237.427          47.000    18824881.733  
  77084749.630       -1743.323          47.000  
  21493145.211   112947220.805        2745.460          42.000    21493139.256  
  88010811.880        2139.264          37.000  
  21853619.211   114841543.753        2631.091          37.000                  
                                                
  23410281.406                3      -2447.139          24.000    23410312.271  
                     -1908.163          30.000  
 21  4 24 15 14 26.9930000  0 10G 4G 7G 8G 9G16G26G27G30G21G18
  21586060.439   113435487.226       -4106.415          42.000    21586055.487  
  88391287.791       -3199.890          42.000  
  18774283.608    98659511.306        1289.764          44.000    18774276.186  
  76877530.669        1004.718          43.000  
  18167200.247    95469258.487         299.782          49.000    18167194.258  
  74391625.929         233.732          43.000  
  20077557.308   105508272.594       -3006.140          42.000    20077553.120  
  82214229.477       -2342.536          45.000  
  21138369.128   111082864.549       -3516.275          45.000                  
                                                
  23277669.710   122324963.588       -3560.462          38.000    23277667.308  
  95318163.411       -2774.171          34.000  
  18825313.374    98927675.379       -2237.738          48.000    18825307.466  
  77086493.154       -1743.677          47.000  
  21492622.807   112944475.388        2745.257          42.000    21492616.798  
  88008672.582        2139.406          37.000  
  21853118.550   114838912.644        2631.183          37.000                  
                                                
  23410752.613                3      -2447.884          24.000    23410778.231  
                     -1908.095          30.000  
 21  4 24 15 14 27.9930000  0 10G 4G 7G 8G 9G16G26G27G30G21G18
  21586841.953   113439593.841       -4106.720          42.000    21586836.976  
  88394487.727       -3200.055          42.000  
  18774038.267    98658221.820        1289.294          44.000    18774030.819  
  76876525.870        1004.517          43.000  
  18167143.261    95468958.981         299.064          49.000    18167137.243  
  74391392.561         233.054          43.000  
  20078129.383   105511278.974       -3006.747          42.000    20078125.143  
  82216572.099       -2342.714          45.000  
  21139038.148   111086380.857       -3516.712          45.000                  
                                                
  23278347.212   122328523.765       -3560.180          38.000    23278344.880  
  95320937.621       -2774.797          34.000  
  18825739.235    98929913.456       -2238.397          48.000    18825733.380  
  77088237.104       -1744.202          47.000  
  21492100.324   112941730.031        2745.033          42.000    21492094.357  
  88006533.340        2139.047          37.000  
  21852617.924   114836281.550        2630.688          36.000                  
                                                
  23411226.901                3      -2449.424          25.000    23411244.235  
                     -1908.760          30.000  
 21  4 24 15 14 28.9930000  0 10G 4G 7G 8G 9G16G26G27G30G21G18
  21587623.479   113443700.691       -4107.160          42.000    21587618.407  
  88397687.879       -3200.385          42.000  
  18773792.921    98656932.807        1288.873          44.000    18773785.437  
  76875521.438        1004.340          43.000  
  18167086.436    95468660.236         298.411          49.000    18167080.381  
  74391159.764         232.410          42.000  
  20078701.573   105514285.913       -3007.305          42.000    20078697.439  
  82218915.173       -2343.303          45.000  
  21139707.331   111089897.338       -3516.562          45.000                  
                                                
  23279024.657   122332084.027       -3560.574          38.000    23279022.413  
  95323711.792       -2774.337          34.000  
  18826165.327    98932152.218       -2239.093          48.000    18826159.361  
  77089981.596       -1744.696          47.000  
  21491577.838   112938984.887        2745.110          42.000    21491572.048  
  88004394.285        2138.740          37.000  
  21852117.318   114833650.678        2630.878          36.000                  
                                                
  23411698.715                3      -2451.198          25.000    23411710.321  
                     -1908.868          31.000  
 21  4 24 15 14 29.9930000  0 10G 4G 7G 8G 9G16G26G27G30G21G18
  21588405.084   113447807.915       -4107.471          42.000    21588399.927  
  88400888.316       -3200.836          42.000  
  18773547.738    98655644.440        1287.921          45.000    18773540.321  
  76874517.510        1003.796          43.000  
  18167029.794    95468362.406         297.330          49.000    18167023.715  
  74390927.681         231.799          42.000  
  20079273.900   105517293.565       -3007.805          43.000    20079269.752  
  82221258.805       -2344.102          45.000  
  21140376.633   111093414.168       -3516.924          45.000                  
                                                
  23279702.173   122335644.548       -3560.774          38.000    23279699.966  
  95326486.176       -2773.527          34.000  
  18826591.451    98934391.841       -2240.082          48.000    18826585.522  
  77091726.756       -1745.447          47.000  
  21491055.484   112936240.128        2744.747          42.000    21491049.695  
  88002255.518        2138.752          37.000  
  21851616.782   114831020.168        2630.072          36.000                  
                                                
  23412169.499                3      -2450.600          26.000    23412176.764  
                     -1910.974          31.000  
 21  4 24 15 14 30.9930000  0 10G 4G 7G 8G 9G16G26G27G30G21G18
  21589186.629   113451915.339       -4107.458          42.000    21589181.581  
  88404088.893       -3200.482          42.000  
  18773302.644    98654356.513        1287.653          45.000    18773295.143  
  76873513.933        1003.491          43.000  
  18166973.173    95468065.304         296.786          49.000    18166967.150  
  74390696.172         231.315          42.000  
  20079846.309   105520301.722       -3008.173          43.000    20079842.168  
  82223602.816       -2344.101          45.000  
  21141045.918   111096931.141       -3516.876          45.000                  
                                                
  23280379.578   122339205.069       -3560.342          38.000    23280377.493  
  95329260.664       -2774.593          34.000  
  18827017.784    98936632.116       -2240.552          48.000    18827011.893  
  77093472.420       -1745.825          47.000  
  21490533.136   112933495.557        2744.573          42.000    21490527.421  
  88000116.865        2138.943          37.000  
  21851116.158   114828389.782        2630.450          36.000                  
                                                
  23412640.290                3      -2452.653          25.000    23412643.020  
                     -1910.580          30.000  
 21  4 24 15 14 31.9930000  0 10G 4G 7G 8G 9G16G26G27G30G21G18
  21589968.377   113456022.954       -4107.721          42.000    21589963.248  
  88407289.639       -3200.690          42.000  
  18773057.669    98653069.000        1287.488          45.000    18773050.034  
  76872510.677        1003.247          43.000  
  18166916.799    95467768.927         296.187          49.000    18166910.775  
  74390465.237         230.663          42.000  
  20080418.823   105523310.391       -3008.708          43.000    20080414.772  
  82225947.230       -2344.526          45.000  
  21141715.174   111100448.247       -3516.934          45.000                  
                                                
  23281057.056   122342765.675       -3560.611          38.000    23281055.059  
  95332035.141       -2773.985          34.000  
  18827444.195    98938873.037       -2241.156          48.000    18827438.258  
  77095218.590       -1746.381          47.000  
  21490010.909   112930751.155        2744.342          42.000    21490005.238  
  87997978.392        2138.601          37.000  
  21850615.642   114825759.582        2630.444          36.000                  
                                                
  23413112.745                3      -2452.488          25.000    23413109.468  
                     -1911.048          31.000  
 21  4 24 15 14 32.9930000  0 10G 4G 7G 8G 9G16G26G27G30G21G18
  21590750.091   113460130.853       -4108.057          42.000    21590744.924  
  88410490.592       -3201.117          42.000  
  18772812.760    98651782.042        1286.768          45.000    18772805.121  
  76871507.853        1002.710          43.000  
  18166860.507    95467473.356         295.350          49.000    18166854.579  
  74390234.926         230.130          42.000  
  20080991.512   105526319.679       -3009.594          43.000    20080987.474  
  82228292.120       -2344.914          45.000  
  21142384.441   111103965.609       -3517.452          45.000                  
                                                
  23281734.480   122346326.382       -3560.424          38.000    23281732.705  
  95334809.739       -2774.574          34.000  
  18827870.827    98941114.697       -2241.980          48.000    18827864.849  
  77096965.344       -1747.034          47.000  
  21489488.670   112928007.013        2744.147          41.000    21489483.160  
  87995840.105        2138.275          37.000  
  21850115.193   114823129.647        2629.541          36.000                  
                                                
  23413582.219                3      -2452.389          26.000    23413576.137  
                     -1911.123          31.000  
 21  4 24 15 14 33.9930000  0 10G 4G 7G 8G 9G16G26G27G30G21G18
  21591531.896   113464239.053       -4107.898          42.000    21591526.743  
  88413691.797       -3201.074          42.000  
  18772568.020    98650495.634        1286.279          45.000    18772560.293  
  76870505.463        1002.374          43.000  
  18166804.524    95467178.618         294.625          49.000    18166798.477  
  74390005.254         229.521          42.000  
  20081564.276   105529329.574       -3009.842          42.000    20081560.219  
  82230637.501       -2345.340          45.000  
  21143053.768   111107483.207       -3517.386          45.000                  
                                                
  23282412.076   122349887.265       -3560.500          39.000    23282410.402  
  95337584.444       -2774.342          34.000  
  18828297.555    98943357.124       -2242.499          48.000    18828291.715  
  77098712.690       -1747.443          47.000  
  21488966.492   112925263.171        2744.057          42.000    21488961.109  
  87993702.058        2138.135          37.000  
  21849614.867   114820499.945        2629.980          36.000                  
                                                
  23414053.009                3      -2454.680          26.000    23414042.943  
                     -1912.144          31.000  
 21  4 24 15 14 34.9930000  0 10G 4G 7G 8G 9G16G26G27G30G21G18
  21592313.702   113468347.344       -4108.514          42.000    21592308.613  
  88416893.068       -3201.612          42.000  
  18772323.283    98649209.559        1285.718          45.000    18772315.576  
  76869503.320        1002.008          43.000  
  18166748.545    95466884.491         293.841          49.000    18166742.428  
  74389776.069         228.610          42.000  
  20082137.108   105532339.885       -3010.776          43.000    20082132.972  
  82232983.190       -2345.930          45.000  
  21143723.141   111111000.866       -3517.838          45.000                  
                                                
  23283089.768   122353448.055       -3560.735          39.000    23283088.023  
  95340359.098       -2774.952          34.000  
  18828724.366    98945600.099       -2243.433          48.000    18828718.559  
  77100460.460       -1748.108          47.000  
  21488444.313   112922519.411        2743.533          42.000    21488438.922  
  87991564.062        2137.909          37.000  
  21849114.454   114817870.363        2629.242          36.000                  
                                                
  23414525.378                3      -2455.322          27.000    23414509.825  
  95878520.587       -1912.261          32.000  
 21  4 24 15 14 35.9930000  0 10G 4G 7G 8G 9G16G26G27G30G21G18
  21593095.396   113472455.725       -4108.240          42.000    21593090.405  
  88420094.386       -3201.257          42.000  
  18772078.654    98647923.816        1285.834          45.000    18772070.916  
  76868501.454        1001.965          43.000  
  18166692.660    95466590.989         293.386          49.000    18166686.563  
  74389547.351         228.927          43.000  
  20082710.063   105535350.597       -3010.752          43.000    20082705.923  
  82235329.199       -2345.968          45.000  
  21144392.519   111114518.550       -3517.476          45.000                  
                                                
  23283767.365   122357008.834       -3560.743          39.000    23283765.758  
  95343133.702       -2774.642          34.000  
  18829151.190    98947843.620       -2243.646          48.000    18829145.547  
  77102208.657       -1748.169          47.000  
  21487922.144   112919775.701        2744.126          42.000    21487916.821  
  87989426.110        2138.111          37.000  
  21848614.196   114815240.761        2629.730          36.000                  
                                                
  23414999.554                2      -2454.874          27.000    23414976.760  
                     -1912.356          31.000  
 21  4 24 15 14 36.9930000  0 10G 4G 7G 8G 9G16G26G27G30G21G18
  21593877.255   113476564.138       -4108.582          42.000    21593872.180  
  88423295.748       -3201.373          42.000  
  18771834.154    98646638.361        1285.577          45.000    18771826.374  
  76867499.800        1001.697          43.000  
  18166636.899    95466298.050         292.378          49.000    18166630.760  
  74389319.099         227.843          43.000  
  20083283.006   105538361.679       -3011.599          43.000    20083279.001  
  82237675.493       -2346.620          45.000  
  21145062.005   111118036.235       -3517.835          45.000                  
                                                
  23284445.056   122360569.445       -3560.657          38.000    23284443.386  
  95345908.199       -2774.078          34.000  
  18829578.271    98950087.633       -2244.434          48.000    18829572.599  
  77103957.242       -1748.737          47.000  
  21487399.943   112917032.043        2743.666          42.000    21487394.617  
  87987288.183        2137.664          37.000  
  21848113.800   114812611.207        2629.303          36.000                  
                                                
  23415469.467                1      -2455.279          28.000    23415443.682  
  95882345.998       -1913.743          31.000  
 21  4 24 15 14 37.9930000  0 10G 4G 7G 8G 9G16G26G27G30G21G18
  21594659.107   113480672.672       -4108.722          42.000    21594654.002  
  88426497.207       -3201.752          42.000  
  18771589.664    98645353.296        1284.686          45.000    18771581.792  
  76866498.435        1000.958          43.000  
  18166581.193    95466005.745         291.730          49.000    18166575.185  
  74389091.323         227.363          43.000  
  20083856.086   105541373.181       -3011.956          43.000    20083852.048  
  82240022.116       -2346.937          45.000  
  21145731.355   111121553.979       -3518.011          45.000                  
                                                
  23285122.704   122364130.063       -3560.895          38.000    23285120.983  
  95348682.726       -2774.893          34.000  
  18830005.417    98952332.229       -2245.251          48.000    18829999.792  
  77105706.286       -1749.585          47.000  
  21486877.757   112914288.488        2743.248          42.000    21486872.576  
  87985150.337        2137.718          37.000  
  21847613.410   114809981.719        2629.114          36.000                  
                                                
  23415939.367                       -2455.632          28.000    23415910.779  
                     -1913.710          31.000  
 21  4 24 15 14 38.9930000  0 10G 4G 7G 8G 9G16G26G27G30G21G18
  21595440.962   113484781.513       -4108.899          42.000    21595435.902  
  88429698.881       -3201.672          42.000  
  18771345.260    98644068.752        1284.271          45.000    18771337.236  
  76865497.503        1000.690          43.000  
  18166525.826    95465714.273         291.184          49.000    18166519.687  
  74388864.215         226.766          43.000  
  20084429.325   105544385.312       -3012.548          43.000    20084425.276  
  82242369.234       -2347.471          45.000  
  21146400.684   111125071.978       -3518.114          45.000                  
                                                
  23285800.191   122367690.810       -3560.942          38.000    23285798.589  
  95351457.329       -2774.930          34.000  
  18830432.614    98954577.587       -2245.905          47.000    18830426.983  
  77107455.913       -1749.945          47.000  
  21486355.830   112911545.209        2743.157          42.000    21486350.611  
  87983012.735        2137.518          37.000  
  21847113.073   114807352.534        2628.943          36.000                  
                                                
  23416410.840                       -2455.996          28.000    23416377.945  
                     -1914.282          32.000  
 21  4 24 15 14 39.9930000  0 10G 4G 7G 8G 9G16G26G27G30G21G18
  21596222.804   113488890.336       -4108.838          42.000    21596217.742  
  88432900.574       -3201.844          42.000  
  18771100.945    98642784.465        1283.990          45.000    18771092.818  
  76864496.744        1000.800          43.000  
  18166470.514    95465423.327         290.641          49.000    18166464.367  
  74388637.497         226.214          43.000  
  20085002.543   105547397.766       -3012.767          42.000    20084998.464  
  82244716.593       -2347.597          45.000  
  21147070.170   111128589.928       -3518.065          45.000                  
                                                
  23286477.729   122371251.401       -3560.655          38.000    23286476.207  
  95354231.807       -2774.648          34.000  
  18830860.014    98956823.400       -2246.228          47.000    18830854.401  
  77109205.896       -1750.317          47.000  
  21485833.839   112908801.916        2743.422          42.000    21485828.554  
  87980875.093        2137.565          38.000  
  21846612.788   114804723.273        2629.089          36.000                  
                                                
  23416882.750                       -2456.196          28.000    23416845.303  
  95888087.013       -1914.201          32.000  
 21  4 24 15 14 40.9930000  0 10G 4G 7G 8G 9G16G26G27G30G21G18
  21597004.721   113492999.283       -4109.155          42.000    21596999.712  
  88436102.337       -3201.892          42.000  
  18770856.720    98641500.538        1283.600          45.000    18770848.422  
  76863496.298        1000.165          43.000  
  18166415.330    95465133.010         289.981          49.000    18166409.183  
  74388411.266         226.111          43.000  
  20085575.912   105550410.641       -3013.227          42.000    20085571.688  
  82247064.285       -2347.906          45.000  
  21147739.594   111132107.935       -3518.187          45.000                  
                                                
  23287155.184   122374811.958       -3560.619          38.000    23287153.709  
  95357006.243       -2774.299          34.000  
  18831287.418    98959069.774       -2246.796          48.000    18831281.894  
  77110956.318       -1750.684          47.000  
  21485311.793   112906058.725        2743.287          42.000    21485306.569  
  87978737.538        2137.852          37.000  
  21846112.493   114802094.110        2629.266          36.000                  
                                                
  23417354.153                       -2456.828          28.000    23417312.753  
  95890001.422       -1915.414          32.000  
 21  4 24 15 14 41.9930000  0 10G 4G 7G 8G 9G16G26G27G30G21G18
  21597786.693   113497108.365       -4109.173          42.000    21597781.664  
  88439304.221       -3202.069          42.000  
  18770612.567    98640217.004        1283.234          45.000    18770604.205  
  76862496.130        1000.018          43.000  
  18166360.195    95464843.374         289.312          49.000    18166353.993  
  74388185.579         225.458          43.000  
  20086149.305   105553423.969       -3013.288          42.000    20086145.102  
  82249412.339       -2348.280          45.000  
  21148409.043   111135626.027       -3518.132          45.000                  
                                                
  23287832.791   122378372.520       -3560.708          39.000    23287831.311  
  95359780.706       -2774.334          34.000  
  18831715.060    98961316.747       -2247.040          48.000    18831709.625  
  77112707.214       -1751.135          47.000  
  21484789.812   112903315.678        2742.703          42.000    21484784.528  
  87976600.088        2137.549          37.000  
  21845612.261   114799465.046        2629.175          37.000                  
                                                
  23417824.108                       -2457.423          28.000    23417780.206  
  95891916.208       -1915.288          32.000  
 21  4 24 15 14 42.9930000  0 10G 4G 7G 8G 9G16G26G27G30G21G18
  21598568.638   113501217.785       -4109.802          42.000    21598563.664  
  88442506.344       -3202.130          42.000  
  18770368.450    98638934.033        1282.672          45.000    18770360.012  
  76861496.420         999.567          43.000  
  18166305.273    95464554.588         288.364          49.000    18166299.035  
  74387960.551         224.567          43.000  
  20086722.877   105556437.967       -3014.616          42.000    20086718.680  
  82251760.888       -2348.844          45.000  
  21149078.706   111139144.417       -3518.732          45.000                  
                                                
  23288510.375   122381933.239       -3560.790          39.000    23288508.939  
  95362555.294       -2774.921          34.000  
  18832142.790    98963564.524       -2248.199          48.000    18832137.308  
  77114458.713       -1751.770          47.000  
  21484267.763   112900572.919        2742.622          42.000    21484262.611  
  87974462.875        2137.725          38.000  
  21845112.060   114796836.300        2628.302          37.000                  
                                                
  23418297.182   123063846.438       -2458.034          29.000    23418247.819  
                     -1915.464          32.000  
 21  4 24 15 14 43.9930000  0 10G 4G 7G 8G 9G16G26G27G30G21G18
  21599350.734   113505327.363       -4109.601          42.000    21599345.723  
  88445708.641       -3202.441          42.000  
  18770124.394    98637651.501        1282.330          45.000    18770115.941  
  76860497.047         999.353          43.000  
  18166250.477    95464266.527         287.768          49.000    18166244.241  
  74387736.081         224.442          43.000  
  20087296.450   105559452.437       -3014.787          42.000    20087292.216  
  82254109.840       -2349.094          45.000  
  21149748.286   111142662.914       -3518.512          45.000                  
                                                
  23289187.993   122385493.984       -3560.879          39.000    23289186.536  
  95365329.915       -2774.749          34.000  
  18832570.688    98965812.928       -2248.822          48.000    18832565.126  
  77116210.722       -1752.209          47.000  
  21483745.865   112897830.321        2742.714          42.000    21483740.821  
  87972325.820        2137.263          37.000  
  21844611.672   114794207.650        2628.809          37.000                  
                                                
  23418768.792                       -2458.313          29.000    23418715.583  
  95895747.218       -1915.548          32.000  
 21  4 24 15 14 44.9930000  0 10G 4G 7G 8G 9G16G26G27G30G21G18
  21600132.739   113509437.110       -4109.802          42.000    21600127.779  
  88448911.034       -3202.393          42.000  
  18769880.355    98636369.377        1281.757          45.000    18769871.963  
  76859497.994         998.859          43.000  
  18166195.834    95463979.161         287.106          49.000    18166189.483  
  74387512.171         223.557          43.000  
  20087870.247   105562467.409       -3015.096          42.000    20087865.971  
  82256459.173       -2349.442          45.000  
  21150417.869   111146181.541       -3518.813          45.000                  
                                                
  23289865.538   122389054.743       -3560.546          39.000    23289864.115  
  95368104.544       -2774.927          34.000  
  18832998.515    98968061.945       -2249.384          48.000    18832993.029  
  77117963.214       -1752.857          47.000  
  21483223.904   112895087.903        2742.397          42.000    21483219.063  
  87970188.869        2136.978          37.000  
  21844111.467   114791579.201        2628.125          37.000                  
                                                
  23419241.063                       -2459.653          29.000    23419183.409  
  95897663.406       -1916.589          31.000  
 21  4 24 15 14 45.9930000  0 10G 4G 7G 8G 9G16G26G27G30G21G18
  21600914.884   113513547.034       -4110.187          42.000    21600909.883  
  88452113.562       -3202.661          42.000  
  18769636.460    98635087.674        1281.390          45.000    18769628.053  
  76858499.270         998.560          43.000  
  18166141.239    95463692.491         286.214          48.000    18166134.919  
  74387288.794         223.032          43.000  
  20088444.066   105565482.867       -3016.058          43.000    20088439.804  
  82258808.869       -2349.899          45.000  
  21151087.508   111149700.286       -3518.856          45.000                  
                                                
  23290543.142   122392615.539       -3560.911          39.000    23290541.849  
  95370879.222       -2776.071          33.000  
  18833426.603    98970311.605       -2250.104          48.000    18833421.155  
  77119716.181       -1753.162          47.000  
  21482702.086   112892345.627        2742.113          42.000    21482697.256  
  87968052.032        2136.767          37.000  
  21843611.294   114788950.861        2628.094          37.000                  
                                                
  23419711.573                       -2459.611          29.000    23419651.265  
                     -1917.658          31.000  
 21  4 24 15 14 46.9930000  0 10G 4G 7G 8G 9G16G26G27G30G21G18
  21601697.049   113517657.238       -4110.138          42.000    21601692.040  
  88455316.321       -3202.899          42.000  
  18769392.574    98633806.504        1281.244          45.000    18769384.146  
  76857500.952         998.303          43.000  
  18166086.796    95463406.633         285.480          48.000    18166080.578  
  74387066.032         222.559          43.000  
  20089018.074   105568498.919       -3016.092          43.000    20089013.839  
  82261159.049       -2350.353          45.000  
  21151757.192   111153219.277       -3518.929          45.000                  
                                                
  23291220.786   122396176.476       -3561.170          39.000    23291219.435  
  95373653.876       -2773.868          33.000  
  18833854.804    98972561.999       -2250.653          48.000    18833849.422  
  77121469.738       -1753.821          47.000  
  21482180.230   112889603.631        2742.116          42.000    21482175.427  
  87965915.437        2136.173          37.000  
  21843111.137   114786322.777        2627.979          37.000                  
                                                
  23420182.746                       -2460.898          28.000    23420119.323  
                     -1917.646          31.000  
 21  4 24 15 14 47.9930000  0 10G 4G 7G 8G 9G16G26G27G30G21G18
  21602479.248   113521767.649       -4110.468          42.000    21602474.198  
  88458519.239       -3203.040          42.000  
  18769148.898    98632525.812        1280.420          45.000    18769140.522  
  76856503.014         997.693          43.000  
  18166032.501    95463121.531         284.593          48.000    18166026.347  
  74386843.881         221.732          43.000  
  20089592.253   105571515.514       -3016.862          43.000    20089587.897  
  82263509.640       -2350.876          45.000  
  21152426.847   111156738.440       -3519.435          45.000                  
                                                
  23291898.347   122399737.451       -3561.186          39.000    23291897.035  
  95376428.697       -2775.036          33.000  
  18834283.289    98974813.082       -2251.605          48.000    18834277.824  
  77123223.826       -1754.535          47.000  
  21481658.456   112886861.839        2741.508          42.000    21481653.599  
  87963778.965        2136.266          37.000  
  21842611.101   114783694.862        2627.765          38.000                  
                                                
  23420651.719                       -2460.978          28.000    23420587.491  
                     -1918.220          31.000  
 21  4 24 15 14 48.9930000  0 10G 4G 7G 8G 9G16G26G27G30G21G18
  21603261.450   113525878.189       -4110.516          42.000    21603256.421  
  88461722.259       -3203.107          42.000  
  18768905.232    98631245.467        1280.084          45.000    18768896.867  
  76855505.340         997.540          43.000  
  18165978.336    95462837.048         284.231          48.000    18165972.248  
  74386622.209         221.448          43.000  
  20090166.359   105574532.541       -3017.279          43.000    20090162.011  
  82265860.571       -2351.108          45.000  
  21153096.342   111160257.660       -3519.304          45.000                  
                                                
  23292575.958   122403298.410       -3560.914          39.000    23292574.614  
  95379203.483       -2775.204          33.000  
  18834711.808    98977064.731       -2251.971          48.000    18834706.264  
  77124978.355       -1754.895          48.000  
  21481136.716   112884120.155        2741.670          42.000    21481131.888  
  87961642.597        2136.428          37.000  
  21842110.872   114781067.072        2627.264          38.000                  
                                                
  23421121.172                       -2461.451          28.000    23421055.562  
  95905332.344       -1917.591          31.000  
 21  4 24 15 14 49.9930000  0 10G 4G 7G 8G 9G16G26G27G30G21G18
  21604043.588   113529988.826       -4110.895          42.000    21604038.651  
  88464925.345       -3203.235          42.000  
  18768661.721    98629965.482        1279.608          45.000    18768653.338  
  76854507.942         997.321          43.000  
  18165924.191    95462553.213         283.328          48.000    18165918.274  
  74386401.054         220.813          43.000  
  20090740.596   105577549.992       -3017.923          43.000    20090736.219  
  82268211.831       -2351.656          45.000  
  21153765.971   111163776.925       -3519.396          46.000                  
                                                
  23293253.574   122406859.322       -3561.272          39.000    23293252.215  
  95381978.211       -2775.250          33.000  
  18835140.323    98979316.941       -2252.728          48.000    18835134.825  
  77126733.318       -1755.328          47.000  
  21480615.002   112881378.547        2741.393          42.000    21480610.205  
  87959506.280        2136.033          37.000  
  21841610.774   114778439.309        2627.643          38.000                  
                                                
  23421591.432                       -2462.340          27.000    23421523.754  
                     -1918.796          30.000  
 21  4 24 15 14 50.9930000  0 10G 4G 7G 8G 9G16G26G27G30G21G18
  21604825.826   113534099.773       -4110.669          42.000    21604820.968  
  88468128.688       -3203.278          42.000  
  18768418.322    98628686.061        1279.694          45.000    18768409.830  
  76853510.998         996.948          43.000  
  18165870.316    95462270.239         282.832          49.000    18165864.407  
  74386180.549         220.403          43.000  
  20091314.891   105580568.078       -3018.200          43.000    20091310.544  
  82270563.590       -2351.852          45.000  
  21154435.739   111167296.478       -3519.327          46.000                  
                                                
  23293931.284   122410420.391       -3561.045          39.000    23293929.858  
  95384753.070       -2774.881          32.000  
  18835569.097    98981569.922       -2253.149          48.000    18835563.570  
  77128488.892       -1755.609          48.000  
  21480093.291   112878637.277        2741.396          42.000    21480088.600  
  87957370.214        2136.289          37.000  
  21841110.697   114775811.862        2627.533          38.000                  
                                                
  23422061.080                       -2462.954          26.000    23421992.154  
                     -1919.115          30.000  
 21  4 24 15 14 51.9930000  0 10G 4G 7G 8G 9G16G26G27G30G21G18
  21605608.232   113538210.822       -4111.066          42.000    21605603.352  
  88471332.086       -3203.546          42.000  
  18768174.924    98627406.986        1278.876          45.000    18768166.444  
  76852514.305         996.710          43.000  
  18165816.590    95461987.889         282.152          49.000    18165810.708  
  74385960.535         219.908          43.000  
  20091889.366   105583586.566       -3018.527          43.000    20091884.963  
  82272915.651       -2351.970          45.000  
  21155105.510   111170816.074       -3519.686          46.000                  
                                                
  23294609.006   122413981.409       -3560.842          39.000    23294607.531  
  95387527.846       -2774.959          33.000  
  18835997.943    98983823.446       -2253.741          48.000    18835992.375  
  77130244.889       -1756.189          48.000  
  21479571.563   112875896.044        2741.241          42.000    21479566.943  
  87955234.189        2136.152          37.000  
  21840610.671   114773184.476        2627.386          38.000                  
                                                
  23422532.299                       -2463.361          26.000    23422460.866  
                     -1920.389          30.000  
 21  4 24 15 14 52.9930000  0 10G 4G 7G 8G 9G16G26G27G30G21G18
  21606390.579   113542321.793       -4110.992          42.000    21606385.629  
  88474535.446       -3203.448          42.000  
  18767931.480    98626128.075        1278.992          45.000    18767923.019  
  76851517.766         996.405          43.000  
  18165762.956    95461705.994         281.549          49.000    18165757.087  
  74385740.876         219.460          43.000  
  20092463.777   105586605.307       -3018.839          43.000    20092459.421  
  82275267.934       -2352.538          44.000  
  21155775.283   111174335.529       -3519.370          46.000                  
                                                
  23295286.538   122417542.185       -3560.444          39.000    23295285.119  
  95390302.508       -2774.925          32.000  
  18836426.846    98986077.366       -2254.205          48.000    18836421.320  
  77132001.184       -1756.555          48.000  
  21479049.925   112873154.736        2741.556          41.000    21479045.183  
  87953098.129        2135.640          37.000  
  21840110.660   114770556.999        2627.271          38.000                  
                                                
  23423005.935                       -2463.919          26.000    23422929.481  
                     -1919.132          30.000  
 21  4 24 15 14 53.9930000  0 10G 4G 7G 8G 9G16G26G27G30G21G18
  21607172.918   113546432.817       -4111.182          42.000    21607167.927  
  88477738.840       -3203.571          42.000  
  18767688.160    98624849.500        1278.308          45.000    18767679.788  
  76850521.448         996.332          43.000  
  18165709.449    95461424.661         280.999          48.000    18165703.510  
  74385521.657         218.919          43.000  
  20093038.290   105589624.427       -3019.320          43.000    20093033.926  
  82277620.497       -2352.935          44.000  
  21156445.120   111177855.021       -3519.769          46.000                  
                                                
  23295964.085   122421102.909       -3561.192          39.000    23295962.633  
  95393077.046       -2774.387          32.000  
  18836855.919    98988331.807       -2254.889          48.000    18836850.232  
  77133757.892       -1757.098          48.000  
  21478528.259   112870413.493        2741.075          41.000    21478523.518  
  87950962.062        2136.441          37.000  
  21839610.615   114767929.516        2627.643          38.000                  
                                                
  23423478.903                3      -2463.199          25.000    23423398.269  
                     -1920.637          29.000  
 21  4 24 15 14 54.9930000  0 10G 4G 7G 8G 9G16G26G27G30G21G18
  21607955.243   113550544.032       -4111.450          42.000    21607950.279  
  88480942.374       -3203.815          42.000  
  18767444.999    98623571.337        1277.960          45.000    18767436.552  
  76849525.493         995.660          43.000  
  18165656.072    95461144.053         280.203          48.000    18165650.107  
  74385302.992         218.499          43.000  
  20093612.879   105592644.048       -3019.888          43.000    20093608.483  
  82279973.435       -2353.217          45.000  
  21157114.831   111181374.631       -3519.911          45.000                  
                                                
  23296641.707   122424663.632       -3560.986          39.000    23296640.168  
                     -2775.712          32.000  
  18837285.118    98990586.881       -2255.499          48.000    18837279.416  
  77135515.092       -1757.709          47.000  
  21478006.666   112867672.423        2740.762          41.000    21478001.897  
  87948826.184        2135.728          37.000  
  21839110.551   114765302.217        2626.996          38.000                  
                                                
  23423950.120                3      -2464.010          25.000    23423866.929  
                     -1920.097          29.000  
 21  4 24 15 14 55.9930000  0 10G 4G 7G 8G 9G16G26G27G30G21G18
  21608737.652   113554655.380       -4111.456          41.000    21608732.624  
  88484146.016       -3203.619          42.000  
  18767201.872    98622293.578        1277.557          45.000    18767193.341  
  76848529.823         995.630          43.000  
  18165602.695    95460864.103         279.659          48.000    18165596.914  
  74385084.866         217.750          43.000  
  20094187.619   105595664.120       -3020.084          43.000    20094183.150  
  82282326.741       -2353.401          45.000  
  21157784.531   111184894.329       -3519.755          45.000                  
                                                
  23297319.273   122428224.346       -3560.567          39.000    23297317.794  
  95398626.231       -2774.659          32.000  
  18837714.332    98992842.557       -2255.865          48.000    18837708.626  
  77137272.757       -1757.880          47.000  
  21477485.050   112864931.475        2740.639          41.000    21477480.301  
  87946690.371        2135.579          37.000  
  21838610.515   114762675.024        2627.325          38.000                  
                                                
  23424420.485                3      -2465.229          23.000    23424335.957  
                     -1920.923          30.000  
 21  4 24 15 14 56.9930000  0 10G 4G 7G 8G 9G16G26G27G30G21G18
  21609520.075   113558766.928       -4111.816          42.000    21609515.053  
  88487349.810       -3203.906          42.000  
  18766958.818    98621016.254        1277.008          45.000    18766950.296  
  76847534.508         995.062          43.000  
  18165549.468    95460584.887         278.725          49.000    18165543.800  
  74384867.299         216.960          43.000  
  20094762.482   105598684.721       -3020.959          43.000    20094757.946  
  82284680.447       -2353.917          45.000  
  21158454.386   111188414.172       -3519.997          46.000                  
                                                
  23297996.813   122431785.117       -3560.741          39.000    23297995.378  
  95401400.838       -2774.488          32.000  
  18838143.630    98995098.889       -2256.726          48.000    18838137.985  
  77139030.933       -1758.496          47.000  
  21476963.506   112862190.688        2740.903          41.000    21476958.740  
  87944554.713        2135.615          37.000  
  21838110.487   114760047.975        2626.855          38.000                  
                                                
  23424890.467                3      -2459.986          22.000    23424804.932  
                     -1919.786          30.000  
 21  4 24 15 14 57.9930000  0 10G 4G 7G 8G 9G16G26G27G30G21G18
  21610302.465   113562878.526       -4111.481          42.000    21610297.494  
  88490553.660       -3203.748          42.000  
  18766715.866    98619739.255        1276.801          45.000    18766707.230  
  76846539.453         994.879          43.000  
  18165496.403    95460306.258         278.523          49.000    18165490.834  
  74384650.176         217.093          43.000  
  20095337.374   105601705.691       -3021.031          43.000    20095332.831  
  82287034.456       -2354.170          45.000  
  21159124.201   111191934.038       -3519.723          45.000                  
                                                
  23298674.403   122435345.794       -3560.217          39.000    23298673.066  
  95404175.445       -2775.152          32.000  
  18838573.037    98997355.746       -2257.074          48.000    18838567.522  
  77140789.524       -1758.667          47.000  
  21476441.955   112859449.997        2740.803          41.000    21476437.189  
  87942419.114        2135.170          37.000  
  21837610.487   114757420.964        2627.246          37.000                  
                                                
  23425362.073                3      -2457.507          21.000    23425273.962  
                     -1921.697          30.000  
 21  4 24 15 14 58.9930000  0 10G 4G 7G 8G 9G16G26G27G30G21G18
  21611084.937   113566990.409       -4112.000          42.000    21611080.023  
  88493757.721       -3204.138          42.000  
  18766472.952    98618462.763        1276.190          45.000    18766464.304  
  76845544.778         994.391          43.000  
  18165443.473    95460028.430         277.483          48.000    18165437.956  
  74384433.683         216.134          43.000  
  20095912.338   105604727.267       -3021.798          43.000    20095907.800  
  82289388.924       -2354.704          45.000  
  21159794.072   111195454.126       -3520.173          45.000                  
                                                
  23299352.013   122438906.631       -3561.062          39.000    23299350.604  
  95406950.094       -2775.109          32.000  
  18839002.622    98999613.337       -2258.075          48.000    18838997.005  
  77142548.687       -1759.509          47.000  
  21475920.460   112856709.552        2740.239          41.000    21475915.698  
  87940283.694        2134.949          37.000  
  21837110.461   114754794.226        2626.520          37.000                  
                                                
  23425832.870                3      -2477.936          19.000    23425743.169  
                     -1921.743          30.000  
 21  4 24 15 14 59.9930000  0 10G 4G 7G 8G 9G16G26G27G30G21G18
  21611867.422   113571102.538       -4112.366          42.000    21611862.534  
  88496961.954       -3204.175          42.000  
  18766230.114    98617186.733        1275.873          45.000    18766221.585  
  76844550.473         994.159          43.000  
  18165390.753    95459751.359         276.670          48.000    18165385.262  
  74384217.789         215.369          43.000  
  20096487.569   105607749.387       -3022.478          44.000    20096482.938  
  82291743.823       -2355.114          45.000  
  21160463.863   111198974.412       -3520.388          45.000                  
                                                
  23300029.613   122442467.517       -3560.569          39.000    23300028.202  
                     -2775.419          32.000  
  18839432.300    99001871.603       -2258.612          48.000    18839426.631  
  77144308.382       -1759.894          47.000  
  21475399.003   112853969.331        2740.067          41.000    21475394.174  
  87938148.435        2135.493          37.000  
  21836610.651   114752167.678        2626.733          37.000                  
                                                
  23426302.740                3      -2462.507          20.000    23426212.572  
                     -1922.485          30.000  
 21  4 24 15 15  0.9930000  0 10G 4G 7G 8G 9G16G26G27G30G21G18
  21612650.088   113575214.999       -4112.708          42.000    21612645.170  
  88500166.475       -3204.596          42.000  
  18765987.365    98615911.323        1275.122          45.000    18765978.852  
  76843556.642         993.622          43.000  
  18165338.222    95459475.158         275.711          48.000    18165332.725  
  74384002.564         214.836          43.000  
  20097062.823   105610772.182       -3023.013          44.000    20097058.062  
  82294099.249       -2355.724          45.000  
  21161133.794   111202494.993       -3520.834          45.000                  
                                                
  23300707.313   122446028.624       -3561.340          39.000    23300705.851  
  95412499.674       -2774.699          32.000  
  18839862.199    99004130.690       -2259.503          48.000    18839856.536  
  77146068.706       -1760.571          47.000  
  21474877.566   112851229.452        2739.752          41.000    21474872.818  
  87936013.465        2135.166          37.000  
  21836110.880   114749541.471        2625.769          37.000                  
                                                
                                                                  23426682.205  
                     -1922.697          30.000  
 21  4 24 15 15  1.9930000  0 10G 4G 7G 8G 9G16G26G27G30G21G18
  21613432.766   113579327.606       -4112.946          42.000    21613427.727  
  88503371.112       -3204.962          42.000  
  18765744.840    98614636.284        1274.872          45.000    18765736.241  
  76842563.121         993.115          43.000  
  18165285.834    95459199.652         275.007          48.000    18165280.336  
  74383787.879         214.459          43.000  
  20097638.120   105613795.450       -3023.641          44.000    20097633.419  
  82296455.040       -2356.117          45.000  
  21161803.808   111206015.667       -3520.785          45.000                  
                                                
  23301384.932   122449589.688       -3560.747          39.000    23301383.533  
  95415274.586       -2775.131          32.000  
  18840292.155    99006390.370       -2260.175          48.000    18840286.498  
  77147829.508       -1761.218          47.000  
  21474356.213   112848489.701        2739.531          41.000    21474351.557  
  87933878.629        2134.495          37.000  
  21835611.117   114746915.359        2625.635          37.000                  
                                                
  23427246.010                3      -2462.620          18.000    23427151.906  
                     -1923.767          30.000  
 21  4 24 15 15  2.9930000  0 10G 4G 7G 8G 9G16G26G27G30G21G18
  21614215.319   113583440.440       -4113.098          42.000    21614210.328  
  88506575.903       -3204.889          42.000  
  18765502.257    98613361.757        1273.999          45.000    18765493.706  
  76841569.974         992.883          43.000  
  18165233.573    95458924.907         274.255          48.000    18165228.080  
  74383573.787         213.746          43.000  
  20098213.537   105616819.263       -3024.278          44.000    20098208.926  
  82298811.250       -2356.447          45.000  
  21162473.733   111209536.532       -3521.026          45.000                  
                                                
  23302062.639   122453150.911       -3561.476          39.000    23302061.149  
                     -2774.517          32.000  
  18840722.354    99008650.762       -2260.956          48.000    18840716.613  
  77149590.843       -1761.597          47.000  
  21473834.883   112845750.186        2739.373          41.000    21473830.236  
  87931743.914        2134.981          37.000  
  21835111.363   114744289.463        2625.269          37.000                  
                                                
  23427718.237                3      -2462.948          17.000    23427621.767  
                     -1923.620          30.000  
 21  4 24 15 15  3.9930000  0 10G 4G 7G 8G 9G16G26G27G30G21G18
  21614997.984   113587553.478       -4112.860          42.000    21614993.043  
  88509780.868       -3204.993          42.000  
  18765259.822    98612087.683        1273.700          45.000    18765251.258  
  76840577.182         992.676          43.000  
  18165181.422    95458650.892         273.663          48.000    18165175.912  
  74383360.298         212.878          43.000  
  20098789.136   105619843.599       -3024.465          44.000    20098784.338  
  82301167.881       -2356.806          45.000  
  21163143.691   111213057.560       -3521.082          45.000                  
                                                
  23302740.313   122456712.133       -3561.569          38.000    23302738.775  
  95420824.476       -2774.589          32.000  
  18841152.661    99010911.810       -2261.664          47.000    18841146.883  
  77151352.690       -1762.018          47.000  
  21473313.585   112843010.834        2739.714          41.000    21473308.974  
  87929609.391        2134.366          37.000  
  21834611.522   114741663.721        2625.684          37.000                  
                                                
  23428190.141                3      -2469.039          18.000    23428091.922  
                     -1924.145          31.000  
 21  4 24 15 15  4.9930000  0 10G 4G 7G 8G 9G16G26G27G30G21G18
  21615780.707   113591666.729       -4113.543          42.000    21615775.739  
  88512986.001       -3205.396          42.000  
  18765017.605    98610814.097        1272.778          45.000    18765008.807  
  76839584.751         992.261          43.000  
  18165129.322    95458377.632         272.742          48.000    18165123.957  
  74383147.344         212.406          43.000  
  20099364.681   105622868.465       -3025.370          43.000    20099360.012  
  82303524.909       -2357.397          45.000  
  21163813.723   111216578.737       -3521.124          45.000                  
                                                
  23303417.922   122460273.406       -3561.388          38.000    23303416.544  
                     -2774.912          32.000  
  18841583.000    99013173.516       -2262.347          47.000    18841577.408  
  77153115.079       -1762.909          47.000  
  21472792.417   112840271.737        2739.031          41.000    21472787.710  
  87927475.009        2134.011          38.000  
  21834111.796   114739038.173        2625.336          37.000                  
                                                
  23428661.913                3      -2482.387          18.000    23428561.900  
                     -1925.731          31.000  
 21  4 24 15 15  5.9930000  0 10G 4G 7G 8G 9G16G26G27G30G21G18
  21616563.450   113595780.305       -4113.464          42.000    21616558.482  
  88516191.377       -3205.273          42.000  
  18764775.234    98609541.066        1272.992          45.000    18764766.526  
  76838592.787         991.772          43.000  
  18165077.487    95458105.221         272.235          48.000    18165072.039  
  74382935.084         212.011          43.000  
  20099940.395   105625893.975       -3025.559          43.000    20099935.881  
  82305882.451       -2357.692          45.000  
  21164483.775   111220100.207       -3521.380          45.000                  
                                                
  23304095.595   122463834.895       -3561.565          38.000    23304094.201  
  95426374.717       -2775.932          31.000  
  18842013.567    99015436.017       -2262.830          47.000    18842007.833  
  77154878.066       -1763.251          47.000  
  21472271.274   112837532.931        2738.558          42.000    21472266.528  
  87925340.867        2134.175          38.000  
  21833612.120   114736412.918        2625.348          37.000                  
                                                
  23429133.692                3      -2474.081          19.000    23429032.178  
                     -1924.895          31.000  
 21  4 24 15 15  6.9930000  0 10G 4G 7G 8G 9G16G26G27G30G21G18
  21617346.206   113599893.982       -4113.861          42.000    21617341.252  
  88519396.846       -3205.804          42.000  
  18764533.021    98608268.382        1272.540          45.000    18764524.344  
  76837601.081         991.559          43.000  
  18165025.778    95457833.451         271.318          48.000    18165020.271  
  74382723.304         211.493          43.000  
  20100516.185   105628919.900       -3026.308          43.000    20100511.733  
  82308240.302       -2358.103          45.000  
  21165153.835   111223621.714       -3521.718          45.000                  
                                                
  23304773.188   122467396.302       -3561.545          38.000    23304771.873  
                     -2775.552          31.000  
  18842444.059    99017699.059       -2263.623          47.000    18842438.593  
  77156641.479       -1763.837          47.000  
  21471750.018   112834794.204        2738.685          42.000    21471745.483  
  87923206.804        2133.967          38.000  
  21833112.498   114733787.755        2625.195          37.000                  
                                                
  23429603.412                3      -2472.080          20.000    23429502.303  
                     -1925.754          31.000  
 21  4 24 15 15  7.9930000  0 10G 4G 7G 8G 9G16G26G27G30G21G18
  21618129.053   113604007.727       -4113.696          42.000    21618123.994  
  88522602.365       -3205.695          42.000  
  18764291.009    98606996.027        1272.406          45.000    18764282.263  
  76836609.644         991.455          43.000  
  18164974.245    95457562.287         270.839          48.000    18164968.799  
  74382512.013         211.138          43.000  
  20101092.102   105631946.196       -3026.230          43.000    20101087.545  
  82310598.470       -2358.280          45.000  
  21165824.048   111227143.251       -3521.467          45.000                  
                                                
  23305450.834   122470957.653       -3561.191          38.000    23305449.207  
                     -2774.915          31.000  
  18842874.751    99019962.660       -2263.898          47.000    18842869.358  
  77158405.320       -1764.050          47.000  
  21471228.961   112832055.553        2738.707          42.000    21471224.405  
  87921072.797        2134.114          38.000  
  21832612.872   114731162.638        2625.061          37.000                  
                                                
  23430070.557                3      -2469.933          21.000    23429972.463  
                     -1924.911          31.000  
 21  4 24 15 15  8.9930000  0 10G 4G 7G 8G 9G16G26G27G30G21G18
  21618911.998   113608121.661       -4113.971          42.000    21618906.840  
  88525808.012       -3205.872          42.000  
  18764048.951    98605724.120        1271.521          45.000    18764040.244  
  76835618.539         990.662          43.000  
  18164922.783    95457291.840         269.922          48.000    18164917.347  
  74382301.264         210.479          43.000  
  20101668.198   105634973.024       -3027.192          43.000    20101663.528  
  82312957.034       -2358.851          45.000  
  21166494.175   111230664.925       -3521.967          45.000                  
                                                
  23306128.416   122474519.031       -3561.350          38.000    23306126.600  
                     -2774.747          31.000  
  18843305.635    99022226.880       -2264.618          47.000    18843300.252  
  77160169.642       -1764.471          48.000  
  21470707.966   112829317.088        2737.834          42.000    21470703.244  
  87918938.922        2133.480          38.000  
  21832113.317   114728537.680        2624.750          38.000                  
                                                
  23430540.452                3      -2474.075          23.000    23430442.895  
                     -1926.003          30.000  
 21  4 24 15 15  9.9930000  0 10G 4G 7G 8G 9G16G26G27G30G21G18
  21619694.885   113612235.668       -4114.355          42.000    21619689.720  
  88529013.726       -3205.865          42.000  
  18763806.721    98604452.516        1271.375          45.000    18763798.276  
  76834627.686         990.717          43.000  
  18164871.440    95457021.989         269.341          48.000    18164866.120  
  74382090.995         209.951          43.000  
  20102244.304   105638000.234       -3027.692          43.000    20102239.654  
  82315315.893       -2359.050          45.000  
  21167164.341   111234186.619       -3521.873          45.000                  
                                                
  23306806.066   122478080.355       -3561.515          38.000    23306803.979  
                     -2775.120          31.000  
  18843736.626    99024491.643       -2265.179          47.000    18843731.259  
  77161934.397       -1765.076          48.000  
  21470186.807   112826578.649        2738.557          42.000    21470182.084  
  87916805.073        2133.856          38.000  
  21831613.722   114725912.753        2624.780          37.000                  
                                                
  23431009.874                3      -2475.655          24.000    23430913.383  
                     -1927.266          31.000  
 21  4 24 15 15 10.9930000  0 10G 4G 7G 8G 9G16G26G27G30G21G18
  21620477.842   113616349.858       -4114.581          42.000    21620472.620  
  88532219.585       -3206.073          42.000  
  18763564.768    98603181.380        1270.892          45.000    18763556.489  
  76833637.194         990.149          43.000  
  18164820.217    95456752.874         268.540          48.000    18164814.856  
  74381881.293         209.313          43.000  
  20102820.543   105641027.960       -3028.345          43.000    20102815.808  
  82317675.169       -2359.792          45.000  
  21167834.554   111237708.481       -3522.281          45.000                  
                                                
  23307483.886   122481641.709       -3561.758          38.000    23307481.511  
                     -2775.037          30.000  
  18844167.704    99026757.080       -2266.089          48.000    18844162.314  
  77163699.665       -1765.784          48.000  
  21469665.757   112823840.429        2738.050          42.000    21469660.960  
  87914671.388        2133.328          38.000  
  21831114.238   114723288.002        2624.335          38.000                  
                                                
  23431484.359                3      -2473.260          25.000    23431383.913  
                     -1926.552          30.000  
 21  4 24 15 15 11.9930000  0 10G 4G 7G 8G 9G16G26G27G30G21G18
  21621260.811   113620464.486       -4114.862          42.000    21621255.611  
  88535425.796       -3206.488          42.000  
  18763323.030    98601910.947        1270.013          45.000    18763314.722  
  76832647.232         989.771          43.000  
  18164769.236    95456484.738         267.469          48.000    18164763.860  
  74381672.363         208.368          43.000  
  20103396.851   105644056.430       -3028.601          43.000    20103392.219  
  82320035.022       -2360.234          45.000  
  21168504.834   111241230.722       -3522.418          45.000                  
                                                
  23308161.612   122485203.351       -3561.879          38.000    23308159.046  
  95443025.429       -2775.317          31.000  
  18844599.022    99029023.389       -2266.858          48.000    18844593.589  
  77165465.619       -1766.425          48.000  
  21469144.703   112821102.640        2737.394          42.000    21469139.949  
  87912538.050        2133.332          38.000  
  21830614.763   114720663.678        2623.840          38.000                  
                                                
  23431954.309                3      -2474.096          26.000    23431854.642  
                     -1928.198          30.000  
 21  4 24 15 15 12.9930000  0 10G 4G 7G 8G 9G16G26G27G30G21G18
  21622043.869   113624579.369       -4114.868          42.000    21622038.641  
  88538632.193       -3206.629          42.000  
  18763081.364    98600640.995        1270.111          45.000    18763072.988  
  76831657.669         989.404          43.000  
  18164718.346    95456217.341         267.162          48.000    18164713.026  
  74381463.997         208.284          43.000  
  20103973.190   105647085.486       -3029.318          43.000    20103968.691  
  82322395.308       -2360.372          45.000  
  21169175.147   111244753.154       -3522.468          45.000                  
                                                
  23308839.374   122488765.081       -3561.897          37.000    23308836.623  
                     -2775.549          30.000  
  18845030.461    99031290.412       -2267.334          48.000    18845024.962  
  77167232.125       -1766.693          48.000  
  21468623.770   112818365.060        2737.781          42.000    21468619.064  
  87910404.888        2133.259          38.000  
  21830115.551   114718039.552        2624.249          38.000                  
                                                
  23432423.401                2      -2474.902          27.000    23432325.465  
                     -1928.243          29.000  
 21  4 24 15 15 13.9930000  0 10G 4G 7G 8G 9G16G26G27G30G21G18
  21622826.871   113628694.412       -4115.283          42.000    21622821.720  
  88541838.717       -3206.409          41.000  
  18762839.761    98599371.477        1269.470          44.000    18762831.463  
  76830668.432         989.233          43.000  
  18164667.601    95455950.667         266.474          48.000    18164662.268  
  74381256.197         207.765          43.000  
  20104549.753   105650115.021       -3029.702          43.000    20104545.239  
  82324755.997       -2361.033          45.000  
  21169845.476   111248275.722       -3522.491          45.000                  
                                                
  23309517.110   122492326.829       -3561.209          37.000    23309514.241  
                     -2774.796          30.000  
  18845462.038    99033558.063       -2267.902          48.000    18845456.450  
  77168999.128       -1767.163          48.000  
  21468102.831   112815627.695        2737.465          42.000    21468098.106  
  87908271.885        2132.564          38.000  
  21829616.202   114715415.615        2623.389          38.000                  
                                                
  23432900.786                3      -2475.141          28.000    23432796.236  
                     -1928.412          29.000  
 21  4 24 15 15 14.9930000  0 10G 4G 7G 8G 9G16G26G27G30G21G18
  21623609.967   113632809.578       -4115.369          42.000    21623604.788  
  88545045.339       -3206.885          41.000  
  18762598.287    98598102.331        1269.055          44.000    18762589.933  
  76829679.487         988.702          43.000  
  18164616.957    95455684.642         265.621          48.000    18164611.690  
  74381048.906         207.141          43.000  
  20105126.255   105653144.989       -3030.304          43.000    20105121.726  
  82327116.998       -2361.115          45.000  
  21170515.796   111251798.339       -3522.696          45.000                  
                                                
  23310194.908   122495888.569       -3561.621          37.000    23310191.765  
                     -2775.618          30.000  
  18845893.670    99035826.274       -2268.463          48.000    18845888.117  
  77170766.567       -1767.755          48.000  
  21467581.926   112812890.390        2737.324          41.000    21467577.231  
  87906138.891        2133.267          38.000  
  21829116.900   114712791.708        2623.767          38.000                  
                                                
  23433377.395                2      -2475.622          28.000    23433267.066  
                     -1929.098          29.000  
 21  4 24 15 15 15.9930000  0 10G 4G 7G 8G 9G16G26G27G30G21G18
  21624393.108   113636924.855       -4115.674          43.000    21624387.928  
  88548252.040       -3206.946          41.000  
  18762356.762    98596833.559        1268.359          44.000    18762348.540  
  76828690.835         988.281          43.000  
  18164566.518    95455419.277         264.753          48.000    18164561.246  
  74380842.143         206.257          43.000  
  20105702.992   105656175.396       -3030.817          43.000    20105698.375  
  82329478.362       -2361.625          45.000  
  21171186.267   111255321.055       -3522.960          46.000                  
                                                
  23310872.676   122499450.279       -3561.667          36.000    23310869.300  
                     -2775.728          30.000  
  18846325.439    99038095.079       -2269.348          48.000    18846319.894  
  77172534.463       -1768.237          47.000  
  21467061.065   112810153.211        2736.923          41.000    21467056.499  
  87904006.040        2132.745          38.000  
  21828617.575   114710167.932        2623.175          38.000                  
                                                
  23433853.192                2      -2476.190          29.000    23433738.151  
                     -1929.893          29.000  
 21  4 24 15 15 16.9930000  0 10G 4G 7G 8G 9G16G26G27G30G21G18
  21625176.182   113641040.349       -4115.649          43.000    21625171.102  
  88551458.936       -3207.111          41.000  
  18762115.463    98595565.278        1267.828          45.000    18762107.060  
  76827702.557         987.872          43.000  
  18164516.056    95455154.673         264.083          48.000    18164510.833  
  74380635.960         205.728          43.000  
  20106279.802   105659206.361       -3031.355          43.000    20106275.220  
  82331840.155       -2362.118          45.000  
  21171856.718   111258843.946       -3523.086          45.000                  
                                                
  23311550.413   122503012.061       -3561.699          36.000    23311546.699  
                     -2775.778          30.000  
  18846757.289    99040364.567       -2269.971          48.000    18846751.655  
  77174302.897       -1768.811          47.000  
  21466540.250   112807416.255        2737.112          41.000    21466535.722  
  87901873.337        2132.719          38.000  
  21828118.413   114707544.330        2623.755          38.000                  
                                                
  23434324.817                2      -2477.007          30.000    23434209.111  
                     -1929.877          29.000  
 21  4 24 15 15 17.9930000  0 10G 4G 7G 8G 9G16G26G27G30G21G18
  21625959.473   113645156.149       -4116.046          43.000    21625954.354  
  88554666.030       -3207.086          41.000  
  18761874.235    98594297.520        1267.328          45.000    18761865.840  
  76826714.690         987.567          43.000  
  18164465.814    95454890.872         263.406          48.000    18164460.705  
  74380430.394         205.145          43.000  
  20106856.709   105662237.923       -3031.765          42.000    20106852.163  
  82334202.409       -2362.577          45.000  
  21172527.257   111262367.070       -3523.419          46.000                  
                                                
  23312228.286   122506573.990       -3562.074          36.000    23312224.102  
                     -2776.022          30.000  
  18847189.279    99042634.791       -2270.721          48.000    18847183.712  
  77176071.908       -1769.458          47.000  
  21466019.398   112804679.599        2736.474          41.000    21466014.982  
  87899740.873        2132.539          38.000  
  21827619.282   114704921.011        2623.187          38.000                  
                                                
  23434797.332                2      -2478.276          30.000    23434680.213  
                     -1929.554          28.000  
 21  4 24 15 15 18.9930000  0 10G 4G 7G 8G 9G16G26G27G30G21G18
  21626742.721   113649272.099       -4116.101          43.000    21626737.540  
  88557873.270       -3207.294          41.000  
  18761633.002    98593030.181        1267.358          45.000    18761624.699  
  76825727.158         987.463          43.000  
  18164415.826    95454627.794         262.734          48.000    18164410.694  
  74380225.405         204.754          43.000  
  20107433.641   105665269.974       -3032.352          42.000    20107429.110  
  82336565.043       -2362.851          45.000  
  21173197.667   111265890.306       -3523.157          46.000                  
                                                
  23312906.005   122510135.905       -3561.706          36.000    23312901.654  
                     -2774.867          30.000  
  18847621.320    99044905.648       -2271.149          48.000    18847615.772  
  77177841.405       -1769.678          47.000  
  21465498.650   112801943.067        2736.515          41.000    21465494.270  
  87897608.517        2132.661          38.000  
  21827120.143   114702297.826        2623.309          38.000                  
                                                
  23435268.654                1      -2477.723          31.000    23435151.808  
                     -1930.854          28.000  
 21  4 24 15 15 19.9930000  0 10G 4G 7G 8G 9G16G26G27G30G21G18
  21627525.988   113653388.102       -4116.046          43.000    21627520.737  
  88561080.548       -3207.581          41.000  
  18761391.919    98591763.171        1266.559          45.000    18761383.738  
  76824739.866         987.244          43.000  
  18164365.845    95454365.279         262.339          48.000    18164360.676  
  74380020.843         204.189          43.000  
  20108010.694   105668302.397       -3032.666          42.000    20108006.141  
  82338927.969       -2363.241          45.000  
  21173868.129   111269413.572       -3523.375          46.000                  
                                                
  23313583.858   122513697.757       -3561.854          35.000    23313579.256  
                     -2775.762          29.000  
  18848053.535    99047177.009       -2271.631          48.000    18848048.088  
  77179611.300       -1770.251          47.000  
  21464977.945   112799206.618        2736.458          41.000    21464973.666  
  87895476.204        2132.417          38.000  
  21826621.082   114699674.693        2622.888          38.000                  
                                                
  23435740.745   123155583.456       -2478.391          31.000    23435623.175  
                     -1931.243          28.000  
 21  4 24 15 15 20.9930000  0 10G 4G 7G 8G 9G16G26G27G30G21G18
  21628309.315   113657504.485       -4116.333          43.000    21628303.981  
  88564288.116       -3207.635          41.000  
  18761150.967    98590496.769        1266.339          45.000    18761142.712  
  76823753.068         986.731          43.000  
  18164316.089    95454103.683         261.339          48.000    18164310.845  
  74379816.995         203.737          43.000  
  20108587.824   105671335.509       -3033.575          42.000    20108583.261  
  82341291.421       -2363.625          45.000  
  21174538.661   111272937.143       -3523.591          46.000                  
                                                
  23314261.595   122517259.821       -3562.070          35.000    23314256.675  
                     -2774.904          29.000  
  18848485.878    99049449.215       -2272.491          48.000    18848480.405  
  77181381.843       -1770.752          47.000  
  21464457.265   112796470.509        2736.337          41.000    21464453.064  
  87893344.191        2132.012          39.000  
  21826122.075   114697051.868        2622.748          38.000                  
                                                
  23436212.767                       -2478.315          31.000    23436094.837  
                     -1930.948          29.000  
 21  4 24 15 15 21.9930000  0 10G 4G 7G 8G 9G16G26G27G30G21G18
  21629092.731   113661621.067       -4116.938          43.000    21629087.313  
  88567495.830       -3207.855          41.000  
  18760910.148    98589230.841        1265.411          45.000    18760901.861  
  76822766.624         986.255          43.000  
  18164266.444    95453842.827         260.539          48.000    18164261.205  
  74379613.731         203.145          43.000  
  20109165.063   105674369.142       -3033.912          42.000    20109160.512  
  82343655.289       -2364.111          45.000  
  21175209.243   111276460.880       -3523.879          46.000                  
                                                
  23314939.393   122520821.941       -3562.044          35.000    23314934.287  
                     -2775.613          30.000  
  18848918.394    99051722.077       -2273.157          48.000    18848912.932  
  77183152.903       -1771.307          47.000  
  21463936.658   112793734.632        2735.340          40.000    21463932.422  
  87891212.324        2131.413          38.000  
  21825623.022   114694429.270        2622.552          38.000                  
                                                
  23436684.430   123160541.367       -2479.704          31.000    23436566.527  
                     -1931.689          28.000  
 21  4 24 15 15 22.9930000  0 10G 4G 7G 8G 9G16G26G27G30G21G18
  21629876.034   113665737.685       -4116.736          43.000    21629870.750  
  88570703.591       -3207.855          41.000  
  18760669.281    98587965.206        1265.277          45.000    18760661.004  
  76821780.420         986.053          43.000  
  18164216.891    95453582.545         259.919          48.000    18164211.661  
  74379410.912         202.509          43.000  
  20109742.356   105677403.125       -3034.345          42.000    20109737.818  
  82346019.426       -2364.280          45.000  
  21175879.812   111279984.603       -3523.869          46.000                  
                                                
  23315617.079   122524383.953       -3562.013          35.000    23315611.967  
                     -2775.318          30.000  
  18849351.065    99053995.443       -2273.767          48.000    18849345.511  
  77184924.356       -1771.741          47.000  
  21463416.016   112790998.737        2735.882          40.000    21463411.836  
  87889080.473        2131.872          38.000  
  21825124.091   114691806.666        2622.345          38.000                  
                                                
  23437156.095   123163020.988       -2479.959          31.000    23437038.471  
                     -1932.037          28.000  
 21  4 24 15 15 23.9930000  0 10G 4G 7G 8G 9G16G26G27G30G21G18
  21630659.309   113669854.389       -4116.778          43.000    21630654.237  
  88573911.412       -3207.874          41.000  
  18760428.466    98586699.907        1265.076          45.000    18760420.219  
  76820794.471         985.724          43.000  
  18164167.495    95453322.881         259.274          48.000    18164162.209  
  74379208.581         202.040          43.000  
  20110319.941   105680437.519       -3034.695          42.000    20110315.235  
  82348383.894       -2364.652          45.000  
  21176550.410   111283508.360       -3523.767          46.000                  
                                                
  23316294.902   122527945.928       -3562.492          34.000    23316289.527  
                     -2775.184          30.000  
  18849783.811    99056269.331       -2274.280          48.000    18849778.206  
  77186696.222       -1772.119          47.000  
  21462895.488   112788262.959        2735.457          40.000    21462891.235  
  87886948.690        2131.744          39.000  
  21824625.178   114689184.112        2622.638          38.000                  
                                                
  23437627.926   123165501.046       -2480.151          32.000    23437510.477  
                     -1932.595          28.000  
 21  4 24 15 15 24.9930000  0 10G 4G 7G 8G 9G16G26G27G30G21G18
  21631442.690   113673971.259       -4117.157          43.000    21631437.552  
  88577119.351       -3208.002          41.000  
  18760187.725    98585435.043        1264.258          45.000    18760179.414  
  76819808.862         985.217          43.000  
  18164118.191    95453063.935         258.399          49.000    18164112.988  
  74379006.811         201.321          43.000  
  20110897.431   105683472.406       -3035.354          42.000    20110892.746  
  82350748.748       -2365.283          45.000  
  21177221.006   111287032.246       -3524.163          46.000                  
                                                
  23316972.546   122531507.865       -3561.892          34.000    23316967.285  
                     -2775.406          30.000  
  18850216.630    99058543.869       -2275.171          48.000    18850211.078  
  77188468.593       -1772.913          47.000  
  21462374.876   112785527.332        2735.083          40.000    21462370.658  
  87884817.059        2131.111          39.000  
  21824126.113   114686561.717        2622.113          38.000                  
                                                
  23438099.952   123167981.685       -2481.286          31.000    23437982.661  
                     -1932.638          28.000  
 21  4 24 15 15 25.9930000  0 10G 4G 7G 8G 9G16G26G27G30G21G18
  21632226.109   113678088.360       -4116.998          43.000    21632221.017  
  88580327.499       -3208.222          41.000  
  18759947.136    98584170.659        1264.172          45.000    18759938.857  
  76818823.625         985.278          43.000  
  18164069.008    95452805.754         257.927          49.000    18164063.950  
  74378805.628         201.051          43.000  
  20111475.064   105686507.842       -3035.488          42.000    20111470.341  
  82353114.013       -2365.454          45.000  
  21177891.616   111290556.328       -3524.048          46.000                  
                                                
  23317650.240   122535069.920       -3561.885          34.000    23317644.941  
                     -2775.971          30.000  
  18850649.538    99060819.090       -2275.568          48.000    18850644.029  
  77190241.483       -1773.077          47.000  
  21461854.382   112782791.921        2735.369          40.000    21461850.129  
  87882685.551        2131.679          39.000  
  21823627.236   114683939.521        2622.412          38.000                  
                                                
  23438572.034   123170462.886       -2481.849          31.000    23438454.890  
                     -1933.407          27.000  
 21  4 24 15 15 26.9930000  0 10G 4G 7G 8G 9G16G26G27G30G21G18
  21633009.608   113682205.472       -4117.297          43.000    21633004.438  
  88583535.632       -3208.081          41.000  
  18759706.627    98582906.537        1264.056          45.000    18759698.310  
  76817838.610         984.772          43.000  
  18164020.033    95452548.099         257.246          49.000    18164014.920  
  74378604.856         200.541          43.000  
  20112052.704   105689543.615       -3035.958          42.000    20112047.940  
  82355479.538       -2365.497          45.000  
  21178562.132   111294080.359       -3524.061          46.000                  
                                                
  23318327.916   122538631.851       -3562.108          34.000    23318322.534  
                     -2774.830          30.000  
  18851082.591    99063094.769       -2275.922          48.000    18851077.065  
  77192014.749       -1773.493          47.000  
  21461333.852   112780056.508        2735.448          41.000    21461329.605  
  87880554.082        2131.174          39.000  
  21823128.189   114681317.330        2622.064          38.000                  
                                                
  23439044.267                       -2481.256          31.000    23438926.987  
                     -1933.696          27.000  
 21  4 24 15 15 27.9930000  0 10G 4G 7G 8G 9G16G26G27G30G21G18
  21633793.075   113686322.668       -4117.310          43.000    21633787.849  
  88586743.832       -3208.136          41.000  
  18759466.183    98581642.754        1263.794          45.000    18759457.891  
  76816853.852         984.741          43.000  
  18163971.179    95452291.067         256.668          49.000    18163966.076  
  74378404.569         200.148          43.000  
  20112630.488   105692579.779       -3036.349          42.000    20112625.683  
  82357845.392       -2366.057          45.000  
  21179232.706   111297604.440       -3524.035          46.000                  
                                                
  23319005.610   122542193.722       -3561.884          34.000    23319000.210  
                     -2776.016          30.000  
  18851515.751    99065371.022       -2276.508          48.000    18851510.243  
  77193788.452       -1773.798          47.000  
  21460813.318   112777321.209        2735.222          41.000    21460809.112  
  87878422.668        2131.174          39.000  
  21822629.169   114678695.192        2622.119          39.000                  
                                                
  23439516.508                       -2482.494          31.000    23439399.340  
                     -1934.082          27.000  
 21  4 24 15 15 28.9930000  0 10G 4G 7G 8G 9G16G26G27G30G21G18
  21634576.535   113690439.990       -4117.462          43.000    21634571.324  
  88589952.154       -3208.643          41.000  
  18759225.855    98580379.380        1263.062          45.000    18759217.450  
  76815869.397         984.338          43.000  
  18163922.344    95452034.683         255.972          49.000    18163917.167  
  74378204.783         199.560          43.000  
  20113208.356   105695616.409       -3036.809          42.000    20113203.587  
  82360211.584       -2366.361          45.000  
  21179903.360   111301128.607       -3524.200          46.000                  
                                                
  23319683.327   122545755.564       -3562.142          34.000    23319677.709  
                     -2775.506          30.000  
  18851948.958    99067647.830       -2277.032          48.000    18851943.610  
  77195562.597       -1774.506          47.000  
  21460292.822   112774586.006        2735.119          40.000    21460288.599  
  87876291.339        2131.121          39.000  
  21822130.205   114676073.167        2622.040          38.000                  
                                                
  23439988.921   123177908.979       -2483.060          31.000    23439871.645  
                     -1934.144          27.000  
 21  4 24 15 15 29.9930000  0 10G 4G 7G 8G 9G16G26G27G30G21G18
  21635359.978   113694557.499       -4117.627          43.000    21635354.749  
  88593160.582       -3208.325          41.000  
  18758985.537    98579116.435        1262.653          45.000    18758977.227  
  76814885.285         983.807          43.000  
  18163873.635    95451779.015         255.326          49.000    18163868.467  
  74378005.569         198.855          43.000  
  20113786.264   105698653.521       -3037.176          42.000    20113781.575  
  82362578.168       -2366.741          45.000  
  21180574.080   111304652.903       -3524.274          46.000                  
                                                
  23320361.062   122549317.432       -3562.018          34.000    23320355.353  
                     -2775.481          30.000  
  18852382.349    99069925.320       -2277.740          48.000    18852376.904  
  77197337.256       -1774.884          47.000  
  21459772.476   112771851.003        2734.756          40.000    21459768.098  
  87874160.161        2131.060          39.000  
  21821631.132   114673451.306        2621.423          39.000                  
                                                
  23440461.270   123180392.006       -2483.496          31.000    23440344.499  
                     -1935.676          26.000  
 21  4 24 15 15 30.9930000  0 10G 4G 7G 8G 9G16G26G27G30G21G18
  21636143.543   113698675.090       -4117.608          43.000    21636138.381  
  88596369.108       -3208.563          41.000  
  18758745.211    98577853.824        1262.592          45.000    18758737.053  
  76813901.440         983.813          43.000  
  18163825.134    95451523.978         254.672          48.000    18163819.940  
  74377806.836         198.397          43.000  
  20114364.301   105701691.046       -3037.533          42.000    20114359.633  
  82364945.079       -2367.152          44.000  
  21181244.791   111308177.260       -3524.472          46.000                  
                                                
  23321038.765   122552879.276       -3562.005          34.000    23321033.023  
                     -2775.907          31.000  
  18852815.748    99072203.332       -2278.302          48.000    18852810.439  
  77199112.338       -1775.348          47.000  
  21459251.970   112769116.078        2734.845          40.000    21459247.619  
  87872029.042        2131.153          39.000  
  21821132.259   114670829.498        2621.521          39.000                  
                                                
  23440933.881                       -2483.493          31.000    23440816.996  
                     -1935.278          26.000  
 21  4 24 15 15 31.9930000  0 10G 4G 7G 8G 9G16G26G27G30G21G18
  21636927.168   113702792.802       -4117.560          43.000    21636921.963  
  88599577.717       -3208.722          41.000  
  18758505.007    98576591.599        1262.317          46.000    18758496.828  
  76812917.888         983.429          43.000  
  18163776.821    95451269.589         254.263          48.000    18163771.488  
  74377608.597         198.221          43.000  
  20114942.462   105704729.021       -3038.092          42.000    20114937.708  
  82367312.319       -2367.362          44.000  
  21181915.404   111311701.675       -3524.515          46.000                  
                                                
  23321716.552   122556441.044       -3561.333          34.000    23321710.708  
  95498535.348       -2774.878          31.000  
  18853249.302    99074481.934       -2278.711          48.000    18853244.115  
  77200887.872       -1775.800          47.000  
  21458731.606   112766381.234        2735.202          40.000    21458727.102  
  87869898.013        2131.327          39.000  
  21820633.392   114668207.788        2621.667          39.000                  
                                                
  23441406.590                       -2484.649          31.000    23441289.685  
                     -1936.704          26.000  
 21  4 24 15 15 32.9930000  0 10G 4G 7G 8G 9G16G26G27G30G21G18
  21637710.800   113706910.553       -4117.859          43.000    21637705.516  
  88602786.348       -3208.807          41.000  
  18758264.795    98575329.673        1261.713          46.000    18758256.660  
  76811934.568         983.032          43.000  
  18163728.377    95451015.779         253.470          48.000    18163723.125  
  74377410.833         197.403          43.000  
  20115520.546   105707767.337       -3038.480          42.000    20115515.750  
  82369679.833       -2367.649          44.000  
  21182586.128   111315226.088       -3524.478          46.000                  
                                                
  23322394.222   122560002.730       -3561.488          33.000    23322388.740  
                     -2775.270          32.000  
  18853683.071    99076761.031       -2279.645          48.000    18853677.830  
  77202663.780       -1776.056          47.000  
  21458211.164   112763646.488        2734.544          40.000    21458206.766  
  87867767.036        2130.643          39.000  
  21820134.398   114665586.093        2621.698          39.000                  
                                                
  23441879.261                       -2484.688          31.000    23441762.344  
                     -1935.958          26.000  
 21  4 24 15 15 33.9930000  0 10G 4G 7G 8G 9G16G26G27G30G21G18
  21638494.352   113711028.565       -4118.183          43.000    21638489.165  
  88605995.191       -3208.997          41.000  
  18758024.669    98574068.258        1261.273          46.000    18758016.630  
  76810951.663         982.465          43.000  
  18163680.322    95450762.782         252.485          48.000    18163675.033  
  74377213.681         196.722          43.000  
  20116098.873   105710806.259       -3039.377          41.000    20116094.043  
  82372047.822       -2368.253          44.000  
  21183256.830   111318750.720       -3524.758          46.000                  
                                                
  23323071.912   122563564.517       -3561.565          33.000    23323066.751  
                     -2775.416          32.000  
  18854116.928    99079040.846       -2280.261          47.000    18854111.606  
  77204440.268       -1776.752          47.000  
  21457690.881   112760911.946        2734.410          40.000    21457686.370  
  87865636.213        2130.927          39.000  
  21819635.557   114662964.659        2621.246          39.000                  
                                                
  23442352.230                       -2486.075          30.000    23442235.168  
                     -1935.942          26.000  
 21  4 24 15 15 34.9930000  0 10G 4G 7G 8G 9G16G26G27G30G21G18
  21639278.002   113715146.887       -4118.463          43.000    21639272.874  
  88609204.278       -3209.253          41.000  
  18757784.613    98572807.429        1260.425          46.000    18757776.791  
  76809969.183         982.172          43.000  
  18163632.340    95450510.606         251.707          48.000    18163627.073  
  74377017.186         196.155          43.000  
  20116677.163   105713845.781       -3039.807          41.000    20116672.426  
  82374416.279       -2368.749          44.000  
  21183927.626   111322275.617       -3525.074          46.000                  
                                                
  23323749.677   122567126.487       -3561.574          33.000    23323744.763  
  95506861.641       -2775.205          32.000  
  18854550.783    99081321.438       -2281.079          47.000    18854545.651  
  77206217.341       -1777.350          47.000  
  21457170.569   112758177.731        2733.995          40.000    21457165.956  
  87863505.670        2130.582          39.000  
  21819136.756   114660343.507        2620.728          39.000                  
                                                
  23442825.157                       -2487.239          30.000    23442708.336  
                     -1937.345          26.000  
 21  4 24 15 15 35.9930000  0 10G 4G 7G 8G 9G16G26G27G30G21G18
  21640061.702   113719265.542       -4118.951          43.000    21640056.579  
  88612413.615       -3209.583          41.000  
  18757544.872    98571547.172        1260.004          46.000    18757536.886  
  76808987.167         981.628          43.000  
  18163584.433    95450259.294         250.872          48.000    18163579.330  
  74376821.368         195.296          43.000  
  20117255.657   105716885.957       -3040.563          41.000    20117250.812  
  82376785.259       -2369.444          44.000  
  21184598.469   111325800.797       -3525.378          46.000                  
                                                
  23324427.559   122570688.645       -3562.157          33.000    23324422.797  
  95509637.340       -2775.235          32.000  
  18854984.927    99083602.805       -2281.854          47.000    18854979.781  
  77207995.037       -1778.094          47.000  
  21456650.419   112755443.845        2733.740          40.000    21456645.739  
  87861375.362        2130.466          39.000  
  21818638.127   114657722.656        2620.422          39.000                  
                                                
  23443298.361                       -2486.543          30.000    23443181.456  
                     -1937.489          26.000  
 21  4 24 15 15 36.9930000  0 10G 4G 7G 8G 9G16G26G27G30G21G18
  21640845.506   113723384.432       -4118.896          43.000    21640840.282  
  88615623.126       -3209.161          41.000  
  18757305.209    98570287.425        1259.747          46.000    18757297.200  
  76808005.541         981.763          43.000  
  18163536.841    95450008.770         250.453          48.000    18163531.717  
  74376626.146         195.048          43.000  
  20117834.272   105719926.702       -3040.565          41.000    20117829.391  
  82379154.666       -2369.522          44.000  
  21185269.302   111329326.170       -3525.236          46.000                  
                                                
  23325105.359   122574250.903       -3562.266          34.000    23325100.854  
  95512413.158       -2775.706          32.000  
  18855419.243    99085884.880       -2282.153          47.000    18855414.086  
  77209773.273       -1778.156          47.000  
  21456130.262   112752710.195        2733.617          40.000    21456125.581  
  87859245.256        2130.103          38.000  
  21818139.463   114655102.022        2620.776          39.000                  
                                                
  23443771.452                       -2486.954          29.000    23443654.819  
                     -1937.972          26.000  
 21  4 24 15 15 37.9930000  0 10G 4G 7G 8G 9G16G26G27G30G21G18
  21641629.371   113727503.515       -4119.238          43.000    21641624.122  
  88618832.808       -3209.650          40.000  
  18757065.648    98569028.130        1259.076          46.000    18757057.534  
  76807024.285         981.091          43.000  
  18163489.338    95449758.961         249.313          48.000    18163484.218  
  74376431.496         194.191          43.000  
  20118413.155   105722967.954       -3041.288          41.000    20118408.093  
  82381524.481       -2370.139          44.000  
  21185940.109   111332851.696       -3525.586          46.000                  
                                                
  23325783.195   122577813.193       -3562.229          34.000    23325779.038  
                     -2775.483          32.000  
  18855853.621    99088167.605       -2283.118          47.000    18855848.332  
  77211552.016       -1779.041          47.000  
  21455610.137   112749976.723        2733.539          40.000    21455605.455  
  87857115.286        2129.828          38.000  
  21817640.908   114652481.574        2620.245          39.000                  
                                                
  23444244.868                       -2487.947          29.000    23444128.196  
                     -1939.332          25.000  
 21  4 24 15 15 38.9930000  0 10G 4G 7G 8G 9G16G26G27G30G21G18
  21642413.228   113731622.785       -4119.684          42.000    21642408.064  
  88622042.622       -3209.705          40.000  
  18756826.070    98567769.252        1258.868          46.000    18756818.073  
  76806043.338         980.884          43.000  
  18163441.919    95449509.862         248.573          48.000    18163436.768  
  74376237.378         193.959          43.000  
  20118992.088   105726009.712       -3041.908          41.000    20118986.962  
  82383894.663       -2370.240          44.000  
  21186611.047   111336377.357       -3525.788          45.000                  
                                                
  23326461.026   122581375.511       -3562.333          34.000    23326457.052  
  95517964.812       -2776.169          32.000  
  18856288.297    99090450.978       -2283.801          47.000    18856282.777  
  77213331.265       -1779.559          47.000  
  21455089.985   112747243.464        2732.907          39.000    21455085.311  
  87854985.443        2129.562          38.000  
  21817142.311   114649861.251        2620.148          39.000                  
                                                
  23444718.251                       -2488.687          29.000    23444601.733  
                     -1938.830          25.000  
 21  4 24 15 15 39.9930000  0 10G 4G 7G 8G 9G16G26G27G30G21G18
  21643197.109   113735742.073       -4119.385          42.000    21643191.965  
  88625252.477       -3210.193          40.000  
  18756586.586    98566510.698        1258.325          46.000    18756578.573  
  76805062.647         980.457          43.000  
  18163394.587    95449261.320         248.143          48.000    18163389.404  
  74376043.726         193.213          43.000  
  20119570.958   105729051.819       -3042.242          41.000    20119565.741  
  82386265.130       -2370.655          44.000  
  21187281.859   111339903.000       -3525.826          45.000                  
                                                
  23327138.867   122584937.743       -3562.845          33.000    23327135.071  
  95520740.538       -2775.906          32.000  
  18856722.906    99092734.841       -2284.344          48.000    18856717.383  
  77215110.894       -1779.962          47.000  
  21454569.783   112744510.179        2733.240          40.000    21454565.135  
  87852855.624        2129.798          38.000  
  21816643.680   114647240.980        2619.977          39.000                  
                                                
  23445191.767                       -2488.241          28.000    23445075.460  
                     -1939.698          25.000  
 21  4 24 15 15 40.9930000  0 10G 4G 7G 8G 9G16G26G27G30G21G18
  21643981.065   113739861.402       -4119.714          42.000    21643975.823  
  88628462.337       -3210.248          40.000  
  18756347.181    98565252.420        1257.910          46.000    18756339.131  
  76804082.175         980.115          43.000  
  18163347.357    95449013.362         247.288          48.000    18163342.201  
  74375850.517         192.684          43.000  
  20120149.952   105732094.285       -3043.076          41.000    20120144.707  
  82388635.890       -2371.126          44.000  
  21187952.681   111343428.638       -3525.900          45.000                  
                                                
  23327816.703   122588499.820       -3562.179          34.000    23327813.149  
  95523516.202       -2775.787          32.000  
  18857157.570    99095019.192       -2284.930          48.000    18857152.056  
  77216890.909       -1780.457          47.000  
  21454049.667   112741776.939        2733.075          40.000    21454045.031  
  87850725.846        2129.434          38.000  
  21816145.072   114644620.744        2619.641          39.000                  
                                                
  23445665.254                       -2489.238          27.000    23445549.037  
                     -1939.679          25.000  
 21  4 24 15 15 41.9930000  0 10G 4G 7G 8G 9G16G26G27G30G21G18
  21644764.903   113743980.730       -4119.196          42.000    21644759.673  
  88631672.196       -3209.705          40.000  
  18756107.712    98563994.413        1258.075          46.000    18756099.618  
  76803101.906         980.402          43.000  
  18163300.240    95448765.940         247.372          48.000    18163295.039  
  74375657.721         192.688          43.000  
  20120728.924   105735137.056       -3042.456          41.000    20120723.689  
  82391006.885       -2370.867          44.000  
  21188623.575   111346954.241       -3525.450          45.000                  
                                                
  23328494.576   122592061.826       -3562.156          34.000    23328491.067  
  95526291.760       -2774.964          33.000  
  18857592.393    99097304.010       -2284.894          48.000    18857586.839  
  77218671.287       -1780.463          47.000  
  21453529.615   112739043.713        2733.521          40.000    21453524.903  
  87848596.049        2130.018          38.000  
  21815646.393   114642000.484        2620.483          39.000                  
                                                
  23446138.945                       -2489.412          27.000    23446022.761  
                     -1939.443          25.000  
 21  4 24 15 15 42.9930000  0 10G 4G 7G 8G 9G16G26G27G30G21G18
  21645548.633   113748100.030       -4119.452          42.000    21645543.471  
  88634882.031       -3209.882          40.000  
  18755868.341    98562736.618        1257.599          46.000    18755860.259  
  76802121.796         979.987          43.000  
  18163253.194    95448519.018         246.481          48.000    18163248.134  
  74375465.312         192.061          44.000  
  20121308.037   105738180.122       -3043.437          41.000    20121302.646  
  82393378.097       -2371.477          44.000  
  21189294.353   111350479.745       -3525.588          45.000                  
                                                
  23329172.410   122595623.566       -3561.809          34.000    23329169.027  
  95529067.195       -2776.124          33.000  
  18858027.290    99099589.238       -2285.583          48.000    18858021.751  
  77220451.982       -1781.024          47.000  
  21453009.450   112736310.447        2733.141          40.000    21453004.839  
  87846466.246        2129.359          39.000  
  21815147.700   114639380.142        2620.496          39.000                  
                                                
  23446612.655                       -2490.026          27.000    23446496.705  
                     -1940.267          25.000  
 21  4 24 15 15 43.9930000  0 10G 4G 7G 8G 9G16G26G27G30G21G18
  21646332.529   113752219.457       -4119.519          42.000    21646327.254  
  88638091.965       -3209.735          40.000  
  18755629.094    98561479.219        1257.404          46.000    18755620.938  
  76801142.010         979.736          43.000  
  18163206.359    95448272.778         245.852          48.000    18163201.215  
  74375273.417         191.865          44.000  
  20121887.125   105741223.638       -3043.738          41.000    20121881.728  
  82395749.669       -2371.749          44.000  
  21189965.189   111354005.350       -3525.687          45.000                  
                                                
  23329850.263   122599185.306       -3561.375          34.000    23329846.982  
  95531842.569       -2775.295          33.000  
  18858462.363    99101875.067       -2286.029          48.000    18858456.638  
  77222233.147       -1781.329          47.000  
  21452489.301   112733577.328        2732.783          40.000    21452484.728  
  87844336.527        2129.607          39.000  
  21814649.123   114636759.967        2620.386          39.000                  
                                                
  23447086.297                       -2490.818          27.000    23446970.694  
                     -1940.879          26.000  
 21  4 24 15 15 44.9930000  0 10G 4G 7G 8G 9G16G26G27G30G21G18
  21647116.504   113756339.070       -4119.891          42.000    21647111.211  
  88641302.060       -3210.382          40.000  
  18755389.971    98560222.283        1256.451          46.000    18755381.721  
  76800162.586         978.986          43.000  
  18163159.622    95448027.269         244.853          48.000    18163154.571  
  74375082.125         190.876          44.000  
  20122466.296   105744267.663       -3044.562          41.000    20122460.986  
  82398121.639       -2372.242          44.000  
  21190636.136   111357531.109       -3526.224          45.000                  
                                                
  23330528.059   122602747.143       -3562.258          34.000    23330524.972  
  95534618.006       -2775.200          33.000  
  18858897.511    99104161.562       -2287.109          48.000    18858891.722  
  77224014.827       -1782.159          47.000  
  21451969.208   112730844.399        2732.628          41.000    21451964.632  
  87842206.975        2129.066          39.000  
  21814150.560   114634139.965        2619.446          39.000                  
                                                
  23447560.148                       -2491.057          27.000    23447444.709  
                     -1941.090          26.000  
 21  4 24 15 15 45.9930000  0 10G 4G 7G 8G 9G16G26G27G30G21G18
  21647900.535   113760459.012       -4119.964          42.000    21647895.140  
  88644512.411       -3210.340          40.000  
  18755150.835    98558965.928        1256.110          46.000    18755142.576  
  76799183.597         978.937          43.000  
  18163113.035    95447782.617         244.252          48.000    18163107.970  
  74374891.497         190.291          43.000  
  20123045.670   105747312.344       -3045.019          41.000    20123040.408  
  82400494.125       -2372.638          44.000  
  21191307.016   111361057.142       -3526.064          45.000                  
                                                
  23331205.863   122606309.146       -3561.857          34.000    23331202.959  
  95537393.573       -2775.390          33.000  
  18859332.726    99106448.829       -2287.640          48.000    18859327.006  
  77225797.115       -1782.581          47.000  
  21451449.173   112728111.764        2732.585          40.000    21451444.646  
  87840077.669        2129.032          38.000  
  21813652.045   114631520.228        2619.830          39.000                  
                                                
  23448034.346                       -2491.212          27.000    23447919.137  
                     -1941.458          26.000  
 21  4 24 15 15 46.9930000  0 10G 4G 7G 8G 9G16G26G27G30G21G18
  21648684.549   113764579.089       -4120.343          42.000    21648679.143  
  88647722.857       -3210.651          40.000  
  18754911.791    98557709.968        1255.670          46.000    18754903.531  
  76798204.931         978.455          43.000  
  18163066.585    95447538.640         243.483          48.000    18163061.484  
  74374701.390         189.538          43.000  
  20123625.130   105750357.457       -3045.375          42.000    20123619.805  
  82402866.948       -2372.999          44.000  
  21191977.810   111364583.275       -3526.358          45.000                  
                                                
  23331883.761   122609871.074       -3561.381          34.000    23331880.969  
  95540169.164       -2775.770          33.000  
  18859768.100    99108736.682       -2288.147          48.000    18859762.352  
  77227579.862       -1783.099          47.000  
  21450929.115   112725379.294        2732.249          40.000    21450924.645  
  87837948.449        2129.199          38.000  
  21813153.620   114628900.641        2619.342          38.000                  
                                                
  23448508.343                       -2491.891          27.000    23448393.416  
                     -1941.921          25.000  
 21  4 24 15 15 47.9930000  0 10G 4G 7G 8G 9G16G26G27G30G21G18
  21649468.660   113768699.430       -4120.789          42.000    21649463.211  
  88650933.523       -3211.102          40.000  
  18754672.877    98556454.535        1254.846          45.000    18754664.678  
  76797226.667         977.960          43.000  
  18163020.463    95447295.467         242.614          48.000    18163015.223  
  74374511.901         189.052          43.000  
  20124204.786   105753403.171       -3046.059          42.000    20124199.342  
  82405240.225       -2373.522          44.000  
  21192648.752   111368109.621       -3526.492          45.000                  
                                                
  23332561.665   122613433.240       -3562.616          35.000    23332558.902  
  95542944.822       -2775.498          33.000  
  18860203.520    99111025.271       -2288.995          48.000    18860197.895  
  77229363.180       -1783.783          47.000  
  21450409.151   112722647.069        2732.387          40.000    21450404.758  
  87835819.455        2128.752          38.000  
  21812655.320   114626281.311        2618.738          38.000                  
                                                
  23448982.484                       -2492.754          27.000    23448867.948  
                     -1942.417          26.000  
 21  4 24 15 15 48.9930000  0 10G 4G 7G 8G 9G16G26G27G30G21G18
  21650252.739   113772819.984       -4120.581          42.000    21650247.337  
  88654144.352       -3211.206          40.000  
  18754434.199    98555199.570        1254.797          45.000    18754425.942  
  76796248.779         977.588          43.000  
  18162974.238    95447053.043         242.119          48.000    18162969.144  
  74374323.001         188.509          43.000  
  20124784.524   105756449.425       -3046.543          42.000    20124779.026  
  82407613.939       -2373.965          44.000  
  21193319.735   111371636.159       -3526.750          45.000                  
                                                
  23333239.699   122616995.417       -3562.161          35.000    23333236.861  
  95545720.574       -2776.143          33.000  
  18860639.198    99113314.545       -2289.557          48.000    18860633.573  
  77231147.033       -1784.204          47.000  
  21449889.345   112719915.095        2731.755          40.000    21449884.804  
  87833690.620        2128.895          39.000  
  21812156.937   114623662.153        2618.951          38.000                  
                                                
  23449456.722                       -2492.688          27.000    23449342.721  
                     -1942.522          26.000  
 21  4 24 15 15 49.9930000  0 10G 4G 7G 8G 9G16G26G27G30G21G18
  21651036.845   113776940.695       -4120.667          42.000    21651031.490  
  88657355.289       -3211.133          40.000  
  18754195.519    98553945.024        1254.199          45.000    18754187.237  
  76795271.193         977.509          43.000  
  18162928.250    95446811.305         241.340          48.000    18162923.013  
  74374134.636         187.964          43.000  
  20125364.288   105759496.122       -3046.713          42.000    20125358.849  
  82409987.998       -2374.244          44.000  
  21193990.748   111375162.785       -3526.824          45.000                  
                                                
  23333917.809   122620557.640       -3562.767          35.000    23333914.892  
  95548496.292       -2775.800          33.000  
  18861074.979    99115604.413       -2290.167          48.000    18861069.304  
  77232931.345       -1784.644          47.000  
  21449369.442   112717183.221        2731.896          40.000    21449365.021  
  87831561.889        2128.870          38.000  
  21811658.617   114621043.129        2618.896          38.000                  
                                                
  23449931.028                       -2493.350          27.000    23449817.285  
                     -1943.436          25.000  
 21  4 24 15 15 50.9930000  0 10G 4G 7G 8G 9G16G26G27G30G21G18
  21651821.017   113781061.489       -4120.837          42.000    21651815.719  
  88660566.278       -3210.999          40.000  
  18753956.850    98552690.821        1253.992          45.000    18753948.676  
  76794293.893         977.264          43.000  
  18162882.282    95446570.190         240.756          48.000    18162877.075  
  74373946.749         187.739          43.000  
  20125944.078   105762543.259       -3047.360          42.000    20125938.745  
  82412362.389       -2374.735          44.000  
  21194661.842   111378689.440       -3526.654          44.000                  
                                                
  23334595.860   122624119.731       -3562.248          35.000    23334592.884  
  95551271.984       -2776.053          33.000  
  18861510.916    99117894.824       -2290.686          48.000    18861505.058  
  77234716.082       -1784.924          47.000  
  21448849.608   112714451.457        2731.689          40.000    21448845.121  
  87829433.246        2128.619          38.000  
  21811160.227   114618424.175        2618.988          38.000                  
                                                
  23450405.779                       -2493.938          27.000    23450292.582  
              3      -1944.209          25.000  
 21  4 24 15 15 51.9930000  0 10G 4G 7G 8G 9G16G26G27G30G21G18
  21652605.184   113785182.153       -4120.562          42.000    21652599.861  
  88663777.192       -3210.797          40.000  
  18753718.343    98551436.759        1254.077          45.000    18753709.950  
  76793316.719         977.045          43.000  
  18162836.401    95446329.487         240.634          48.000    18162831.262  
  74373759.189         187.427          43.000  
  20126523.929   105765590.575       -3047.256          42.000    20126518.742  
  82414736.919       -2374.609          44.000  
  21195332.887   111382215.940       -3526.237          44.000                  
                                                
  23335273.812   122627681.602       -3561.617          36.000    23335270.831  
  95554047.449       -2775.691          33.000  
  18861946.906    99120185.591       -2290.784          48.000    18861940.988  
  77236501.094       -1784.973          47.000  
  21448329.768   112711719.573        2732.088          40.000    21448325.225  
  87827304.522        2128.939          38.000  
  21810661.828   114615805.086        2619.141          38.000                  
                                                
  23450880.514                       -2494.694          27.000    23450767.818  
              3      -1943.798          25.000  
 21  4 24 15 15 52.9930000  0 10G 4G 7G 8G 9G16G26G27G30G21G18
  21653389.349   113789302.843       -4120.453          42.000    21653383.982  
  88666988.122       -3210.852          40.000  
  18753479.760    98550182.981        1253.754          45.000    18753471.405  
  76792339.750         976.837          43.000  
  18162790.742    95446089.339         240.021          48.000    18162785.568  
  74373572.068         186.825          43.000  
  20127103.754   105768638.237       -3047.441          42.000    20127098.630  
  82417111.711       -2374.706          44.000  
  21196003.909   111385742.419       -3526.250          44.000                  
                                                
  23335951.789   122631243.313       -3561.256          36.000    23335948.693  
  95556822.821       -2775.568          33.000  
  18862382.910    99122476.830       -2291.241          48.000    18862376.928  
  77238286.479       -1785.431          47.000  
  21447810.005   112708987.669        2732.388          40.000    21447805.336  
  87825175.759        2129.326          38.000  
  21810163.426   114613186.004        2619.110          38.000                  
                                                
  23451355.001                       -2494.631          26.000    23451242.839  
              3      -1944.895          25.000  
 21  4 24 15 15 53.9930000  0 10G 4G 7G 8G 9G16G26G27G30G21G18
  21654173.454   113793423.378       -4120.508          42.000    21654168.045  
  88670198.919       -3210.693          40.000  
  18753241.162    98548929.300        1253.662          45.000    18753232.844  
  76791362.850         976.929          43.000  
  18162745.097    95445849.574         239.493          48.000    18162739.793  
  74373385.224         186.757          43.000  
  20127683.630   105771686.066       -3048.120          42.000    20127678.520  
  82419486.649       -2375.068          44.000  
  21196675.043   111389268.698       -3526.290          44.000                  
                                                
  23336629.620   122634804.778       -3561.375          36.000    23336626.650  
  95559597.970       -2775.268          33.000  
  18862819.022    99124768.370       -2291.736          48.000    18862812.919  
  77240072.100       -1785.809          47.000  
  21447290.137   112706255.658        2732.011          39.000    21447285.476  
  87823046.931        2128.628          38.000  
  21809665.007   114610566.743        2619.281          38.000                  
                                                
  23451829.910                       -2495.053          25.000    23451717.310  
              3      -1943.465          25.000  
 21  4 24 15 15 54.9930000  0 10G 4G 7G 8G 9G16G26G27G30G21G18
  21654957.576   113797543.973       -4120.611          42.000    21654952.046  
  88673409.774       -3210.944          40.000  
  18753002.659    98547675.957        1253.351          45.000    18752994.279  
  76790386.205         976.862          43.000  
  18162699.667    95445610.398         239.069          48.000    18162694.368  
  74373198.873         186.063          43.000  
  20128263.736   105774734.275       -3048.388          42.000    20128258.592  
  82421861.870       -2375.322          44.000  
  21197346.067   111392794.982       -3526.228          44.000                  
                                                
  23337307.571   122638366.117       -3561.154          36.000    23337304.399  
  95562373.032       -2774.510          33.000  
  18863255.139    99127060.435       -2292.267          48.000    18863249.155  
  77241858.124       -1786.188          47.000  
  21446770.215   112703523.683        2732.012          40.000    21446765.489  
  87820918.106        2128.856          38.000  
  21809166.554   114607947.521        2619.086          38.000                  
                                                
  23452304.878                3      -2495.507          25.000    23452192.154  
              3      -1945.835          25.000  
 21  4 24 15 15 55.9930000  0 10G 4G 7G 8G 9G16G26G27G30G21G18
  21655741.676   113801664.594       -4120.728          42.000    21655736.146  
  88676620.647       -3211.029          40.000  
  18752764.230    98546422.885        1253.027          45.000    18752755.827  
  76789409.797         976.233          43.000  
  18162654.280    95445371.787         238.322          48.000    18162648.961  
  74373012.936         185.441          43.000  
  20128843.820   105777782.816       -3048.868          42.000    20128838.777  
  82424237.359       -2375.719          44.000  
  21198017.146   111396321.262       -3526.393          44.000                  
                                                
  23337985.358   122641927.367       -3561.407          36.000    23337982.180  
  95565147.998       -2774.741          33.000  
  18863691.442    99129352.989       -2292.853          48.000    18863685.354  
  77243644.526       -1786.609          47.000  
  21446250.367   112700791.746        2731.817          40.000    21446245.575  
  87818789.336        2128.582          38.000  
  21808668.011   114605328.317        2619.049          38.000                  
                                                
                                                                  23452666.602  
              3      -1945.497          25.000  
